time, .header.id, .header.msg_type, .header.port_addr, .header.length, .header.sequence, .header.idle_time, .header.time_status, .header.gps_week, .header.gps_week_seconds, .header.receiver_status, .header.reserved, .header.software_version, .ins_status, .position_type, .latitude, .longitude, .altitude, .undulation, .north_velocity, .east_velocity, .up_velocity, .roll, .pitch, .azimuth, .latitude_std, .longitude_std, .altitude_std, .north_velocity_std, .east_velocity_std, .up_velocity_std, .roll_std, .pitch_std, .azimuth_std, .extended_status, .seconds_since_update
1.63715E+18,1465,0,160,126,0,63,180,2183,269656500,33554432,18205,15990,3,56,40.00671436,116.328223,50.37691508,-9.699999809,-0.000297368,0.003144749,-0.000101933,-0.583129838,1.483978585,180.8129079,0.017117577,0.017018331,0.017786896,0.001275273,0.001275272,0.001123965,0.012800231,0.012852793,0.129183933,251658309,0
1.63715E+18,1465,0,160,126,0,63,180,2183,269656520,33554432,18205,15990,3,56,40.00671436,116.328223,50.37688924,-9.699999809,0.000856489,0.001866678,-0.000472148,-0.584462672,1.483945369,180.8141489,0.017117577,0.017018331,0.017786896,0.001275273,0.001275272,0.001123965,0.012800231,0.012852793,0.129183933,251658309,0
1.63715E+18,1465,0,160,126,0,63,180,2183,269656540,33554432,18205,15990,3,56,40.00671436,116.328223,50.37689885,-9.699999809,-0.000677864,0.002703138,0.000293521,-0.583586466,1.483638846,180.8134876,0.017117577,0.017018331,0.017786896,0.001275273,0.001275272,0.001123965,0.012800231,0.012852793,0.129183933,251658309,0
1.63715E+18,1465,0,160,126,0,63,180,2183,269656560,33554432,18205,15990,3,56,40.00671436,116.328223,50.37688104,-9.699999809,-0.000552089,-9.93E-05,-8.38E-05,-0.584385296,1.482990918,180.8143405,0.017117577,0.017018331,0.017786896,0.001275273,0.001275272,0.001123965,0.012800231,0.012852793,0.129183933,251658309,0
1.63715E+18,1465,0,160,126,0,63,180,2183,269656580,33554432,18205,15990,3,56,40.00671436,116.328223,50.37688423,-9.699999809,-0.000108791,0.003657453,-0.000250188,-0.584135186,1.482195645,180.8133767,0.017117577,0.017018331,0.017786896,0.001275273,0.001275272,0.001123965,0.012800231,0.012852793,0.129183933,251658309,0
1.63715E+18,1465,0,160,126,0,63,180,2183,269656600,33554432,18205,15990,3,56,40.00671436,116.328223,50.37685474,-9.699999809,0.000951401,-0.001660055,-0.000878189,-0.585328598,1.482443147,180.8135324,0.017117577,0.017018331,0.017786896,0.001275273,0.001275272,0.001123965,0.012800231,0.012852793,0.129183933,251658309,0
1.63715E+18,1465,0,160,126,0,63,180,2183,269656620,33554432,18205,15990,3,56,40.00671436,116.328223,50.37686115,-9.699999809,-0.000282047,0.002886913,5.45E-05,-0.583399076,1.481702842,180.8128766,0.017117577,0.017018331,0.017786896,0.001275273,0.001275272,0.001123965,0.012800231,0.012852793,0.129183933,251658309,0
1.63715E+18,1465,0,160,126,0,63,180,2183,269656640,33554432,18205,15990,3,56,40.00671436,116.328223,50.37681664,-9.699999809,0.001018033,-0.000142188,-0.001938084,-0.585685043,1.482717612,180.8123716,0.017117577,0.017018331,0.017786896,0.001275273,0.001275272,0.001123965,0.012800231,0.012852793,0.129183933,251658309,0
1.63715E+18,1465,0,160,126,0,63,180,2183,269656660,33554432,18205,15990,3,56,40.00671436,116.328223,50.37681922,-9.699999809,0.000523763,0.000886202,-0.000237213,-0.581888999,1.482377971,180.8123467,0.017117577,0.017018331,0.017786896,0.001275273,0.001275272,0.001123965,0.012800231,0.012852793,0.129183933,251658309,0
1.63715E+18,1465,0,160,126,0,63,180,2183,269656680,33554432,18205,15990,3,56,40.00671436,116.328223,50.37676134,-9.699999809,0.002399564,0.001605082,-0.002879785,-0.582517116,1.482901943,180.8125907,0.017117577,0.017018331,0.017786896,0.001275273,0.001275272,0.001123965,0.012800231,0.012852793,0.129183933,251658309,0
1.63715E+18,1465,0,160,126,0,63,180,2183,269656700,33554432,18205,15990,3,56,40.00671436,116.328223,50.37676299,-9.699999809,0.00124827,0.001252814,-0.000363729,-0.581734395,1.481849394,180.8123685,0.017117577,0.017018331,0.017786896,0.001275273,0.001275272,0.001123965,0.012800231,0.012852793,0.129183933,251658309,0
1.63715E+18,1465,0,160,126,0,63,180,2183,269656720,33554432,18205,15990,3,56,40.00671436,116.328223,50.37672046,-9.699999809,0.002368211,0.000986134,-0.001807028,-0.582080254,1.482627971,180.8129574,0.017117577,0.017018331,0.017786896,0.001275273,0.001275272,0.001123965,0.012800231,0.012852793,0.129183933,251658309,0
1.63715E+18,1465,0,160,126,0,63,180,2183,269656740,33554432,18205,15990,3,56,40.00671436,116.328223,50.3767219,-9.699999809,0.001027546,0.004402112,-0.00017548,-0.581150912,1.484250025,180.8123685,0.017117577,0.017018331,0.017786896,0.001275273,0.001275272,0.001123965,0.012800231,0.012852793,0.129183933,251658309,0
1.63715E+18,1465,0,160,126,0,63,180,2183,269656760,33554432,18205,15990,3,56,40.00671436,116.328223,50.37667474,-9.699999809,0.001791263,0.001827228,-0.002157821,-0.583315471,1.484241607,180.8128362,0.017117577,0.017018331,0.017786896,0.001275273,0.001275272,0.001123965,0.012800231,0.012852793,0.129183933,251658309,0
1.63715E+18,1465,0,160,126,0,63,180,2183,269656780,33554432,18205,15990,3,56,40.00671436,116.328223,50.37667443,-9.699999809,0.001701839,0.004265647,-0.000572436,-0.58136229,1.482868244,180.8123379,0.017117577,0.017018331,0.017786896,0.001275273,0.001275272,0.001123965,0.012800231,0.012852793,0.129183933,251658309,0
1.63715E+18,1465,0,160,126,0,63,180,2183,269656800,33554432,18205,15990,3,56,40.00671436,116.328223,50.37661484,-9.699999809,0.001730984,0.003845018,-0.00287686,-0.584269074,1.485012277,180.8134011,0.017117577,0.017018331,0.017786896,0.001275273,0.001275272,0.001123965,0.012800231,0.012852793,0.129183933,251658309,0
1.63715E+18,1465,0,160,126,0,63,180,2183,269656820,33554432,18205,15990,3,56,40.00671436,116.328223,50.3766306,-9.699999809,-0.001085188,0.0025471,0.000230125,-0.583799938,1.484836099,180.8126123,0.017117577,0.017018331,0.017786896,0.001275273,0.001275272,0.001123965,0.012800231,0.012852793,0.129183933,251658309,0
1.63715E+18,1465,0,160,126,0,63,180,2183,269656840,33554432,18205,15990,3,56,40.00671436,116.328223,50.37657605,-9.699999809,0.002049646,0.003523434,-0.002826537,-0.584163327,1.483793359,180.8133327,0.017117577,0.017018331,0.017786896,0.001275273,0.001275272,0.001123965,0.012800231,0.012852793,0.129183933,251658309,0
1.63715E+18,1465,0,160,126,0,63,180,2183,269656860,33554432,18205,15990,3,56,40.00671436,116.328223,50.37658369,-9.699999809,0.000567443,0.002309084,-0.000347042,-0.583702716,1.484083859,180.8131523,0.017117577,0.017018331,0.017786896,0.001275273,0.001275272,0.001123965,0.012800231,0.012852793,0.129183933,251658309,0
1.63715E+18,1465,0,160,126,0,63,180,2183,269656880,33554432,18205,15990,3,56,40.00671436,116.328223,50.37653377,-9.699999809,7.27E-05,0.000480636,-0.002548795,-0.58422625,1.482706869,180.813184,0.017117577,0.017018331,0.017786896,0.001275273,0.001275272,0.001123965,0.012800231,0.012852793,0.129183933,251658309,0
1.63715E+18,1465,0,160,126,0,63,180,2183,269656900,33554432,18205,15990,3,56,40.00671436,116.328223,50.37653288,-9.699999809,0.000279597,0.00304126,-0.001010061,-0.583195198,1.483838398,180.8120955,0.017117577,0.017018331,0.017786896,0.001275273,0.001275272,0.001123965,0.012800231,0.012852793,0.129183933,251658309,0
1.63715E+18,1465,0,160,126,0,63,180,2183,269656920,33554432,18205,15990,3,56,40.00671436,116.328223,50.37648492,-9.699999809,0.001242744,-0.000746234,-0.002339776,-0.585360128,1.483233166,180.8123157,0.017117577,0.017018331,0.017786896,0.001275273,0.001275272,0.001123965,0.012800231,0.012852793,0.129183933,251658309,0
1.63715E+18,1465,0,160,126,0,63,180,2183,269656940,33554432,18205,15990,3,56,40.00671436,116.328223,50.3764882,-9.699999809,0.001661964,0.002804736,-0.001039076,-0.58380282,1.482613661,180.8121821,0.017117577,0.017018331,0.017786896,0.001275273,0.001275272,0.001123965,0.012800231,0.012852793,0.129183933,251658309,0
1.63715E+18,1465,0,160,126,0,63,180,2183,269656960,33554432,18205,15990,3,56,40.00671436,116.328223,50.37643393,-9.699999809,0.001092236,0.000333353,-0.002600804,-0.584958183,1.484179466,180.8118012,0.017117577,0.017018331,0.017786896,0.001275273,0.001275272,0.001123965,0.012800231,0.012852793,0.129183933,251658309,0
1.63715E+18,1465,0,160,126,0,63,180,2183,269656980,33554432,18205,15990,3,56,40.00671436,116.328223,50.3764385,-9.699999809,0.000918396,0.001402883,-0.001080261,-0.582684677,1.482837212,180.8118746,0.017117577,0.017018331,0.017786896,0.001275273,0.001275272,0.001123965,0.012800231,0.012852793,0.129183933,251658309,0
1.63715E+18,1465,0,160,126,0,63,180,2183,269657000,33554432,18205,15990,3,56,40.00671436,116.328223,50.37637846,-9.699999809,0.003225274,0.000590034,-0.003150081,-0.583986887,1.482454671,180.8117349,0.017117577,0.017018331,0.017786896,0.001275273,0.001275272,0.001123965,0.012800231,0.012852793,0.129183933,251658309,0
1.63715E+18,1465,0,160,126,0,63,180,2183,269657020,33554432,18205,15990,3,56,40.00671437,116.328223,50.37638107,-9.699999809,0.00101003,0.002660287,-0.001087857,-0.583885107,1.482520355,180.8120698,0.019490965,0.019403499,0.020086588,0.008829113,0.008829107,0.008553091,0.014878963,0.014924443,0.129576087,251658309,0
1.63715E+18,1465,0,160,126,0,63,180,2183,269657040,33554432,18205,15990,3,56,40.00671437,116.328223,50.37634126,-9.699999809,0.001175209,-0.001988953,-0.002586498,-0.584093205,1.483479545,180.8113619,0.01663135,0.016534997,0.017274305,0.001275065,0.001275061,0.001120758,0.01279998,0.012852553,0.125390366,251658309,0
1.63715E+18,1465,0,160,126,0,63,180,2183,269657060,33554432,18205,15990,3,56,40.00671436,116.328223,50.37634099,-9.699999809,0.001404807,0.004332716,-0.002223177,-0.584362816,1.482437719,180.8109277,0.01663135,0.016534997,0.017274305,0.001275065,0.001275061,0.001120758,0.01279998,0.012852553,0.125390366,251658309,0
1.63715E+18,1465,0,160,126,0,70,180,2183,269657080,33554432,18205,15990,3,56,40.00671436,116.328223,50.37630035,-9.699999809,0.002199837,-0.003226286,-0.002267018,-0.586278947,1.484126564,180.8107923,0.01663135,0.016534997,0.017274305,0.001275065,0.001275061,0.001120758,0.01279998,0.012852553,0.125390366,251658309,0
1.63715E+18,1465,0,160,126,0,70,180,2183,269657100,33554432,18205,15990,3,56,40.00671436,116.328223,50.37630116,-9.699999809,0.001572948,0.003860233,-0.002352507,-0.584087838,1.482854961,180.8110398,0.01663135,0.016534997,0.017274305,0.001275065,0.001275061,0.001120758,0.01279998,0.012852553,0.125390366,251658309,0
1.63715E+18,1465,0,160,126,0,70,180,2183,269657120,33554432,18205,15990,3,56,40.00671436,116.328223,50.37626963,-9.699999809,0.001376818,-0.001826971,-0.001624179,-0.586740287,1.483678391,180.8102626,0.01663135,0.016534997,0.017274305,0.001275065,0.001275061,0.001120758,0.01279998,0.012852553,0.125390366,251658309,0
1.63715E+18,1465,0,160,126,0,70,180,2183,269657140,33554432,18205,15990,3,56,40.00671436,116.328223,50.37625927,-9.699999809,0.000458196,0.001133467,-0.003017604,-0.584271703,1.482553114,180.8100643,0.01663135,0.016534997,0.017274305,0.001275065,0.001275061,0.001120758,0.01279998,0.012852553,0.125390366,251658309,0
1.63715E+18,1465,0,160,126,0,70,180,2183,269657160,33554432,18205,15990,3,56,40.00671436,116.328223,50.37623421,-9.699999809,0.001202941,-0.000804342,-0.001193502,-0.58503262,1.483458686,180.8094616,0.01663135,0.016534997,0.017274305,0.001275065,0.001275061,0.001120758,0.01279998,0.012852553,0.125390366,251658309,0
1.63715E+18,1465,0,160,126,0,70,180,2183,269657180,33554432,18205,15990,3,56,40.00671436,116.328223,50.37622291,-9.699999809,0.000676211,0.000645938,-0.002872958,-0.584569683,1.480764661,180.8090225,0.01663135,0.016534997,0.017274305,0.001275065,0.001275061,0.001120758,0.01279998,0.012852553,0.125390366,251658309,0
1.63715E+18,1465,0,160,126,0,70,180,2183,269657200,33554432,18205,15990,3,56,40.00671436,116.328223,50.37619927,-9.699999809,0.000759711,-0.003892146,-0.001111896,-0.584624984,1.482230268,180.8094299,0.01663135,0.016534997,0.017274305,0.001275065,0.001275061,0.001120758,0.01279998,0.012852553,0.125390366,251658309,0
1.63715E+18,1465,0,160,126,0,70,180,2183,269657220,33554432,18205,15990,3,56,40.00671436,116.328223,50.37617882,-9.699999809,-0.000618503,0.002113301,-0.003225286,-0.584365909,1.481921104,180.8083459,0.01663135,0.016534997,0.017274305,0.001275065,0.001275061,0.001120758,0.01279998,0.012852553,0.125390366,251658309,0
1.63715E+18,1465,0,160,126,0,70,180,2183,269657240,33554432,18205,15990,3,56,40.00671436,116.328223,50.37617813,-9.699999809,0.000838595,-0.004246857,0.000685722,-0.585694589,1.482020559,180.8085032,0.01663135,0.016534997,0.017274305,0.001275065,0.001275061,0.001120758,0.01279998,0.012852553,0.125390366,251658309,0
1.63715E+18,1465,0,160,126,0,70,180,2183,269657260,33554432,18205,15990,3,56,40.00671436,116.328223,50.37615023,-9.699999809,0.001739017,0.002544323,-0.003821397,-0.583591927,1.481177714,180.8084789,0.01663135,0.016534997,0.017274305,0.001275065,0.001275061,0.001120758,0.01279998,0.012852553,0.125390366,251658309,0
1.63715E+18,1465,0,160,126,0,70,180,2183,269657280,33554432,18205,15990,3,56,40.00671436,116.328223,50.37613863,-9.699999809,0.001944125,-0.001569364,-0.000263706,-0.586016294,1.480788065,180.8086138,0.01663135,0.016534997,0.017274305,0.001275065,0.001275061,0.001120758,0.01279998,0.012852553,0.125390366,251658309,0
1.63715E+18,1465,0,160,126,0,70,180,2183,269657300,33554432,18205,15990,3,56,40.00671436,116.328223,50.37609396,-9.699999809,0.00588055,0.001893221,-0.004537782,-0.587310755,1.479519613,180.80715,0.01663135,0.016534997,0.017274305,0.001275065,0.001275061,0.001120758,0.01279998,0.012852553,0.125390366,251658309,0
1.63715E+18,1465,0,160,126,0,70,180,2183,269657320,33554432,18205,15990,3,56,40.00671436,116.328223,50.37603285,-9.699999809,0.008185175,0.0017019,-0.003713089,-0.590969472,1.47914328,180.8050547,0.01663135,0.016534997,0.017274305,0.001275065,0.001275061,0.001120758,0.01279998,0.012852553,0.125390366,251658309,0
1.63715E+18,1465,0,160,126,0,70,180,2183,269657340,33554432,18205,15990,3,56,40.00671437,116.328223,50.37589903,-9.699999809,0.007034809,0.005696295,-0.009364583,-0.594741424,1.48135827,180.8041448,0.01663135,0.016534997,0.017274305,0.001275065,0.001275061,0.001120758,0.01279998,0.012852553,0.125390366,251658309,0
1.63715E+18,1465,0,160,126,0,70,180,2183,269657360,33554432,18205,15990,3,56,40.00671437,116.328223,50.37574952,-9.699999809,0.008925185,0.003763178,-0.008144587,-0.596964184,1.484358051,180.8044889,0.01663135,0.016534997,0.017274305,0.001275065,0.001275061,0.001120758,0.01279998,0.012852553,0.125390366,251658309,0
1.63715E+18,1465,0,160,126,0,70,180,2183,269657380,33554432,18205,15990,3,56,40.00671437,116.328223,50.3755478,-9.699999809,0.009030711,0.010526537,-0.012418961,-0.600275637,1.487149521,180.8054424,0.01663135,0.016534997,0.017274305,0.001275065,0.001275061,0.001120758,0.01279998,0.012852553,0.125390366,251658309,0
1.63715E+18,1465,0,160,126,0,70,180,2183,269657400,33554432,18205,15990,3,56,40.00671437,116.328223,50.37536445,-9.699999809,0.010655785,0.005972032,-0.009013239,-0.603673879,1.489816094,180.8068858,0.01663135,0.016534997,0.017274305,0.001275065,0.001275061,0.001120758,0.01279998,0.012852553,0.125390366,251658309,0
1.63715E+18,1465,0,160,126,0,70,180,2183,269657420,33554432,18205,15990,3,56,40.00671437,116.328223,50.375122,-9.699999809,0.009205253,0.014534438,-0.013986767,-0.607268266,1.494989045,180.8097969,0.01663135,0.016534997,0.017274305,0.001275065,0.001275061,0.001120758,0.01279998,0.012852553,0.125390366,251658309,0
1.63715E+18,1465,0,160,126,0,70,180,2183,269657440,33554432,18205,15990,3,56,40.00671437,116.328223,50.3749131,-9.699999809,0.008737878,0.008117402,-0.010108106,-0.612073137,1.500670523,180.8118854,0.01663135,0.016534997,0.017274305,0.001275065,0.001275061,0.001120758,0.01279998,0.012852553,0.125390366,251658309,0
1.63715E+18,1465,0,160,126,0,70,180,2183,269657460,33554432,18205,15990,3,56,40.00671437,116.328223,50.37464483,-9.699999809,0.007519079,0.012722065,-0.01505284,-0.617131688,1.504500525,180.8147515,0.01663135,0.016534997,0.017274305,0.001275065,0.001275061,0.001120758,0.01279998,0.012852553,0.125390366,251658309,0
1.63715E+18,1465,0,160,126,0,70,180,2183,269657480,33554432,18205,15990,3,56,40.00671438,116.328223,50.37441664,-9.699999809,0.007560672,0.007485954,-0.010880844,-0.621895414,1.509724079,180.8167734,0.01663135,0.016534997,0.017274305,0.001275065,0.001275061,0.001120758,0.01279998,0.012852553,0.125390366,251658309,0
1.63715E+18,1465,0,160,126,0,70,180,2183,269657500,33554432,18205,15990,3,56,40.00671438,116.328223,50.37415074,-9.699999809,0.003807237,0.008042125,-0.014357881,-0.627303797,1.515385528,180.8182998,0.01663135,0.016534997,0.017274305,0.001275065,0.001275061,0.001120758,0.01279998,0.012852553,0.125390366,251658309,0
1.63715E+18,1465,0,160,126,0,70,180,2183,269657520,33554432,18205,15990,3,56,40.00671438,116.328223,50.37394014,-9.699999809,0.001790237,0.002479598,-0.00984478,-0.62944427,1.52027564,180.8186801,0.01663135,0.016534997,0.017274305,0.001275065,0.001275061,0.001120758,0.01279998,0.012852553,0.125390366,251658309,0
1.63715E+18,1465,0,160,126,0,70,180,2183,269657540,33554432,18205,15990,3,56,40.00671438,116.328223,50.37367489,-9.699999809,-0.000199355,0.004523091,-0.014224308,-0.634787401,1.526359145,180.8192748,0.01663135,0.016534997,0.017274305,0.001275065,0.001275061,0.001120758,0.01279998,0.012852553,0.125390366,251658309,0
1.63715E+18,1465,0,160,126,0,70,180,2183,269657560,33554432,18205,15990,3,56,40.00671438,116.328223,50.37346851,-9.699999809,-0.003157658,-0.001769323,-0.009844856,-0.63589121,1.531774115,180.8193595,0.01663135,0.016534997,0.017274305,0.001275065,0.001275061,0.001120758,0.01279998,0.012852553,0.125390366,251658309,0
1.63715E+18,1465,0,160,126,0,70,180,2183,269657580,33554432,18205,15990,3,56,40.00671437,116.328223,50.37319701,-9.699999809,-0.006306365,0.001549387,-0.014750863,-0.63798227,1.537794812,180.818329,0.01663135,0.016534997,0.017274305,0.001275065,0.001275061,0.001120758,0.01279998,0.012852553,0.125390366,251658309,0
1.63715E+18,1465,0,160,126,0,70,180,2183,269657600,33554432,18205,15990,3,56,40.00671437,116.328223,50.37299199,-9.699999809,-0.010870447,-0.003683729,-0.009599847,-0.638184802,1.544709359,180.8165518,0.01663135,0.016534997,0.017274305,0.001275065,0.001275061,0.001120758,0.01279998,0.012852553,0.125390366,251658309,0
1.63715E+18,1465,0,160,126,0,70,180,2183,269657620,33554432,18205,15990,3,56,40.00671437,116.328223,50.37271892,-9.699999809,-0.015743075,-0.001298918,-0.014651521,-0.639755491,1.550462053,180.8163236,0.01663135,0.016534997,0.017274305,0.001275065,0.001275061,0.001120758,0.01279998,0.012852553,0.125390366,251658309,0
1.63715E+18,1465,0,160,126,0,70,180,2183,269657640,33554432,18205,15990,3,56,40.00671437,116.328223,50.37250423,-9.699999809,-0.019675419,-0.003503933,-0.010228273,-0.640815106,1.557444408,180.8150437,0.01663135,0.016534997,0.017274305,0.001275065,0.001275061,0.001120758,0.01279998,0.012852553,0.125390366,251658309,0
1.63715E+18,1465,0,160,126,0,70,180,2183,269657660,33554432,18205,15990,3,56,40.00671436,116.328223,50.37220402,-9.699999809,-0.026294962,-0.003422565,-0.015929087,-0.641363589,1.564644254,180.814345,0.01663135,0.016534997,0.017274305,0.001275065,0.001275061,0.001120758,0.01279998,0.012852553,0.125390366,251658309,0
1.63715E+18,1465,0,160,126,0,70,180,2183,269657680,33554432,18205,15990,3,56,40.00671436,116.328223,50.37196494,-9.699999809,-0.032762073,-0.003642803,-0.011448956,-0.639304602,1.57281768,180.8137241,0.01663135,0.016534997,0.017274305,0.001275065,0.001275061,0.001120758,0.01279998,0.012852553,0.125390366,251658309,0
1.63715E+18,1465,0,160,126,0,70,180,2183,269657700,33554432,18205,15990,3,56,40.00671435,116.328223,50.37163559,-9.699999809,-0.040898697,-0.003173213,-0.017358754,-0.6412843,1.581966453,180.8139201,0.01663135,0.016534997,0.017274305,0.001275065,0.001275061,0.001120758,0.01279998,0.012852553,0.125390366,251658309,0
1.63715E+18,1465,0,160,126,0,70,180,2183,269657720,33554432,18205,15990,3,56,40.00671434,116.328223,50.37138503,-9.699999809,-0.049298222,-0.003614134,-0.011763228,-0.639173684,1.591146594,180.8144012,0.01663135,0.016534997,0.017274305,0.001275065,0.001275061,0.001120758,0.01279998,0.012852553,0.125390366,251658309,0
1.63715E+18,1465,0,160,126,0,70,180,2183,269657740,33554432,18205,15990,3,56,40.00671433,116.328223,50.37103558,-9.699999809,-0.056334001,-0.003962578,-0.01827646,-0.640803001,1.600275761,180.8161956,0.01663135,0.016534997,0.017274305,0.001275065,0.001275061,0.001120758,0.01279998,0.012852553,0.125390366,251658309,0
1.63715E+18,1465,0,160,126,0,70,180,2183,269657760,33554432,18205,15990,3,56,40.00671432,116.328223,50.37077358,-9.699999809,-0.065990168,-0.002143715,-0.012337723,-0.638928343,1.610956625,180.8182211,0.01663135,0.016534997,0.017274305,0.001275065,0.001275061,0.001120758,0.01279998,0.012852553,0.125390366,251658309,0
1.63715E+18,1465,0,160,126,0,70,180,2183,269657780,33554432,18205,15990,3,56,40.00671431,116.328223,50.37041006,-9.699999809,-0.076215301,-0.005566999,-0.018462139,-0.639093352,1.621683428,180.8209707,0.01663135,0.016534997,0.017274305,0.001275065,0.001275061,0.001120758,0.01279998,0.012852553,0.125390366,251658309,0
1.63715E+18,1465,0,160,126,0,70,180,2183,269657800,33554432,18205,15990,3,56,40.00671429,116.328223,50.37015057,-9.699999809,-0.084967433,-0.001511781,-0.01213135,-0.637364369,1.631624299,180.8228874,0.01663135,0.016534997,0.017274305,0.001275065,0.001275061,0.001120758,0.01279998,0.012852553,0.125390366,251658309,0
1.63715E+18,1465,0,160,126,0,70,180,2183,269657820,33554432,18205,15990,3,56,40.00671428,116.328223,50.36981595,-9.699999809,-0.097384105,-0.007042151,-0.016272998,-0.638858258,1.641892506,180.8262611,0.01663135,0.016534997,0.017274305,0.001275065,0.001275061,0.001120758,0.01279998,0.012852553,0.125390366,251658309,0
1.63715E+18,1465,0,160,126,0,70,180,2183,269657840,33554432,18205,15990,3,56,40.00671426,116.328223,50.3695917,-9.699999809,-0.107422627,-0.003403924,-0.010115074,-0.635112214,1.651731671,180.8279129,0.01663135,0.016534997,0.017274305,0.001275065,0.001275061,0.001120758,0.01279998,0.012852553,0.125390366,251658309,0
1.63715E+18,1465,0,160,126,0,70,180,2183,269657860,33554432,18205,15990,3,56,40.00671424,116.328223,50.36929557,-9.699999809,-0.119689468,-0.00686766,-0.013853155,-0.637631953,1.660533464,180.829713,0.01663135,0.016534997,0.017274305,0.001275065,0.001275061,0.001120758,0.01279998,0.012852553,0.125390366,251658309,0
1.63715E+18,1465,0,160,126,0,70,180,2183,269657880,33554432,18205,15990,3,56,40.00671421,116.328223,50.36912733,-9.699999809,-0.129802191,-0.006158749,-0.006897895,-0.63474683,1.668211695,180.8314643,0.01663135,0.016534997,0.017274305,0.001275065,0.001275061,0.001120758,0.01279998,0.012852553,0.125390366,251658309,0
1.63715E+18,1465,0,160,126,0,70,180,2183,269657900,33554432,18205,15990,3,56,40.00671419,116.328223,50.36889222,-9.699999809,-0.143993272,-0.006516519,-0.010666285,-0.636954396,1.675758084,180.8326532,0.01663135,0.016534997,0.017274305,0.001275065,0.001275061,0.001120758,0.01279998,0.012852553,0.125390366,251658309,0
1.63715E+18,1465,0,160,126,0,70,180,2183,269657920,33554432,18205,15990,3,56,40.00671416,116.328223,50.3687826,-9.699999809,-0.153551116,-0.007375842,-0.004002472,-0.636186129,1.680858778,180.8340005,0.01663135,0.016534997,0.017274305,0.001275065,0.001275061,0.001120758,0.01279998,0.012852553,0.125390366,251658309,0
1.63715E+18,1465,0,160,126,0,70,180,2183,269657940,33554432,18205,15990,3,56,40.00671413,116.328223,50.36861635,-9.699999809,-0.167662775,-0.007614446,-0.007507369,-0.637482797,1.686375591,180.8349139,0.01663135,0.016534997,0.017274305,0.001275065,0.001275061,0.001120758,0.01279998,0.012852553,0.125390366,251658309,0
1.63715E+18,1465,0,160,126,0,70,180,2183,269657960,33554432,18205,15990,3,56,40.0067141,116.328223,50.36857025,-9.699999809,-0.177232503,-0.007417954,-0.000639863,-0.637868107,1.690016608,180.8356245,0.01663135,0.016534997,0.017274305,0.001275065,0.001275061,0.001120758,0.01279998,0.012852553,0.125390366,251658309,0
1.63715E+18,1465,0,160,126,0,70,180,2183,269657980,33554432,18205,15990,3,56,40.00671407,116.328223,50.36847655,-9.699999809,-0.190151436,-0.007827,-0.004226033,-0.640248653,1.691675602,180.8355195,0.01663135,0.016534997,0.017274305,0.001275065,0.001275061,0.001120758,0.01279998,0.012852553,0.125390366,251658309,0
1.63715E+18,1465,0,160,126,0,70,180,2183,269658000,33554432,18205,15990,3,56,40.00671403,116.328223,50.3684806,-9.699999809,-0.201256319,-0.008772008,0.001548772,-0.639573514,1.69379768,180.8363439,0.01663135,0.016534997,0.017274305,0.001275065,0.001275061,0.001120758,0.01279998,0.012852553,0.125390366,251658309,0
1.63715E+18,1465,0,160,126,0,70,180,2183,269658020,33554432,18205,15990,3,56,40.006714,116.328223,50.36842756,-9.699999809,-0.21394683,-0.006264475,-0.002957876,-0.642607629,1.694680847,180.8376042,0.018876478,0.018791348,0.019451067,0.008452008,0.00845737,0.008155737,0.014876622,0.014922705,0.125785872,251658309,0
1.63715E+18,1465,0,160,126,0,70,180,2183,269658040,33554432,18205,15990,3,56,40.00671396,116.328223,50.36846073,-9.699999809,-0.224818551,-0.009101803,0.002728726,-0.64413255,1.696336472,180.8386818,0.017702084,0.017614229,0.01828981,0.008366539,0.008370563,0.008075929,0.01487642,0.014922468,0.125784695,251666497,0
1.63715E+18,1465,0,160,126,0,67,180,2183,269658060,33554432,18205,15990,3,56,40.00671392,116.328223,50.36841916,-9.699999809,-0.23642275,-0.006207299,-0.002537079,-0.646264569,1.69664722,180.8403494,0.017702084,0.017614229,0.01828981,0.008366539,0.008370563,0.008075929,0.01487642,0.014922468,0.125784695,251666497,0
1.63715E+18,1465,0,160,126,0,67,180,2183,269658080,33554432,18205,15990,3,56,40.00671387,116.328223,50.36845889,-9.699999809,-0.248349161,-0.008672943,0.003007823,-0.647972919,1.697540079,180.8414117,0.017702084,0.017614229,0.01828981,0.008366539,0.008370563,0.008075929,0.01487642,0.014922468,0.125784695,251666497,0
1.63715E+18,1465,0,160,126,0,67,180,2183,269658100,33554432,18205,15990,3,56,40.00671383,116.328223,50.3684226,-9.699999809,-0.259351838,-0.007870698,-0.002352283,-0.649735585,1.696820879,180.8437574,0.017702084,0.017614229,0.01828981,0.008366539,0.008370563,0.008075929,0.01487642,0.014922468,0.125784695,251666497,0
1.63715E+18,1465,0,160,126,0,67,180,2183,269658120,33554432,18205,15990,3,56,40.00671378,116.328223,50.36845705,-9.699999809,-0.270980778,-0.008673118,0.002802526,-0.651199615,1.698708809,180.8452559,0.017702084,0.017614229,0.01828981,0.008366539,0.008370563,0.008075929,0.01487642,0.014922468,0.125784695,251666497,0
1.63715E+18,1465,0,160,126,0,67,180,2183,269658140,33554432,18205,15990,3,56,40.00671373,116.328223,50.36841697,-9.699999809,-0.28243692,-0.009736786,-0.003332051,-0.653401489,1.698211013,180.8472435,0.017702084,0.017614229,0.01828981,0.008366539,0.008370563,0.008075929,0.01487642,0.014922468,0.125784695,251666497,0
1.63715E+18,1465,0,160,126,0,67,180,2183,269658160,33554432,18205,15990,3,56,40.00671368,116.328223,50.36844188,-9.699999809,-0.293256066,-0.009420038,0.002129204,-0.654614318,1.698688669,180.8484159,0.017702084,0.017614229,0.01828981,0.008366539,0.008370563,0.008075929,0.01487642,0.014922468,0.125784695,251666497,0
1.63715E+18,1465,0,160,126,0,67,180,2183,269658180,33554432,18205,15990,3,56,40.00671362,116.328223,50.36839998,-9.699999809,-0.30364917,-0.010541474,-0.003155028,-0.658449674,1.697790179,180.8489414,0.017702084,0.017614229,0.01828981,0.008366539,0.008370563,0.008075929,0.01487642,0.014922468,0.125784695,251666497,0
1.63715E+18,1465,0,160,126,0,67,180,2183,269658200,33554432,18205,15990,3,56,40.00671357,116.328223,50.36845382,-9.699999809,-0.313772382,-0.011821513,0.004342492,-0.659961758,1.696888072,180.8487356,0.017702084,0.017614229,0.01828981,0.008366539,0.008370563,0.008075929,0.01487642,0.014922468,0.125784695,251666497,0
1.63715E+18,1465,0,160,126,0,67,180,2183,269658220,33554432,18205,15990,3,56,40.00671351,116.328223,50.36844571,-9.699999809,-0.325097291,-0.013273555,-0.000821065,-0.663492636,1.693786537,180.8479507,0.017702084,0.017614229,0.01828981,0.008366539,0.008370563,0.008075929,0.01487642,0.014922468,0.125784695,251666497,0
1.63715E+18,1465,0,160,126,0,67,180,2183,269658240,33554432,18205,15990,3,56,40.00671345,116.328223,50.36854644,-9.699999809,-0.334321722,-0.012501389,0.00686613,-0.665429725,1.692022728,180.8473917,0.017702084,0.017614229,0.01828981,0.008366539,0.008370563,0.008075929,0.01487642,0.014922468,0.125784695,251666497,0
1.63715E+18,1465,0,160,126,0,67,180,2183,269658260,33554432,18205,15990,3,56,40.00671339,116.328223,50.36855591,-9.699999809,-0.345717116,-0.016685693,0.000244555,-0.667257247,1.686772944,180.8467086,0.017702084,0.017614229,0.01828981,0.008366539,0.008370563,0.008075929,0.01487642,0.014922468,0.125784695,251666497,0
1.63715E+18,1465,0,160,126,0,67,180,2183,269658280,33554432,18205,15990,3,56,40.00671333,116.328223,50.36868491,-9.699999809,-0.352966692,-0.01291777,0.00797097,-0.667121882,1.683245498,180.8454579,0.017702084,0.017614229,0.01828981,0.008366539,0.008370563,0.008075929,0.01487642,0.014922468,0.125784695,251666497,0
1.63715E+18,1465,0,160,126,0,67,180,2183,269658300,33554432,18205,15990,3,56,40.00671326,116.328223,50.36869145,-9.699999809,-0.366067428,-0.018876424,0.000563752,-0.667886019,1.68045378,180.8442506,0.017702084,0.017614229,0.01828981,0.008366539,0.008370563,0.008075929,0.01487642,0.014922468,0.125784695,251666497,0
1.63715E+18,1465,0,160,126,0,67,180,2183,269658320,33554432,18205,15990,3,56,40.00671319,116.328223,50.36883331,-9.699999809,-0.374577534,-0.011933462,0.008474425,-0.668233917,1.676546044,180.8440744,0.017702084,0.017614229,0.01828981,0.008366539,0.008370563,0.008075929,0.01487642,0.014922468,0.125784695,251666497,0
1.63715E+18,1465,0,160,126,0,67,180,2183,269658340,33554432,18205,15990,3,56,40.00671313,116.328223,50.36883782,-9.699999809,-0.384785574,-0.018417527,0.001428256,-0.670486244,1.674929403,180.8429324,0.017702084,0.017614229,0.01828981,0.008366539,0.008370563,0.008075929,0.01487642,0.014922468,0.125784695,251666497,0
1.63715E+18,1465,0,160,126,0,67,180,2183,269658360,33554432,18205,15990,3,56,40.00671306,116.328223,50.36898192,-9.699999809,-0.395790285,-0.012028655,0.008230496,-0.671129398,1.672843246,180.844138,0.017702084,0.017614229,0.01828981,0.008366539,0.008370563,0.008075929,0.01487642,0.014922468,0.125784695,251666497,0
1.63715E+18,1465,0,160,126,0,67,180,2183,269658380,33554432,18205,15990,3,56,40.00671298,116.328223,50.36900481,-9.699999809,-0.405058143,-0.018100247,0.002894424,-0.673155064,1.669857594,180.8440428,0.017702084,0.017614229,0.01828981,0.008366539,0.008370563,0.008075929,0.01487642,0.014922468,0.125784695,251666497,0
1.63715E+18,1465,0,160,126,0,67,180,2183,269658400,33554432,18205,15990,3,56,40.00671291,116.328223,50.36914002,-9.699999809,-0.415238218,-0.013809289,0.007095295,-0.673906477,1.667167555,180.8454037,0.017702084,0.017614229,0.01828981,0.008366539,0.008370563,0.008075929,0.01487642,0.014922468,0.125784695,251666497,0
1.63715E+18,1465,0,160,126,0,67,180,2183,269658420,33554432,18205,15990,3,56,40.00671283,116.328223,50.36917736,-9.699999809,-0.426430667,-0.020163909,0.004351256,-0.674016002,1.664582745,180.845416,0.017702084,0.017614229,0.01828981,0.008366539,0.008370563,0.008075929,0.01487642,0.014922468,0.125784695,251666497,0
1.63715E+18,1465,0,160,126,0,67,180,2183,269658440,33554432,18205,15990,3,56,40.00671276,116.3282229,50.36931088,-9.699999809,-0.435919063,-0.015979496,0.006612829,-0.673651452,1.660223553,180.8471472,0.017702084,0.017614229,0.01828981,0.008366539,0.008370563,0.008075929,0.01487642,0.014922468,0.125784695,251666497,0
1.63715E+18,1465,0,160,126,0,67,180,2183,269658460,33554432,18205,15990,3,56,40.00671268,116.3282229,50.36937872,-9.699999809,-0.445113274,-0.022872256,0.006552154,-0.672144571,1.657145286,180.846338,0.017702084,0.017614229,0.01828981,0.008366539,0.008370563,0.008075929,0.01487642,0.014922468,0.125784695,251666497,0
1.63715E+18,1465,0,160,126,0,67,180,2183,269658480,33554432,18205,15990,3,56,40.0067126,116.3282229,50.36950391,-9.699999809,-0.454592748,-0.019277294,0.005521045,-0.670251505,1.651657066,180.8468201,0.017702084,0.017614229,0.01828981,0.008366539,0.008370563,0.008075929,0.01487642,0.014922468,0.125784695,251666497,0
1.63715E+18,1465,0,160,126,0,67,180,2183,269658500,33554432,18205,15990,3,56,40.00671251,116.3282229,50.36962139,-9.699999809,-0.463443364,-0.02518374,0.009559551,-0.669727271,1.647139669,180.8447938,0.017702084,0.017614229,0.01828981,0.008366539,0.008370563,0.008075929,0.01487642,0.014922468,0.125784695,251666497,0
1.63715E+18,1465,0,160,126,0,67,180,2183,269658520,33554432,18205,15990,3,56,40.00671243,116.3282229,50.36976336,-9.699999809,-0.47289151,-0.023672052,0.00618308,-0.667532486,1.641426234,180.8437595,0.017702084,0.017614229,0.01828981,0.008366539,0.008370563,0.008075929,0.01487642,0.014922468,0.125784695,251666497,0
1.63715E+18,1465,0,160,126,0,67,180,2183,269658540,33554432,18205,15990,3,56,40.00671234,116.3282229,50.36991917,-9.699999809,-0.480846458,-0.026165346,0.011119168,-0.666641349,1.634844855,180.8401692,0.017702084,0.017614229,0.01828981,0.008366539,0.008370563,0.008075929,0.01487642,0.014922468,0.125784695,251666497,0
1.63715E+18,1465,0,160,126,0,67,180,2183,269658560,33554432,18205,15990,3,56,40.00671226,116.3282229,50.37005394,-9.699999809,-0.489708752,-0.026576365,0.005202363,-0.664456513,1.628049337,180.8381751,0.017702084,0.017614229,0.01828981,0.008366539,0.008370563,0.008075929,0.01487642,0.014922468,0.125784695,251666497,0
1.63715E+18,1465,0,160,126,0,67,180,2183,269658580,33554432,18205,15990,3,56,40.00671217,116.3282229,50.3702386,-9.699999809,-0.496072727,-0.02621461,0.011973924,-0.661786276,1.622578988,180.8351631,0.017702084,0.017614229,0.01828981,0.008366539,0.008370563,0.008075929,0.01487642,0.014922468,0.125784695,251666497,0
1.63715E+18,1465,0,160,126,0,67,180,2183,269658600,33554432,18205,15990,3,56,40.00671208,116.3282229,50.3703567,-9.699999809,-0.50458424,-0.028199947,0.004090727,-0.660681073,1.616091647,180.8320954,0.017702084,0.017614229,0.01828981,0.008366539,0.008370563,0.008075929,0.01487642,0.014922468,0.125784695,251666497,0
1.63715E+18,1465,0,160,126,0,67,180,2183,269658620,33554432,18205,15990,3,56,40.00671199,116.3282229,50.37055388,-9.699999809,-0.51199101,-0.025462594,0.012121791,-0.65712641,1.611534382,180.828999,0.017702084,0.017614229,0.01828981,0.008366539,0.008370563,0.008075929,0.01487642,0.014922468,0.125784695,251666497,0
1.63715E+18,1465,0,160,126,0,67,180,2183,269658640,33554432,18205,15990,3,56,40.00671189,116.3282229,50.37064124,-9.699999809,-0.519264199,-0.027516048,0.002142237,-0.65568383,1.605710801,180.8265925,0.017702084,0.017614229,0.01828981,0.008366539,0.008370563,0.008075929,0.01487642,0.014922468,0.125784695,251666497,0
1.63715E+18,1465,0,160,126,0,67,180,2183,269658660,33554432,18205,15990,3,56,40.0067118,116.3282229,50.37084155,-9.699999809,-0.525122679,-0.024537621,0.011303563,-0.652480789,1.602720641,180.8241682,0.017702084,0.017614229,0.01828981,0.008366539,0.008370563,0.008075929,0.01487642,0.014922468,0.125784695,251666497,0
1.63715E+18,1465,0,160,126,0,67,180,2183,269658680,33554432,18205,15990,3,56,40.0067117,116.3282229,50.37090587,-9.699999809,-0.535279799,-0.027483907,0.000798485,-0.651740012,1.598167207,180.8220763,0.017702084,0.017614229,0.01828981,0.008366539,0.008370563,0.008075929,0.01487642,0.014922468,0.125784695,251666497,0
1.63715E+18,1465,0,160,126,0,67,180,2183,269658700,33554432,18205,15990,3,56,40.00671161,116.3282229,50.3710831,-9.699999809,-0.541133759,-0.023935564,0.009465767,-0.648792052,1.597677897,180.8202651,0.017702084,0.017614229,0.01828981,0.008366539,0.008370563,0.008075929,0.01487642,0.014922468,0.125784695,251666497,0
1.63715E+18,1465,0,160,126,0,67,180,2183,269658720,33554432,18205,15990,3,56,40.00671151,116.3282229,50.37109057,-9.699999809,-0.550237478,-0.028596498,-0.002429046,-0.646663552,1.5944886,180.8185071,0.017702084,0.017614229,0.01828981,0.008366539,0.008370563,0.008075929,0.01487642,0.014922468,0.125784695,251666497,0
1.63715E+18,1465,0,160,126,0,67,180,2183,269658740,33554432,18205,15990,3,56,40.00671141,116.3282229,50.37123473,-9.699999809,-0.556372055,-0.020262934,0.006885125,-0.644452076,1.595539971,180.8162645,0.017702084,0.017614229,0.01828981,0.008366539,0.008370563,0.008075929,0.01487642,0.014922468,0.125784695,251666497,0
1.63715E+18,1465,0,160,126,0,67,180,2183,269658760,33554432,18205,15990,3,56,40.00671131,116.3282229,50.37119579,-9.699999809,-0.566389538,-0.025722038,-0.004264622,-0.64588542,1.596825559,180.8151124,0.017702084,0.017614229,0.01828981,0.008366539,0.008370563,0.008075929,0.01487642,0.014922468,0.125784695,251666497,0
1.63715E+18,1465,0,160,126,0,67,180,2183,269658780,33554432,18205,15990,3,56,40.0067112,116.3282228,50.37130893,-9.699999809,-0.572376851,-0.016000425,0.004250391,-0.646852866,1.596450165,180.8130331,0.017702084,0.017614229,0.01828981,0.008366539,0.008370563,0.008075929,0.01487642,0.014922468,0.125784695,251666497,0
1.63715E+18,1465,0,160,126,0,67,180,2183,269658800,33554432,18205,15990,3,56,40.0067111,116.3282228,50.37125693,-9.699999809,-0.581900542,-0.021952137,-0.003992111,-0.652516499,1.59838819,180.8111058,0.017702084,0.017614229,0.01828981,0.008366539,0.008370563,0.008075929,0.01487642,0.014922468,0.125784695,251666497,0
1.63715E+18,1465,0,160,126,0,67,180,2183,269658820,33554432,18205,15990,3,56,40.00671099,116.3282228,50.37138556,-9.699999809,-0.591216632,-0.013565998,0.005133818,-0.656493131,1.598777095,180.8095327,0.017702084,0.017614229,0.01828981,0.008366539,0.008370563,0.008075929,0.01487642,0.014922468,0.125784695,251666497,0
1.63715E+18,1465,0,160,126,0,67,180,2183,269658840,33554432,18205,15990,3,56,40.00671089,116.3282228,50.37136013,-9.699999809,-0.600823566,-0.019942838,-0.002133187,-0.662958878,1.59970649,180.806143,0.017702084,0.017614229,0.01828981,0.008366539,0.008370563,0.008075929,0.01487642,0.014922468,0.125784695,251666497,0
1.63715E+18,1465,0,160,126,0,67,180,2183,269658860,33554432,18205,15990,3,56,40.00671078,116.3282228,50.37149215,-9.699999809,-0.608091212,-0.015198754,0.003850658,-0.665612462,1.598232525,180.804243,0.017702084,0.017614229,0.01828981,0.008366539,0.008370563,0.008075929,0.01487642,0.014922468,0.125784695,251666497,0
1.63715E+18,1465,0,160,126,0,67,180,2183,269658880,33554432,18205,15990,3,56,40.00671067,116.3282228,50.37147123,-9.699999809,-0.617299996,-0.02028978,-0.002001329,-0.67036403,1.599289051,180.8005595,0.017702084,0.017614229,0.01828981,0.008366539,0.008370563,0.008075929,0.01487642,0.014922468,0.125784695,251666497,0
1.63715E+18,1465,0,160,126,0,67,180,2183,269658900,33554432,18205,15990,3,56,40.00671056,116.3282228,50.37157967,-9.699999809,-0.624132989,-0.017455793,0.002051235,-0.6725506,1.597174541,180.7970798,0.017702084,0.017614229,0.01828981,0.008366539,0.008370563,0.008075929,0.01487642,0.014922468,0.125784695,251666497,0
1.63715E+18,1465,0,160,126,0,67,180,2183,269658920,33554432,18205,15990,3,56,40.00671044,116.3282228,50.37155796,-9.699999809,-0.632985456,-0.0222263,-0.001476186,-0.6768347,1.597862775,180.7922262,0.017702084,0.017614229,0.01828981,0.008366539,0.008370563,0.008075929,0.01487642,0.014922468,0.125784695,251666497,0
1.63715E+18,1465,0,160,126,0,67,180,2183,269658940,33554432,18205,15990,3,56,40.00671033,116.3282228,50.37164648,-9.699999809,-0.641579274,-0.019550383,0.00071014,-0.679938926,1.595784113,180.7875494,0.017702084,0.017614229,0.01828981,0.008366539,0.008370563,0.008075929,0.01487642,0.014922468,0.125784695,251666497,0
1.63715E+18,1465,0,160,126,0,67,180,2183,269658960,33554432,18205,15990,3,56,40.00671021,116.3282228,50.37165536,-9.699999809,-0.650283194,-0.024817306,0.00091388,-0.685810691,1.594754201,180.7814277,0.017702084,0.017614229,0.01828981,0.008366539,0.008370563,0.008075929,0.01487642,0.014922468,0.125784695,251666497,0
1.63715E+18,1465,0,160,126,0,67,180,2183,269658980,33554432,18205,15990,3,56,40.00671009,116.3282228,50.3717287,-9.699999809,-0.659679675,-0.023781785,8.98E-05,-0.689186632,1.591908465,180.7753901,0.017702084,0.017614229,0.01828981,0.008366539,0.008370563,0.008075929,0.01487642,0.014922468,0.125784695,251666497,0
1.63715E+18,1465,0,160,126,0,67,180,2183,269659000,33554432,18205,15990,3,56,40.00670997,116.3282228,50.37179064,-9.699999809,-0.668976745,-0.030316927,0.004605427,-0.69205252,1.590717244,180.7681258,0.017702084,0.017614229,0.01828981,0.008366539,0.008370563,0.008075929,0.01487642,0.014922468,0.125784695,251666497,0
1.63715E+18,1465,0,160,126,0,67,180,2183,269659020,33554432,18205,15990,3,56,40.00670985,116.3282228,50.37188245,-9.699999809,-0.676919268,-0.027093806,0.001498632,-0.692614394,1.586318258,180.7633118,0.023964008,0.023888247,0.024309117,0.01260981,0.012661978,0.011483208,0.024541922,0.024569426,0.127450198,251666497,0
1.63715E+18,1465,0,160,126,0,67,180,2183,269659040,33554432,18205,15990,3,56,40.00670973,116.3282228,50.37202305,-9.699999809,-0.684423815,-0.03031978,0.008112444,-0.694976874,1.585278525,180.7583849,0.021680513,0.021595379,0.022150515,0.012120317,0.012165972,0.011036665,0.024537411,0.024565753,0.127448991,251658305,0
1.63715E+18,1465,0,160,126,0,67,180,2183,269659060,33554432,18205,15990,3,56,40.00670961,116.3282228,50.37218366,-9.699999809,-0.69395443,-0.029391751,0.003298102,-0.696122078,1.579300483,180.7554671,0.021680513,0.021595379,0.022150515,0.012120317,0.012165972,0.011036665,0.024537411,0.024565753,0.127448991,251658305,0
1.63715E+18,1465,0,160,126,0,68,180,2183,269659080,33554432,18205,15990,3,56,40.00670948,116.3282228,50.37239735,-9.699999809,-0.701933474,-0.034334793,0.011362573,-0.69382074,1.574539806,180.7533269,0.021680513,0.021595379,0.022150515,0.012120317,0.012165972,0.011036665,0.024537411,0.024565753,0.127448991,251658305,0
1.63715E+18,1465,0,160,126,0,68,180,2183,269659100,33554432,18205,15990,3,56,40.00670935,116.3282228,50.37257378,-9.699999809,-0.710890215,-0.033633209,0.004334845,-0.689120298,1.568281335,180.7529975,0.021680513,0.021595379,0.022150515,0.012120317,0.012165972,0.011036665,0.024537411,0.024565753,0.127448991,251658305,0
1.63715E+18,1465,0,160,126,0,68,180,2183,269659120,33554432,18205,15990,3,56,40.00670923,116.3282228,50.37283091,-9.699999809,-0.717601654,-0.038157512,0.013769714,-0.683015648,1.563556697,180.7528916,0.021680513,0.021595379,0.022150515,0.012120317,0.012165972,0.011036665,0.024537411,0.024565753,0.127448991,251658305,0
1.63715E+18,1465,0,160,126,0,68,180,2183,269659140,33554432,18205,15990,3,56,40.00670909,116.3282227,50.37302226,-9.699999809,-0.728302136,-0.035332259,0.005355368,-0.676366035,1.554794272,180.7537591,0.021680513,0.021595379,0.022150515,0.012120317,0.012165972,0.011036665,0.024537411,0.024565753,0.127448991,251658305,0
1.63715E+18,1465,0,160,126,0,68,180,2183,269659160,33554432,18205,15990,3,56,40.00670896,116.3282227,50.37331393,-9.699999809,-0.734214688,-0.036925251,0.015413631,-0.672420674,1.548342502,180.7528453,0.021680513,0.021595379,0.022150515,0.012120317,0.012165972,0.011036665,0.024537411,0.024565753,0.127448991,251658305,0
1.63715E+18,1465,0,160,126,0,68,180,2183,269659180,33554432,18205,15990,3,56,40.00670883,116.3282227,50.37349995,-9.699999809,-0.742277275,-0.037929765,0.005732487,-0.668361095,1.53955326,180.7525145,0.021680513,0.021595379,0.022150515,0.012120317,0.012165972,0.011036665,0.024537411,0.024565753,0.127448991,251658305,0
1.63715E+18,1465,0,160,126,0,68,180,2183,269659200,33554432,18205,15990,3,56,40.0067087,116.3282227,50.37382799,-9.699999809,-0.748625549,-0.036435942,0.017219801,-0.665226504,1.533038114,180.7498537,0.021680513,0.021595379,0.022150515,0.012120317,0.012165972,0.011036665,0.024537411,0.024565753,0.127448991,251658305,0
1.63715E+18,1465,0,160,126,0,68,180,2183,269659220,33554432,18205,15990,3,56,40.00670856,116.3282227,50.37399854,-9.699999809,-0.754969419,-0.040755306,0.005861668,-0.664427496,1.526995536,180.7469498,0.021680513,0.021595379,0.022150515,0.012120317,0.012165972,0.011036665,0.024537411,0.024565753,0.127448991,251658305,0
1.63715E+18,1465,0,160,126,0,68,180,2183,269659240,33554432,18205,15990,3,56,40.00670842,116.3282227,50.37429606,-9.699999809,-0.761315829,-0.037833062,0.014884379,-0.660861311,1.523522635,180.7426833,0.021680513,0.021595379,0.022150515,0.012120317,0.012165972,0.011036665,0.024537411,0.024565753,0.127448991,251658305,0
1.63715E+18,1465,0,160,126,0,68,180,2183,269659260,33554432,18205,15990,3,56,40.00670829,116.3282227,50.37441826,-9.699999809,-0.766580217,-0.041657804,0.00376127,-0.660521416,1.521091626,180.7375652,0.021680513,0.021595379,0.022150515,0.012120317,0.012165972,0.011036665,0.024537411,0.024565753,0.127448991,251658305,0
1.63715E+18,1465,0,160,126,0,68,180,2183,269659280,33554432,18205,15990,3,56,40.00670815,116.3282227,50.37466099,-9.699999809,-0.772664123,-0.038371342,0.0118777,-0.6564191,1.521379183,180.7316575,0.021680513,0.021595379,0.022150515,0.012120317,0.012165972,0.011036665,0.024537411,0.024565753,0.127448991,251658305,0
1.63715E+18,1465,0,160,126,0,68,180,2183,269659300,33554432,18205,15990,3,56,40.00670801,116.3282227,50.37474794,-9.699999809,-0.779691075,-0.043289623,0.002944001,-0.65351257,1.51946652,180.7254865,0.021680513,0.021595379,0.022150515,0.012120317,0.012165972,0.011036665,0.024537411,0.024565753,0.127448991,251658305,0
1.63715E+18,1465,0,160,126,0,68,180,2183,269659320,33554432,18205,15990,3,56,40.00670787,116.3282227,50.3749591,-9.699999809,-0.78371989,-0.03598429,0.010057489,-0.649272725,1.52037649,180.7189042,0.021680513,0.021595379,0.022150515,0.012120317,0.012165972,0.011036665,0.024537411,0.024565753,0.127448991,251658305,0
1.63715E+18,1465,0,160,126,0,68,180,2183,269659340,33554432,18205,15990,3,56,40.00670773,116.3282227,50.37500012,-9.699999809,-0.791488157,-0.041452321,0.001307968,-0.648048058,1.522396377,180.7114597,0.021680513,0.021595379,0.022150515,0.012120317,0.012165972,0.011036665,0.024537411,0.024565753,0.127448991,251658305,0
1.63715E+18,1465,0,160,126,0,68,180,2183,269659360,33554432,18205,15990,3,56,40.00670758,116.3282226,50.37517322,-9.699999809,-0.795093917,-0.031665721,0.007824806,-0.645833659,1.524077653,180.7050214,0.021680513,0.021595379,0.022150515,0.012120317,0.012165972,0.011036665,0.024537411,0.024565753,0.127448991,251658305,0
1.63715E+18,1465,0,160,126,0,68,180,2183,269659380,33554432,18205,15990,3,56,40.00670744,116.3282226,50.37521244,-9.699999809,-0.80192344,-0.039678943,0.002530041,-0.646770412,1.52824309,180.6990081,0.021680513,0.021595379,0.022150515,0.012120317,0.012165972,0.011036665,0.024537411,0.024565753,0.127448991,251658305,0
1.63715E+18,1465,0,160,126,0,68,180,2183,269659400,33554432,18205,15990,3,56,40.00670729,116.3282226,50.37537579,-9.699999809,-0.808454049,-0.029320993,0.0074118,-0.646626672,1.531434991,180.6929183,0.021680513,0.021595379,0.022150515,0.012120317,0.012165972,0.011036665,0.024537411,0.024565753,0.127448991,251658305,0
1.63715E+18,1465,0,160,126,0,68,180,2183,269659420,33554432,18205,15990,3,56,40.00670715,116.3282226,50.37543503,-9.699999809,-0.813631509,-0.039344999,0.003800829,-0.647971953,1.535374917,180.688168,0.021680513,0.021595379,0.022150515,0.012120317,0.012165972,0.011036665,0.024537411,0.024565753,0.127448991,251658305,0
1.63715E+18,1465,0,160,126,0,68,180,2183,269659440,33554432,18205,15990,3,56,40.006707,116.3282226,50.37559094,-9.699999809,-0.820754377,-0.031230895,0.006396946,-0.644647443,1.538554143,180.6850329,0.021680513,0.021595379,0.022150515,0.012120317,0.012165972,0.011036665,0.024537411,0.024565753,0.127448991,251658305,0
1.63715E+18,1465,0,160,126,0,68,180,2183,269659460,33554432,18205,15990,3,56,40.00670685,116.3282226,50.37562066,-9.699999809,-0.825711837,-0.040721895,0.001806066,-0.642658691,1.54312865,180.6823815,0.021680513,0.021595379,0.022150515,0.012120317,0.012165972,0.011036665,0.024537411,0.024565753,0.127448991,251658305,0
1.63715E+18,1465,0,160,126,0,68,180,2183,269659480,33554432,18205,15990,3,56,40.0067067,116.3282226,50.37570034,-9.699999809,-0.832661999,-0.033990257,0.001630672,-0.637917629,1.54701739,180.6825108,0.021680513,0.021595379,0.022150515,0.012120317,0.012165972,0.011036665,0.024537411,0.024565753,0.127448991,251658305,0
1.63715E+18,1465,0,160,126,0,68,180,2183,269659500,33554432,18205,15990,3,56,40.00670655,116.3282226,50.37574069,-9.699999809,-0.84184368,-0.044206493,0.004061554,-0.632307319,1.552246211,180.6821082,0.021680513,0.021595379,0.022150515,0.012120317,0.012165972,0.011036665,0.024537411,0.024565753,0.127448991,251658305,0
1.63715E+18,1465,0,160,126,0,68,180,2183,269659520,33554432,18205,15990,3,56,40.0067064,116.3282226,50.37585892,-9.699999809,-0.850696438,-0.040665504,0.004887887,-0.625627615,1.553661757,180.682931,0.021680513,0.021595379,0.022150515,0.012120317,0.012165972,0.011036665,0.024537411,0.024565753,0.127448991,251658305,0
1.63715E+18,1465,0,160,126,0,68,180,2183,269659540,33554432,18205,15990,3,56,40.00670625,116.3282226,50.37600681,-9.699999809,-0.859107934,-0.047600933,0.010323316,-0.617751342,1.555709876,180.6829002,0.021680513,0.021595379,0.022150515,0.012120317,0.012165972,0.011036665,0.024537411,0.024565753,0.127448991,251658305,0
1.63715E+18,1465,0,160,126,0,68,180,2183,269659560,33554432,18205,15990,3,56,40.00670609,116.3282226,50.37622036,-9.699999809,-0.866924549,-0.039617869,0.009720925,-0.613049968,1.554691882,180.6848035,0.021680513,0.021595379,0.022150515,0.012120317,0.012165972,0.011036665,0.024537411,0.024565753,0.127448991,251658305,0
1.63715E+18,1465,0,160,126,0,68,180,2183,269659580,33554432,18205,15990,3,56,40.00670593,116.3282225,50.37651328,-9.699999809,-0.872912563,-0.046872976,0.017300378,-0.608800095,1.550747635,180.6847356,0.021680513,0.021595379,0.022150515,0.012120317,0.012165972,0.011036665,0.024537411,0.024565753,0.127448991,251658305,0
1.63715E+18,1465,0,160,126,0,68,180,2183,269659600,33554432,18205,15990,3,56,40.00670578,116.3282225,50.37681383,-9.699999809,-0.880314449,-0.041514509,0.01324,-0.604243127,1.543589426,180.685942,0.021680513,0.021595379,0.022150517,0.012120317,0.012165972,0.011036665,0.024537411,0.024565753,0.127448991,251658305,0
1.63715E+18,1465,0,160,126,0,68,180,2183,269659620,33554432,18205,15990,3,56,40.00670562,116.3282225,50.37721017,-9.699999809,-0.887502882,-0.049489614,0.021836233,-0.597813416,1.537746794,180.6853718,0.021680513,0.021595379,0.022150517,0.012120317,0.012165972,0.011036665,0.024537411,0.024565753,0.127448991,251658305,0
1.63715E+18,1465,0,160,126,0,68,180,2183,269659640,33554432,18205,15990,3,56,40.00670546,116.3282225,50.37753761,-9.699999809,-0.894566797,-0.046704996,0.013521404,-0.588560704,1.530006446,180.6868853,0.021680513,0.021595379,0.022150517,0.012120317,0.012165972,0.011036665,0.024537411,0.024565753,0.127448991,251658305,0
1.63715E+18,1465,0,160,126,0,68,180,2183,269659660,33554432,18205,15990,3,56,40.00670529,116.3282225,50.37794812,-9.699999809,-0.898454273,-0.048260247,0.021555554,-0.580431619,1.524032498,180.6846374,0.021680513,0.021595379,0.022150517,0.012120317,0.012165972,0.011036665,0.024537411,0.024565753,0.127448991,251658305,0
1.63715E+18,1465,0,160,126,0,68,180,2183,269659680,33554432,18205,15990,3,56,40.00670513,116.3282225,50.3782823,-9.699999809,-0.909830714,-0.045526872,0.013853802,-0.575607393,1.517082901,180.6828738,0.021680513,0.021595379,0.022150517,0.012120317,0.012165972,0.011036665,0.024537411,0.024565753,0.127448991,251658305,0
1.63715E+18,1465,0,160,126,0,68,180,2183,269659700,33554432,18205,15990,3,56,40.00670497,116.3282225,50.37867524,-9.699999809,-0.911064568,-0.047679297,0.018125229,-0.569631367,1.510588259,180.6775873,0.021680513,0.021595379,0.022150517,0.012120317,0.012165972,0.011036665,0.024537411,0.024565753,0.127448991,251658305,0
1.63715E+18,1465,0,160,126,0,68,180,2183,269659720,33554432,18205,15990,3,56,40.0067048,116.3282225,50.37891222,-9.699999809,-0.916524645,-0.046769369,0.007640945,-0.565668848,1.50810566,180.6733871,0.021680513,0.021595379,0.022150517,0.012120317,0.012165972,0.011036665,0.024537411,0.024565753,0.127448991,251658305,0
1.63715E+18,1465,0,160,126,0,68,180,2183,269659740,33554432,18205,15990,3,56,40.00670464,116.3282224,50.37921724,-9.699999809,-0.920933431,-0.048632979,0.013408739,-0.557591815,1.507182201,180.6678799,0.021680513,0.021595379,0.022150517,0.012120317,0.012165972,0.011036665,0.024537411,0.024565753,0.127448991,251658305,0
1.63715E+18,1465,0,160,126,0,68,180,2183,269659760,33554432,18205,15990,3,56,40.00670447,116.3282224,50.37931437,-9.699999809,-0.922893973,-0.048772526,0.00013282,-0.551630143,1.507643117,180.664749,0.021680513,0.021595379,0.022150517,0.012120317,0.012165972,0.011036665,0.024537411,0.024565753,0.127448991,251658305,0
1.63715E+18,1465,0,160,126,0,68,180,2183,269659780,33554432,18205,15990,3,56,40.0067043,116.3282224,50.37950949,-9.699999809,-0.927955108,-0.04510115,0.007232088,-0.544080258,1.512022096,180.6607705,0.021680513,0.021595379,0.022150517,0.012120317,0.012165972,0.011036665,0.024537411,0.024565753,0.127448991,251658305,0
1.63715E+18,1465,0,160,126,0,68,180,2183,269659800,33554432,18205,15990,3,56,40.00670414,116.3282224,50.37948102,-9.699999809,-0.933523654,-0.044079542,-0.00616002,-0.542229001,1.516607065,180.6596573,0.021680513,0.021595379,0.022150517,0.012120317,0.012165972,0.011036665,0.024537411,0.024565753,0.127448991,251658305,0
1.63715E+18,1465,0,160,126,0,68,180,2183,269659820,33554432,18205,15990,3,56,40.00670397,116.3282224,50.37957062,-9.699999809,-0.937917591,-0.037260038,0.001989438,-0.540488703,1.524642628,180.6602464,0.021680513,0.021595379,0.022150517,0.012120317,0.012165972,0.011036665,0.024537411,0.024565753,0.127448991,251658305,0
1.63715E+18,1465,0,160,126,0,68,180,2183,269659840,33554432,18205,15990,3,56,40.0067038,116.3282224,50.37948797,-9.699999809,-0.944691986,-0.041819865,-0.007645887,-0.542585698,1.530102047,180.6627299,0.021680513,0.021595379,0.022150517,0.012120317,0.012165972,0.011036665,0.024537411,0.024565753,0.127448991,251658305,0
1.63715E+18,1465,0,160,126,0,68,180,2183,269659860,33554432,18205,15990,3,56,40.00670363,116.3282224,50.37950163,-9.699999809,-0.951564647,-0.036102594,-0.00167,-0.542166412,1.538505393,180.6671088,0.021680513,0.021595379,0.022150517,0.012120317,0.012165972,0.011036665,0.024537411,0.024565753,0.127448991,251658305,0
1.63715E+18,1465,0,160,126,0,68,180,2183,269659880,33554432,18205,15990,3,56,40.00670346,116.3282224,50.37934428,-9.699999809,-0.960058935,-0.041916653,-0.011280742,-0.543854025,1.543515455,180.6734486,0.021680513,0.021595379,0.022150517,0.012120317,0.012165972,0.011036665,0.024537411,0.024565753,0.127448991,251658305,0
1.63715E+18,1465,0,160,126,0,68,180,2183,269659900,33554432,18205,15990,3,56,40.00670328,116.3282224,50.37933382,-9.699999809,-0.964180083,-0.039494929,-0.003316134,-0.541600271,1.549925012,180.681511,0.021680513,0.021595379,0.022150517,0.012120317,0.012165972,0.011036665,0.024537411,0.024565753,0.127448991,251658305,0
1.63715E+18,1465,0,160,126,0,68,180,2183,269659920,33554432,18205,15990,3,56,40.00670311,116.3282224,50.37912535,-9.699999809,-0.97385603,-0.045582784,-0.013783522,-0.541546585,1.556774269,180.689037,0.021680513,0.021595379,0.022150517,0.012120317,0.012165972,0.011036665,0.024537411,0.024565753,0.127448991,251658305,0
1.63715E+18,1465,0,160,126,0,68,180,2183,269659940,33554432,18205,15990,3,56,40.00670293,116.3282223,50.37907819,-9.699999809,-0.981724627,-0.044339347,-0.006323896,-0.53629977,1.562905713,180.6968806,0.021680513,0.021595379,0.022150517,0.012120317,0.012165972,0.011036665,0.024537411,0.024565753,0.127448991,251658305,0
1.63715E+18,1465,0,160,126,0,68,180,2183,269659960,33554432,18205,15990,3,56,40.00670275,116.3282223,50.37880865,-9.699999809,-0.987916849,-0.051400667,-0.016746325,-0.532848958,1.570149016,180.7053273,0.021680513,0.021595379,0.022150517,0.012120317,0.012165972,0.011036665,0.024537411,0.024565753,0.127448991,251658305,0
1.63715E+18,1465,0,160,126,0,68,180,2183,269659980,33554432,18205,15990,3,56,40.00670258,116.3282223,50.37869888,-9.699999809,-0.997008533,-0.044980241,-0.009920996,-0.528202693,1.577683617,180.7119023,0.021680513,0.021595379,0.022150517,0.012120317,0.012165972,0.011036665,0.024537411,0.024565753,0.127448991,251658305,0
1.63715E+18,1465,0,160,126,0,68,180,2183,269660000,33554432,18205,15990,3,56,40.00670239,116.3282223,50.37842433,-9.699999809,-1.005847549,-0.053225007,-0.015386597,-0.526173754,1.586505917,180.7197774,0.021680513,0.021595379,0.022150517,0.012120317,0.012165972,0.011036665,0.024537411,0.024565753,0.127448991,251658305,0
1.63715E+18,1465,0,160,126,0,68,180,2183,269660020,33554432,18205,15990,3,56,40.00670221,116.3282223,50.37830387,-9.699999809,-1.013769683,-0.043819253,-0.010460695,-0.523093184,1.593460558,180.726871,0.021680513,0.021595379,0.022150517,0.012120317,0.012165972,0.011036665,0.024537411,0.024565753,0.127448991,251658305,0
1.63715E+18,1465,0,160,126,0,68,180,2183,269660040,33554432,18205,15990,3,56,40.00670203,116.3282223,50.3780703,-9.699999809,-1.021333523,-0.053174129,-0.012169241,-0.522003851,1.601092407,180.7339631,0.02703898,0.026926633,0.027317051,0.015004038,0.015062103,0.012642036,0.026403844,0.026436787,0.127929062,251666497,0
1.63715E+18,1465,0,160,126,0,68,180,2183,269660060,33554432,18205,15990,3,56,40.00670185,116.3282223,50.37793042,-9.699999809,-1.029591727,-0.04329533,-0.010924719,-0.519515173,1.605720438,180.7433522,0.02703898,0.026926633,0.027317051,0.015004038,0.015062103,0.012642036,0.026403844,0.026436787,0.127929062,251666497,0
1.63715E+18,1465,0,160,126,0,65,180,2183,269660080,33554432,18205,15990,3,56,40.00670166,116.3282223,50.37771416,-9.699999809,-1.034952841,-0.052347358,-0.010766271,-0.519813922,1.612917586,180.7511103,0.02703898,0.026926633,0.027317051,0.015004038,0.015062103,0.012642036,0.026403844,0.026436787,0.127929062,251666497,0
1.63715E+18,1465,0,160,126,0,65,180,2183,269660100,33554432,18205,15990,3,56,40.00670147,116.3282222,50.37755345,-9.699999809,-1.045485534,-0.045435885,-0.012099411,-0.518274237,1.618888159,180.7617982,0.02703898,0.026926633,0.027317051,0.015004038,0.015062103,0.012642036,0.026403844,0.026436787,0.127929062,251666497,0
1.63715E+18,1465,0,160,126,0,65,180,2183,269660120,33554432,18205,15990,3,56,40.00670129,116.3282222,50.37734592,-9.699999809,-1.055028738,-0.051737382,-0.010117415,-0.51794995,1.623873237,180.7719432,0.02703898,0.026926633,0.027317051,0.015004038,0.015062103,0.012642036,0.026403844,0.026436787,0.127929062,251666497,0
1.63715E+18,1465,0,160,126,0,65,180,2183,269660140,33554432,18205,15990,3,56,40.0067011,116.3282222,50.37716291,-9.699999809,-1.063551674,-0.047208149,-0.013052201,-0.519115797,1.628024604,180.7854191,0.02703898,0.026926633,0.027317051,0.015004038,0.015062103,0.012642036,0.026403844,0.026436787,0.127929062,251666497,0
1.63715E+18,1465,0,160,126,0,65,180,2183,269660160,33554432,18205,15990,3,56,40.0067009,116.3282222,50.37699133,-9.699999809,-1.070966843,-0.049188256,-0.007580504,-0.519529264,1.632352071,180.7980377,0.02703898,0.026926633,0.027317051,0.015004038,0.015062103,0.012642036,0.026403844,0.026436787,0.127929062,251666497,0
1.63715E+18,1465,0,160,126,0,65,180,2183,269660180,33554432,18205,15990,3,56,40.00670071,116.3282222,50.37679346,-9.699999809,-1.079523993,-0.045453087,-0.013551479,-0.522162953,1.63342319,180.8149106,0.02703898,0.026926633,0.027317051,0.015004038,0.015062103,0.012642036,0.026403844,0.026436787,0.127929062,251666497,0
1.63715E+18,1465,0,160,126,0,65,180,2183,269660200,33554432,18205,15990,3,56,40.00670052,116.3282222,50.37669035,-9.699999809,-1.088460883,-0.046027304,-0.002565627,-0.526393032,1.636581395,180.8312079,0.02703898,0.026926633,0.027317051,0.015004038,0.015062103,0.012642036,0.026403844,0.026436787,0.127929062,251666497,0
