time, .header.id, .header.msg_type, .header.port_addr, .header.length, .header.sequence, .header.idle_time, .header.time_status, .header.gps_week, .header.gps_week_seconds, .header.receiver_status, .header.reserved, .header.software_version, .ins_status, .position_type, .latitude, .longitude, .altitude, .undulation, .north_velocity, .east_velocity, .up_velocity, .roll, .pitch, .azimuth, .latitude_std, .longitude_std, .altitude_std, .north_velocity_std, .east_velocity_std, .up_velocity_std, .roll_std, .pitch_std, .azimuth_std, .extended_status, .seconds_since_update
1637149246192482611, 1465, 0, 160, 126, 0, 63, 180, 2183, 269656440, 33554432, 18205, 15990, 3, 56, 40.0067143615, 116.328223019, 50.3769498048, -9.69999980927, 0.0012603273596, -0.000226964576519, -0.000448726602346, -0.584085262835, 1.48431052518, 180.813588412, 0.0171175766736, 0.0170183312148, 0.0177868958563, 0.00127527338918, 0.00127527164295, 0.00112396548502, 0.0128002306446, 0.0128527926281, 0.129183933139, 251658309, 0
1637149246192534799, 1465, 0, 160, 126, 0, 63, 180, 2183, 269656460, 33554432, 18205, 15990, 3, 56, 40.0067143616, 116.328223019, 50.3769428423, -9.69999980927, 0.000929027925634, 0.00551812650687, -0.000922086573973, -0.58279068305, 1.48370729543, 180.812738313, 0.0171175766736, 0.0170183312148, 0.0177868958563, 0.00127527338918, 0.00127527164295, 0.00112396548502, 0.0128002306446, 0.0128527926281, 0.129183933139, 251658309, 0
1637149246192552269, 1465, 0, 160, 126, 0, 63, 180, 2183, 269656480, 33554432, 18205, 15990, 3, 56, 40.0067143617, 116.32822302, 50.3769111037, -9.69999980927, 0.000862205523636, 0.00146870120606, -0.000615827619626, -0.585555245693, 1.48377195915, 180.812967727, 0.0171175766736, 0.0170183312148, 0.0177868958563, 0.00127527338918, 0.00127527164295, 0.00112396548502, 0.0128002306446, 0.0128527926281, 0.129183933139, 251658309, 0
1637149246210212377, 1465, 0, 160, 126, 0, 63, 180, 2183, 269656500, 33554432, 18205, 15990, 3, 56, 40.0067143616, 116.32822302, 50.3769150805, -9.69999980927, -0.000297367719414, 0.00314474932587, -0.000101932726901, -0.583129837611, 1.48397858474, 180.812907868, 0.0171175766736, 0.0170183312148, 0.0177868958563, 0.00127527338918, 0.00127527164295, 0.00112396548502, 0.0128002306446, 0.0128527926281, 0.129183933139, 251658309, 0
1637149246232070518, 1465, 0, 160, 126, 0, 63, 180, 2183, 269656520, 33554432, 18205, 15990, 3, 56, 40.0067143618, 116.32822302, 50.3768892428, -9.69999980927, 0.000856489125601, 0.00186667842051, -0.000472147836814, -0.584462672216, 1.4839453686, 180.814148941, 0.0171175766736, 0.0170183312148, 0.0177868958563, 0.00127527338918, 0.00127527164295, 0.00112396548502, 0.0128002306446, 0.0128527926281, 0.129183933139, 251658309, 0
1637149246249971056, 1465, 0, 160, 126, 0, 63, 180, 2183, 269656540, 33554432, 18205, 15990, 3, 56, 40.0067143617, 116.32822302, 50.3768988466, -9.69999980927, -0.000677864386165, 0.00270313841348, 0.000293521433314, -0.583586466336, 1.48363884567, 180.813487617, 0.0171175766736, 0.0170183312148, 0.0177868958563, 0.00127527338918, 0.00127527164295, 0.00112396548502, 0.0128002306446, 0.0128527926281, 0.129183933139, 251658309, 0
1637149246273062194, 1465, 0, 160, 126, 0, 63, 180, 2183, 269656560, 33554432, 18205, 15990, 3, 56, 40.0067143616, 116.32822302, 50.3768810444, -9.69999980927, -0.00055208886289, -9.93045018752e-05, -8.38022538535e-05, -0.584385296317, 1.48299091789, 180.814340525, 0.0171175766736, 0.0170183312148, 0.0177868958563, 0.00127527338918, 0.00127527164295, 0.00112396548502, 0.0128002306446, 0.0128527926281, 0.129183933139, 251658309, 0
1637149246290324940, 1465, 0, 160, 126, 0, 63, 180, 2183, 269656580, 33554432, 18205, 15990, 3, 56, 40.0067143615, 116.32822302, 50.3768842323, -9.69999980927, -0.000108790573554, 0.00365745294753, -0.000250188161898, -0.584135186225, 1.48219564526, 180.813376712, 0.0171175766736, 0.0170183312148, 0.0177868958563, 0.00127527338918, 0.00127527164295, 0.00112396548502, 0.0128002306446, 0.0128527926281, 0.129183933139, 251658309, 0
1637149246310862270, 1465, 0, 160, 126, 0, 63, 180, 2183, 269656600, 33554432, 18205, 15990, 3, 56, 40.0067143616, 116.32822302, 50.3768547373, -9.69999980927, 0.0009514013634, -0.00166005499974, -0.00087818864416, -0.585328597504, 1.4824431472, 180.813532357, 0.0171175766736, 0.0170183312148, 0.0177868958563, 0.00127527338918, 0.00127527164295, 0.00112396548502, 0.0128002306446, 0.0128527926281, 0.129183933139, 251658309, 0
1637149246329882097, 1465, 0, 160, 126, 0, 63, 180, 2183, 269656620, 33554432, 18205, 15990, 3, 56, 40.0067143615, 116.32822302, 50.3768611541, -9.69999980927, -0.000282047198557, 0.00288691322567, 5.44953032162e-05, -0.583399076064, 1.48170284242, 180.812876627, 0.0171175766736, 0.0170183312148, 0.0177868958563, 0.00127527338918, 0.00127527164295, 0.00112396548502, 0.0128002306446, 0.0128527926281, 0.129183933139, 251658309, 0
1637149246351354992, 1465, 0, 160, 126, 0, 63, 180, 2183, 269656640, 33554432, 18205, 15990, 3, 56, 40.0067143617, 116.32822302, 50.3768166415, -9.69999980927, 0.00101803314864, -0.000142187746308, -0.00193808449695, -0.585685042525, 1.48271761204, 180.812371564, 0.0171175766736, 0.0170183312148, 0.0177868958563, 0.00127527338918, 0.00127527164295, 0.00112396548502, 0.0128002306446, 0.0128527926281, 0.129183933139, 251658309, 0
1637149246371086124, 1465, 0, 160, 126, 0, 63, 180, 2183, 269656660, 33554432, 18205, 15990, 3, 56, 40.0067143617, 116.328223019, 50.3768192232, -9.69999980927, 0.000523763090963, 0.000886201686825, -0.000237212838689, -0.581888999392, 1.48237797106, 180.812346671, 0.0171175766736, 0.0170183312148, 0.0177868958563, 0.00127527338918, 0.00127527164295, 0.00112396548502, 0.0128002306446, 0.0128527926281, 0.129183933139, 251658309, 0
1637149246389679826, 1465, 0, 160, 126, 0, 63, 180, 2183, 269656680, 33554432, 18205, 15990, 3, 56, 40.006714362, 116.328223019, 50.3767613359, -9.69999980927, 0.00239956386404, 0.00160508218135, -0.00287978501979, -0.582517115517, 1.48290194304, 180.812590704, 0.0171175766736, 0.0170183312148, 0.0177868958563, 0.00127527338918, 0.00127527164295, 0.00112396548502, 0.0128002306446, 0.0128527926281, 0.129183933139, 251658309, 0
1637149246410512355, 1465, 0, 160, 126, 0, 63, 180, 2183, 269656700, 33554432, 18205, 15990, 3, 56, 40.0067143622, 116.328223019, 50.376762988, -9.69999980927, 0.00124826996539, 0.00125281376059, -0.000363728934253, -0.581734394523, 1.48184939367, 180.8123685, 0.0171175766736, 0.0170183312148, 0.0177868958563, 0.00127527338918, 0.00127527164295, 0.00112396548502, 0.0128002306446, 0.0128527926281, 0.129183933139, 251658309, 0
1637149246431932058, 1465, 0, 160, 126, 0, 63, 180, 2183, 269656720, 33554432, 18205, 15990, 3, 56, 40.0067143626, 116.328223019, 50.3767204583, -9.69999980927, 0.00236821123014, 0.000986133842914, -0.00180702848074, -0.582080254274, 1.48262797109, 180.812957383, 0.0171175766736, 0.0170183312148, 0.0177868958563, 0.00127527338918, 0.00127527164295, 0.00112396548502, 0.0128002306446, 0.0128527926281, 0.129183933139, 251658309, 0
1637149246449767303, 1465, 0, 160, 126, 0, 63, 180, 2183, 269656740, 33554432, 18205, 15990, 3, 56, 40.0067143628, 116.328223019, 50.3767219, -9.69999980927, 0.0010275459565, 0.00440211158079, -0.000175479896683, -0.581150912368, 1.48425002546, 180.812368515, 0.0171175766736, 0.0170183312148, 0.0177868958563, 0.00127527338918, 0.00127527164295, 0.00112396548502, 0.0128002306446, 0.0128527926281, 0.129183933139, 251658309, 0
1637149246470706071, 1465, 0, 160, 126, 0, 63, 180, 2183, 269656760, 33554432, 18205, 15990, 3, 56, 40.0067143631, 116.32822302, 50.376674735, -9.69999980927, 0.0017912625072, 0.00182722760639, -0.00215782117524, -0.583315471017, 1.48424160708, 180.812836236, 0.0171175766736, 0.0170183312148, 0.0177868958563, 0.00127527338918, 0.00127527164295, 0.00112396548502, 0.0128002306446, 0.0128527926281, 0.129183933139, 251658309, 0
1637149246491387134, 1465, 0, 160, 126, 0, 63, 180, 2183, 269656780, 33554432, 18205, 15990, 3, 56, 40.0067143633, 116.32822302, 50.3766744277, -9.69999980927, 0.00170183880112, 0.00426564684885, -0.000572436046356, -0.581362290349, 1.48286824408, 180.812337925, 0.0171175766736, 0.0170183312148, 0.0177868958563, 0.00127527338918, 0.00127527164295, 0.00112396548502, 0.0128002306446, 0.0128527926281, 0.129183933139, 251658309, 0
1637149246510365696, 1465, 0, 160, 126, 0, 63, 180, 2183, 269656800, 33554432, 18205, 15990, 3, 56, 40.0067143637, 116.32822302, 50.3766148444, -9.69999980927, 0.00173098352517, 0.00384501812706, -0.00287685972849, -0.58426907386, 1.48501227706, 180.813401129, 0.0171175766736, 0.0170183312148, 0.0177868958563, 0.00127527338918, 0.00127527164295, 0.00112396548502, 0.0128002306446, 0.0128527926281, 0.129183933139, 251658309, 0
1637149246530830240, 1465, 0, 160, 126, 0, 63, 180, 2183, 269656820, 33554432, 18205, 15990, 3, 56, 40.0067143635, 116.32822302, 50.3766306024, -9.69999980927, -0.00108518792849, 0.00254709992616, 0.000230124942849, -0.583799937953, 1.48483609905, 180.812612309, 0.0171175766736, 0.0170183312148, 0.0177868958563, 0.00127527338918, 0.00127527164295, 0.00112396548502, 0.0128002306446, 0.0128527926281, 0.129183933139, 251658309, 0
1637149246551463857, 1465, 0, 160, 126, 0, 63, 180, 2183, 269656840, 33554432, 18205, 15990, 3, 56, 40.0067143637, 116.328223021, 50.3765760483, -9.69999980927, 0.0020496460782, 0.0035234344011, -0.00282653672741, -0.584163327463, 1.48379335903, 180.813332727, 0.0171175766736, 0.0170183312148, 0.0177868958563, 0.00127527338918, 0.00127527164295, 0.00112396548502, 0.0128002306446, 0.0128527926281, 0.129183933139, 251658309, 0
1637149246569640752, 1465, 0, 160, 126, 0, 63, 180, 2183, 269656860, 33554432, 18205, 15990, 3, 56, 40.0067143638, 116.328223021, 50.3765836889, -9.69999980927, 0.000567442571536, 0.00230908424505, -0.00034704233879, -0.583702716458, 1.48408385908, 180.813152346, 0.0171175766736, 0.0170183312148, 0.0177868958563, 0.00127527338918, 0.00127527164295, 0.00112396548502, 0.0128002306446, 0.0128527926281, 0.129183933139, 251658309, 0
1637149246589930599, 1465, 0, 160, 126, 0, 63, 180, 2183, 269656880, 33554432, 18205, 15990, 3, 56, 40.0067143638, 116.328223021, 50.3765337747, -9.69999980927, 7.27166580586e-05, 0.000480636226865, -0.00254879489822, -0.584226250204, 1.48270686851, 180.813184049, 0.0171175766736, 0.0170183312148, 0.0177868958563, 0.00127527338918, 0.00127527164295, 0.00112396548502, 0.0128002306446, 0.0128527926281, 0.129183933139, 251658309, 0
1637149246609578480, 1465, 0, 160, 126, 0, 63, 180, 2183, 269656900, 33554432, 18205, 15990, 3, 56, 40.0067143639, 116.328223021, 50.3765328787, -9.69999980927, 0.00027959676333, 0.00304126016272, -0.0010100607706, -0.583195198496, 1.48383839754, 180.812095526, 0.0171175766736, 0.0170183312148, 0.0177868958563, 0.00127527338918, 0.00127527164295, 0.00112396548502, 0.0128002306446, 0.0128527926281, 0.129183933139, 251658309, 0
1637149246631085515, 1465, 0, 160, 126, 0, 63, 180, 2183, 269656920, 33554432, 18205, 15990, 3, 56, 40.006714364, 116.328223021, 50.3764849231, -9.69999980927, 0.00124274445024, -0.000746233838196, -0.00233977571548, -0.585360127594, 1.48323316614, 180.812315735, 0.0171175766736, 0.0170183312148, 0.0177868958563, 0.00127527338918, 0.00127527164295, 0.00112396548502, 0.0128002306446, 0.0128527926281, 0.129183933139, 251658309, 0
1637149246650825674, 1465, 0, 160, 126, 0, 63, 180, 2183, 269656940, 33554432, 18205, 15990, 3, 56, 40.0067143642, 116.328223021, 50.3764881985, -9.69999980927, 0.00166196442681, 0.00280473589221, -0.00103907611207, -0.583802819734, 1.48261366072, 180.812182112, 0.0171175766736, 0.0170183312148, 0.0177868958563, 0.00127527338918, 0.00127527164295, 0.00112396548502, 0.0128002306446, 0.0128527926281, 0.129183933139, 251658309, 0
1637149246671462963, 1465, 0, 160, 126, 0, 63, 180, 2183, 269656960, 33554432, 18205, 15990, 3, 56, 40.0067143644, 116.328223021, 50.3764339313, -9.69999980927, 0.00109223640476, 0.000333353372724, -0.0026008040031, -0.584958182603, 1.48417946575, 180.811801237, 0.0171175766736, 0.0170183312148, 0.0177868958563, 0.00127527338918, 0.00127527164295, 0.00112396548502, 0.0128002306446, 0.0128527926281, 0.129183933139, 251658309, 0
1637149246689980823, 1465, 0, 160, 126, 0, 63, 180, 2183, 269656980, 33554432, 18205, 15990, 3, 56, 40.0067143645, 116.328223021, 50.3764384976, -9.69999980927, 0.00091839627173, 0.00140288335524, -0.00108026135725, -0.582684677314, 1.48283721169, 180.811874589, 0.0171175766736, 0.0170183312148, 0.0177868958563, 0.00127527338918, 0.00127527164295, 0.00112396548502, 0.0128002306446, 0.0128527926281, 0.129183933139, 251658309, 0
1637149246713689226, 1465, 0, 160, 126, 0, 63, 180, 2183, 269657000, 33554432, 18205, 15990, 3, 56, 40.0067143649, 116.328223021, 50.3763784599, -9.69999980927, 0.00322527418381, 0.000590033581454, -0.00315008103954, -0.583986887064, 1.48245467056, 180.811734917, 0.0171175766736, 0.0170183312148, 0.0177868958563, 0.00127527338918, 0.00127527164295, 0.00112396548502, 0.0128002306446, 0.0128527926281, 0.129183933139, 251658309, 0
1637149246733352415, 1465, 0, 160, 126, 0, 63, 180, 2183, 269657020, 33554432, 18205, 15990, 3, 56, 40.0067143651, 116.328223021, 50.3763810713, -9.69999980927, 0.00101002972619, 0.00266028671821, -0.00108785693244, -0.583885107086, 1.48252035527, 180.812069767, 0.0194909647107, 0.0194034986198, 0.020086588338, 0.008829113096, 0.00882910657674, 0.0085530905053, 0.0148789631203, 0.0149244433269, 0.129576086998, 251658309, 0
1637149246750762077, 1465, 0, 160, 126, 0, 63, 180, 2183, 269657040, 33554432, 18205, 15990, 3, 56, 40.006714365, 116.32822302, 50.3763412554, -9.69999980927, 0.0011752088315, -0.00198895265647, -0.00258649837193, -0.584093204824, 1.48347954525, 180.811361867, 0.0166313499212, 0.0165349971503, 0.0172743052244, 0.00127506500576, 0.00127506093122, 0.00112075777724, 0.0127999801189, 0.0128525532782, 0.12539036572, 251658309, 0
1637149246770458103, 1465, 0, 160, 126, 0, 63, 180, 2183, 269657060, 33554432, 18205, 15990, 3, 56, 40.0067143649, 116.32822302, 50.3763409937, -9.69999980927, 0.00140480719242, 0.00433271570012, -0.00222317656401, -0.584362815527, 1.48243771907, 180.810927654, 0.0166313499212, 0.0165349971503, 0.0172743052244, 0.00127506500576, 0.00127506093122, 0.00112075777724, 0.0127999801189, 0.0128525532782, 0.12539036572, 251658309, 0
1637149246791693220, 1465, 0, 160, 126, 0, 70, 180, 2183, 269657080, 33554432, 18205, 15990, 3, 56, 40.0067143649, 116.32822302, 50.3763003498, -9.69999980927, 0.00219983664549, -0.00322628562253, -0.00226701781424, -0.586278946959, 1.4841265643, 180.810792333, 0.0166313499212, 0.0165349971503, 0.0172743052244, 0.00127506500576, 0.00127506093122, 0.00112075777724, 0.0127999801189, 0.0128525532782, 0.12539036572, 251658309, 0
1637149246809883579, 1465, 0, 160, 126, 0, 70, 180, 2183, 269657100, 33554432, 18205, 15990, 3, 56, 40.0067143648, 116.32822302, 50.3763011629, -9.69999980927, 0.00157294834384, 0.0038602334521, -0.00235250742898, -0.584087837957, 1.48285496096, 180.811039834, 0.0166313499212, 0.0165349971503, 0.0172743052244, 0.00127506500576, 0.00127506093122, 0.00112075777724, 0.0127999801189, 0.0128525532782, 0.12539036572, 251658309, 0
1637149246831694254, 1465, 0, 160, 126, 0, 70, 180, 2183, 269657120, 33554432, 18205, 15990, 3, 56, 40.0067143648, 116.328223019, 50.3762696311, -9.69999980927, 0.00137681807917, -0.00182697086185, -0.00162417942098, -0.586740287311, 1.48367839059, 180.810262579, 0.0166313499212, 0.0165349971503, 0.0172743052244, 0.00127506500576, 0.00127506093122, 0.00112075777724, 0.0127999801189, 0.0128525532782, 0.12539036572, 251658309, 0
1637149246850588520, 1465, 0, 160, 126, 0, 70, 180, 2183, 269657140, 33554432, 18205, 15990, 3, 56, 40.0067143645, 116.328223019, 50.3762592664, -9.69999980927, 0.000458196163118, 0.00113346698228, -0.00301760448479, -0.584271702976, 1.48255311372, 180.810064313, 0.0166313499212, 0.0165349971503, 0.0172743052244, 0.00127506500576, 0.00127506093122, 0.00112075777724, 0.0127999801189, 0.0128525532782, 0.12539036572, 251658309, 0
1637149246870688175, 1465, 0, 160, 126, 0, 70, 180, 2183, 269657160, 33554432, 18205, 15990, 3, 56, 40.0067143644, 116.328223018, 50.376234211, -9.69999980927, 0.001202940506, -0.000804342366182, -0.00119350208125, -0.585032620227, 1.48345868641, 180.809461613, 0.0166313499212, 0.0165349971503, 0.0172743052244, 0.00127506500576, 0.00127506093122, 0.00112075777724, 0.0127999801189, 0.0128525532782, 0.12539036572, 251658309, 0
1637149246890767878, 1465, 0, 160, 126, 0, 70, 180, 2183, 269657180, 33554432, 18205, 15990, 3, 56, 40.0067143642, 116.328223018, 50.3762229094, -9.69999980927, 0.000676211042676, 0.000645937904837, -0.00287295832753, -0.584569683262, 1.48076466116, 180.809022477, 0.0166313499212, 0.0165349971503, 0.0172743052244, 0.00127506500576, 0.00127506093122, 0.00112075777724, 0.0127999801189, 0.0128525532782, 0.12539036572, 251658309, 0
1637149246910225076, 1465, 0, 160, 126, 0, 70, 180, 2183, 269657200, 33554432, 18205, 15990, 3, 56, 40.0067143641, 116.328223017, 50.3761992734, -9.69999980927, 0.000759710682398, -0.00389214580233, -0.00111189619551, -0.584624984491, 1.4822302676, 180.809429915, 0.0166313499212, 0.0165349971503, 0.0172743052244, 0.00127506500576, 0.00127506093122, 0.00112075777724, 0.0127999801189, 0.0128525532782, 0.12539036572, 251658309, 0
1637149246930476308, 1465, 0, 160, 126, 0, 70, 180, 2183, 269657220, 33554432, 18205, 15990, 3, 56, 40.0067143637, 116.328223017, 50.376178815, -9.69999980927, -0.000618503376771, 0.00211330051123, -0.00322528630918, -0.584365909426, 1.48192110443, 180.808345932, 0.0166313499212, 0.0165349971503, 0.0172743052244, 0.00127506500576, 0.00127506093122, 0.00112075777724, 0.0127999801189, 0.0128525532782, 0.12539036572, 251658309, 0
1637149246950665077, 1465, 0, 160, 126, 0, 70, 180, 2183, 269657240, 33554432, 18205, 15990, 3, 56, 40.0067143635, 116.328223016, 50.3761781259, -9.69999980927, 0.00083859541915, -0.00424685711444, 0.000685721947236, -0.585694588546, 1.48202055928, 180.808503231, 0.0166313499212, 0.0165349971503, 0.0172743052244, 0.00127506500576, 0.00127506093122, 0.00112075777724, 0.0127999801189, 0.0128525532782, 0.12539036572, 251658309, 0
1637149246970799955, 1465, 0, 160, 126, 0, 70, 180, 2183, 269657260, 33554432, 18205, 15990, 3, 56, 40.0067143634, 116.328223016, 50.3761502272, -9.69999980927, 0.00173901651768, 0.00254432313808, -0.00382139666824, -0.583591927465, 1.4811777135, 180.808478851, 0.0166313499212, 0.0165349971503, 0.0172743052244, 0.00127506500576, 0.00127506093122, 0.00112075777724, 0.0127999801189, 0.0128525532782, 0.12539036572, 251658309, 0
1637149246990213182, 1465, 0, 160, 126, 0, 70, 180, 2183, 269657280, 33554432, 18205, 15990, 3, 56, 40.0067143634, 116.328223015, 50.3761386275, -9.69999980927, 0.00194412514605, -0.00156936421322, -0.000263705987074, -0.586016294221, 1.4807880653, 180.808613761, 0.0166313499212, 0.0165349971503, 0.0172743052244, 0.00127506500576, 0.00127506093122, 0.00112075777724, 0.0127999801189, 0.0128525532782, 0.12539036572, 251658309, 0
1637149247009739022, 1465, 0, 160, 126, 0, 70, 180, 2183, 269657300, 33554432, 18205, 15990, 3, 56, 40.0067143639, 116.328223015, 50.3760939613, -9.69999980927, 0.00588054977618, 0.00189322058263, -0.00453778176867, -0.587310755055, 1.47951961292, 180.807149971, 0.0166313499212, 0.0165349971503, 0.0172743052244, 0.00127506500576, 0.00127506093122, 0.00112075777724, 0.0127999801189, 0.0128525532782, 0.12539036572, 251658309, 0
1637149247032136745, 1465, 0, 160, 126, 0, 70, 180, 2183, 269657320, 33554432, 18205, 15990, 3, 56, 40.0067143649, 116.328223015, 50.3760328479, -9.69999980927, 0.00818517489613, 0.00170189995831, -0.00371308880733, -0.590969472455, 1.47914327963, 180.805054686, 0.0166313499212, 0.0165349971503, 0.0172743052244, 0.00127506500576, 0.00127506093122, 0.00112075777724, 0.0127999801189, 0.0128525532782, 0.12539036572, 251658309, 0
1637149247050156594, 1465, 0, 160, 126, 0, 70, 180, 2183, 269657340, 33554432, 18205, 15990, 3, 56, 40.0067143657, 116.328223016, 50.3758990346, -9.69999980927, 0.00703480933615, 0.00569629505694, -0.00936458300055, -0.594741424259, 1.48135827037, 180.804144812, 0.0166313499212, 0.0165349971503, 0.0172743052244, 0.00127506500576, 0.00127506093122, 0.00112075777724, 0.0127999801189, 0.0128525532782, 0.12539036572, 251658309, 0
1637149247070653805, 1465, 0, 160, 126, 0, 70, 180, 2183, 269657360, 33554432, 18205, 15990, 3, 56, 40.006714367, 116.328223016, 50.3757495163, -9.69999980927, 0.00892518474915, 0.00376317810032, -0.00814458665035, -0.596964184205, 1.4843580512, 180.804488914, 0.0166313499212, 0.0165349971503, 0.0172743052244, 0.00127506500576, 0.00127506093122, 0.00112075777724, 0.0127999801189, 0.0128525532782, 0.12539036572, 251658309, 0
1637149247090382548, 1465, 0, 160, 126, 0, 70, 180, 2183, 269657380, 33554432, 18205, 15990, 3, 56, 40.0067143683, 116.328223018, 50.3755477993, -9.69999980927, 0.00903071084191, 0.0105265374028, -0.012418960916, -0.600275636625, 1.48714952056, 180.805442368, 0.0166313499212, 0.0165349971503, 0.0172743052244, 0.00127506500576, 0.00127506093122, 0.00112075777724, 0.0127999801189, 0.0128525532782, 0.12539036572, 251658309, 0
1637149247110233803, 1465, 0, 160, 126, 0, 70, 180, 2183, 269657400, 33554432, 18205, 15990, 3, 56, 40.0067143699, 116.328223019, 50.3753644535, -9.69999980927, 0.0106557847445, 0.0059720320801, -0.00901323945789, -0.603673878988, 1.48981609429, 180.806885843, 0.0166313499212, 0.0165349971503, 0.0172743052244, 0.00127506500576, 0.00127506093122, 0.00112075777724, 0.0127999801189, 0.0128525532782, 0.12539036572, 251658309, 0
1637149247130639498, 1465, 0, 160, 126, 0, 70, 180, 2183, 269657420, 33554432, 18205, 15990, 3, 56, 40.0067143713, 116.328223022, 50.3751219995, -9.69999980927, 0.00920525342573, 0.0145344384118, -0.0139867671955, -0.607268265809, 1.49498904508, 180.809796949, 0.0166313499212, 0.0165349971503, 0.0172743052244, 0.00127506500576, 0.00127506093122, 0.00112075777724, 0.0127999801189, 0.0128525532782, 0.12539036572, 251658309, 0
1637149247150456230, 1465, 0, 160, 126, 0, 70, 180, 2183, 269657440, 33554432, 18205, 15990, 3, 56, 40.0067143727, 116.328223024, 50.3749131002, -9.69999980927, 0.008737878, 0.00811740163044, -0.0101081062045, -0.612073136842, 1.50067052327, 180.811885398, 0.0166313499212, 0.0165349971503, 0.0172743052244, 0.00127506500576, 0.00127506093122, 0.00112075777724, 0.0127999801189, 0.0128525532782, 0.12539036572, 251658309, 0
1637149247169306418, 1465, 0, 160, 126, 0, 70, 180, 2183, 269657460, 33554432, 18205, 15990, 3, 56, 40.0067143739, 116.328223026, 50.3746448299, -9.69999980927, 0.00751907912405, 0.0127220653464, -0.0150528396871, -0.617131688031, 1.5045005251, 180.814751548, 0.0166313499212, 0.0165349971503, 0.0172743052244, 0.00127506500576, 0.00127506093122, 0.00112075777724, 0.0127999801189, 0.0128525532782, 0.12539036572, 251658309, 0
1637149247190322664, 1465, 0, 160, 126, 0, 70, 180, 2183, 269657480, 33554432, 18205, 15990, 3, 56, 40.006714375, 116.328223028, 50.3744166438, -9.69999980927, 0.00756067203486, 0.00748595385527, -0.0108808437087, -0.621895413514, 1.50972407941, 180.816773363, 0.0166313499212, 0.0165349971503, 0.0172743052244, 0.00127506500576, 0.00127506093122, 0.00112075777724, 0.0127999801189, 0.0128525532782, 0.12539036572, 251658309, 0
1637149247209870410, 1465, 0, 160, 126, 0, 70, 180, 2183, 269657500, 33554432, 18205, 15990, 3, 56, 40.0067143757, 116.32822303, 50.3741507363, -9.69999980927, 0.00380723681049, 0.00804212505931, -0.0143578812753, -0.627303797154, 1.5153855281, 180.818299826, 0.0166313499212, 0.0165349971503, 0.0172743052244, 0.00127506500576, 0.00127506093122, 0.00112075777724, 0.0127999801189, 0.0128525532782, 0.12539036572, 251658309, 0
1637149247230627980, 1465, 0, 160, 126, 0, 70, 180, 2183, 269657520, 33554432, 18205, 15990, 3, 56, 40.006714376, 116.328223031, 50.3739401419, -9.69999980927, 0.00179023733035, 0.00247959755343, -0.00984478024536, -0.629444270243, 1.52027563965, 180.818680134, 0.0166313499212, 0.0165349971503, 0.0172743052244, 0.00127506500576, 0.00127506093122, 0.00112075777724, 0.0127999801189, 0.0128525532782, 0.12539036572, 251658309, 0
1637149247249847544, 1465, 0, 160, 126, 0, 70, 180, 2183, 269657540, 33554432, 18205, 15990, 3, 56, 40.006714376, 116.328223032, 50.3736748928, -9.69999980927, -0.000199354533548, 0.00452309054493, -0.0142243083764, -0.6347874012, 1.52635914457, 180.819274813, 0.0166313499212, 0.0165349971503, 0.0172743052244, 0.00127506500576, 0.00127506093122, 0.00112075777724, 0.0127999801189, 0.0128525532782, 0.12539036572, 251658309, 0
1637149247270057628, 1465, 0, 160, 126, 0, 70, 180, 2183, 269657560, 33554432, 18205, 15990, 3, 56, 40.0067143754, 116.328223032, 50.3734685108, -9.69999980927, -0.0031576576234, -0.00176932276796, -0.00984485620436, -0.635891210302, 1.5317741147, 180.819359487, 0.0166313499212, 0.0165349971503, 0.0172743052244, 0.00127506500576, 0.00127506093122, 0.00112075777724, 0.0127999801189, 0.0128525532782, 0.12539036572, 251658309, 0
1637149247290189519, 1465, 0, 160, 126, 0, 70, 180, 2183, 269657580, 33554432, 18205, 15990, 3, 56, 40.0067143744, 116.328223032, 50.3731970107, -9.69999980927, -0.00630636541965, 0.00154938671251, -0.0147508629217, -0.637982269628, 1.5377948124, 180.818329018, 0.0166313499212, 0.0165349971503, 0.0172743052244, 0.00127506500576, 0.00127506093122, 0.00112075777724, 0.0127999801189, 0.0128525532782, 0.12539036572, 251658309, 0
1637149247310459019, 1465, 0, 160, 126, 0, 70, 180, 2183, 269657600, 33554432, 18205, 15990, 3, 56, 40.0067143726, 116.328223031, 50.3729919894, -9.69999980927, -0.0108704470009, -0.00368372895385, -0.00959984662903, -0.638184801755, 1.54470935862, 180.816551845, 0.0166313499212, 0.0165349971503, 0.0172743052244, 0.00127506500576, 0.00127506093122, 0.00112075777724, 0.0127999801189, 0.0128525532782, 0.12539036572, 251658309, 0
1637149247330242040, 1465, 0, 160, 126, 0, 70, 180, 2183, 269657620, 33554432, 18205, 15990, 3, 56, 40.00671437, 116.328223031, 50.3727189181, -9.69999980927, -0.0157430745925, -0.00129891806667, -0.0146515210512, -0.639755490877, 1.55046205272, 180.816323554, 0.0166313499212, 0.0165349971503, 0.0172743052244, 0.00127506500576, 0.00127506093122, 0.00112075777724, 0.0127999801189, 0.0128525532782, 0.12539036572, 251658309, 0
1637149247349733556, 1465, 0, 160, 126, 0, 70, 180, 2183, 269657640, 33554432, 18205, 15990, 3, 56, 40.0067143666, 116.32822303, 50.3725042269, -9.69999980927, -0.0196754190183, -0.00350393254934, -0.0102282727387, -0.640815105795, 1.55744440767, 180.815043704, 0.0166313499212, 0.0165349971503, 0.0172743052244, 0.00127506500576, 0.00127506093122, 0.00112075777724, 0.0127999801189, 0.0128525532782, 0.12539036572, 251658309, 0
1637149247369871190, 1465, 0, 160, 126, 0, 70, 180, 2183, 269657660, 33554432, 18205, 15990, 3, 56, 40.0067143622, 116.328223029, 50.3722040178, -9.69999980927, -0.0262949620776, -0.00342256493509, -0.0159290871085, -0.641363588853, 1.56464425414, 180.814345015, 0.0166313499212, 0.0165349971503, 0.0172743052244, 0.00127506500576, 0.00127506093122, 0.00112075777724, 0.0127999801189, 0.0128525532782, 0.12539036572, 251658309, 0
1637149247390220249, 1465, 0, 160, 126, 0, 70, 180, 2183, 269657680, 33554432, 18205, 15990, 3, 56, 40.0067143567, 116.328223028, 50.3719649389, -9.69999980927, -0.0327620731899, -0.00364280275822, -0.0114489556193, -0.639304601817, 1.57281768045, 180.813724059, 0.0166313499212, 0.0165349971503, 0.0172743052244, 0.00127506500576, 0.00127506093122, 0.00112075777724, 0.0127999801189, 0.0128525532782, 0.12539036572, 251658309, 0
1637149247409488323, 1465, 0, 160, 126, 0, 70, 180, 2183, 269657700, 33554432, 18205, 15990, 3, 56, 40.0067143498, 116.328223028, 50.3716355879, -9.69999980927, -0.0408986973843, -0.00317321321835, -0.0173587538949, -0.641284299746, 1.58196645315, 180.813920073, 0.0166313499212, 0.0165349971503, 0.0172743052244, 0.00127506500576, 0.00127506093122, 0.00112075777724, 0.0127999801189, 0.0128525532782, 0.12539036572, 251658309, 0
1637149247431940972, 1465, 0, 160, 126, 0, 70, 180, 2183, 269657720, 33554432, 18205, 15990, 3, 56, 40.0067143415, 116.328223026, 50.3713850277, -9.69999980927, -0.0492982223316, -0.00361413393658, -0.0117632279727, -0.639173683627, 1.59114659352, 180.814401173, 0.0166313499212, 0.0165349971503, 0.0172743052244, 0.00127506500576, 0.00127506093122, 0.00112075777724, 0.0127999801189, 0.0128525532782, 0.12539036572, 251658309, 0
1637149247450003900, 1465, 0, 160, 126, 0, 70, 180, 2183, 269657740, 33554432, 18205, 15990, 3, 56, 40.0067143318, 116.328223026, 50.3710355833, -9.69999980927, -0.0563340014051, -0.00396257760792, -0.0182764598869, -0.640803001375, 1.600275761, 180.816195646, 0.0166313499212, 0.0165349971503, 0.0172743052244, 0.00127506500576, 0.00127506093122, 0.00112075777724, 0.0127999801189, 0.0128525532782, 0.12539036572, 251658309, 0
1637149247470868528, 1465, 0, 160, 126, 0, 70, 180, 2183, 269657760, 33554432, 18205, 15990, 3, 56, 40.0067143206, 116.328223025, 50.3707735809, -9.69999980927, -0.0659901681787, -0.00214371483254, -0.0123377226953, -0.638928342741, 1.6109566251, 180.81822105, 0.0166313499212, 0.0165349971503, 0.0172743052244, 0.00127506500576, 0.00127506093122, 0.00112075777724, 0.0127999801189, 0.0128525532782, 0.12539036572, 251658309, 0
1637149247490752038, 1465, 0, 160, 126, 0, 70, 180, 2183, 269657780, 33554432, 18205, 15990, 3, 56, 40.0067143075, 116.328223024, 50.3704100586, -9.69999980927, -0.0762153008047, -0.00556699920988, -0.0184621393888, -0.639093351945, 1.62168342817, 180.820970682, 0.0166313499212, 0.0165349971503, 0.0172743052244, 0.00127506500576, 0.00127506093122, 0.00112075777724, 0.0127999801189, 0.0128525532782, 0.12539036572, 251658309, 0
1637149247509731821, 1465, 0, 160, 126, 0, 70, 180, 2183, 269657800, 33554432, 18205, 15990, 3, 56, 40.0067142929, 116.328223023, 50.370150568, -9.69999980927, -0.0849674328176, -0.00151178093944, -0.0121313495154, -0.637364369146, 1.63162429945, 180.822887356, 0.0166313499212, 0.0165349971503, 0.0172743052244, 0.00127506500576, 0.00127506093122, 0.00112075777724, 0.0127999801189, 0.0128525532782, 0.12539036572, 251658309, 0
1637149247531476647, 1465, 0, 160, 126, 0, 70, 180, 2183, 269657820, 33554432, 18205, 15990, 3, 56, 40.0067142761, 116.328223022, 50.3698159475, -9.69999980927, -0.0973841047948, -0.00704215060414, -0.0162729980457, -0.638858258488, 1.64189250571, 180.826261055, 0.0166313499212, 0.0165349971503, 0.0172743052244, 0.00127506500576, 0.00127506093122, 0.00112075777724, 0.0127999801189, 0.0128525532782, 0.12539036572, 251658309, 0
1637149247551249978, 1465, 0, 160, 126, 0, 70, 180, 2183, 269657840, 33554432, 18205, 15990, 3, 56, 40.0067142575, 116.32822302, 50.3695917046, -9.69999980927, -0.107422627234, -0.00340392395367, -0.0101150744065, -0.635112214293, 1.65173167102, 180.827912891, 0.0166313499212, 0.0165349971503, 0.0172743052244, 0.00127506500576, 0.00127506093122, 0.00112075777724, 0.0127999801189, 0.0128525532782, 0.12539036572, 251658309, 0
1637149247569589999, 1465, 0, 160, 126, 0, 70, 180, 2183, 269657860, 33554432, 18205, 15990, 3, 56, 40.0067142368, 116.328223019, 50.3692955747, -9.69999980927, -0.119689468392, -0.00686766030116, -0.0138531549996, -0.637631953246, 1.66053346422, 180.829713043, 0.0166313499212, 0.0165349971503, 0.0172743052244, 0.00127506500576, 0.00127506093122, 0.00112075777724, 0.0127999801189, 0.0128525532782, 0.12539036572, 251658309, 0
1637149247590475041, 1465, 0, 160, 126, 0, 70, 180, 2183, 269657880, 33554432, 18205, 15990, 3, 56, 40.0067142143, 116.328223017, 50.3691273257, -9.69999980927, -0.129802190681, -0.0061587491806, -0.00689789529244, -0.634746829753, 1.66821169461, 180.831464299, 0.0166313499212, 0.0165349971503, 0.0172743052244, 0.00127506500576, 0.00127506093122, 0.00112075777724, 0.0127999801189, 0.0128525532782, 0.12539036572, 251658309, 0
1637149247609351058, 1465, 0, 160, 126, 0, 70, 180, 2183, 269657900, 33554432, 18205, 15990, 3, 56, 40.0067141893, 116.328223016, 50.3688922226, -9.69999980927, -0.143993272483, -0.00651651902922, -0.0106662854521, -0.636954395512, 1.67575808431, 180.832653228, 0.0166313499212, 0.0165349971503, 0.0172743052244, 0.00127506500576, 0.00127506093122, 0.00112075777724, 0.0127999801189, 0.0128525532782, 0.12539036572, 251658309, 0
1637149247631990136, 1465, 0, 160, 126, 0, 70, 180, 2183, 269657920, 33554432, 18205, 15990, 3, 56, 40.0067141626, 116.328223014, 50.3687826013, -9.69999980927, -0.153551116429, -0.00737584229092, -0.00400247198578, -0.636186129176, 1.6808587776, 180.834000498, 0.0166313499212, 0.0165349971503, 0.0172743052244, 0.00127506500576, 0.00127506093122, 0.00112075777724, 0.0127999801189, 0.0128525532782, 0.12539036572, 251658309, 0
1637149247650114993, 1465, 0, 160, 126, 0, 70, 180, 2183, 269657940, 33554432, 18205, 15990, 3, 56, 40.0067141334, 116.328223012, 50.3686163453, -9.69999980927, -0.167662775405, -0.00761444622438, -0.007507369427, -0.637482797088, 1.68637559063, 180.834913919, 0.0166313499212, 0.0165349971503, 0.0172743052244, 0.00127506500576, 0.00127506093122, 0.00112075777724, 0.0127999801189, 0.0128525532782, 0.12539036572, 251658309, 0
1637149247672036824, 1465, 0, 160, 126, 0, 70, 180, 2183, 269657960, 33554432, 18205, 15990, 3, 56, 40.0067141023, 116.32822301, 50.3685702467, -9.69999980927, -0.177232503232, -0.00741795435865, -0.000639862719627, -0.637868106575, 1.69001660802, 180.835624464, 0.0166313499212, 0.0165349971503, 0.0172743052244, 0.00127506500576, 0.00127506093122, 0.00112075777724, 0.0127999801189, 0.0128525532782, 0.12539036572, 251658309, 0
1637149247689660692, 1465, 0, 160, 126, 0, 70, 180, 2183, 269657980, 33554432, 18205, 15990, 3, 56, 40.0067140691, 116.328223008, 50.368476552, -9.69999980927, -0.190151435549, -0.00782700049817, -0.00422603300635, -0.64024865277, 1.69167560213, 180.835519511, 0.0166313499212, 0.0165349971503, 0.0172743052244, 0.00127506500576, 0.00127506093122, 0.00112075777724, 0.0127999801189, 0.0128525532782, 0.12539036572, 251658309, 0
1637149247715152131, 1465, 0, 160, 126, 0, 70, 180, 2183, 269658000, 33554432, 18205, 15990, 3, 56, 40.0067140338, 116.328223006, 50.3684806041, -9.69999980927, -0.201256318561, -0.00877200833439, 0.00154877230656, -0.639573514199, 1.69379768005, 180.836343866, 0.0166313499212, 0.0165349971503, 0.0172743052244, 0.00127506500576, 0.00127506093122, 0.00112075777724, 0.0127999801189, 0.0128525532782, 0.12539036572, 251658309, 0
1637149247731882384, 1465, 0, 160, 126, 0, 70, 180, 2183, 269658020, 33554432, 18205, 15990, 3, 56, 40.0067139963, 116.328223004, 50.3684275579, -9.69999980927, -0.213946829666, -0.00626447475866, -0.00295787574919, -0.642607629251, 1.69468084707, 180.837604231, 0.018876478076, 0.0187913477421, 0.0194510668516, 0.00845200754702, 0.00845737010241, 0.00815573707223, 0.0148766217753, 0.014922705479, 0.12578587234, 251658309, 0
1637149247750432414, 1465, 0, 160, 126, 0, 70, 180, 2183, 269658040, 33554432, 18205, 15990, 3, 56, 40.0067139568, 116.328223002, 50.3684607297, -9.69999980927, -0.22481855139, -0.00910180258486, 0.00272872647054, -0.644132549613, 1.69633647219, 180.838681759, 0.0177020840347, 0.0176142286509, 0.0182898100466, 0.00836653914303, 0.00837056338787, 0.00807592924684, 0.0148764196783, 0.0149224679917, 0.125784695148, 251666497, 0
1637149247770298162, 1465, 0, 160, 126, 0, 67, 180, 2183, 269658060, 33554432, 18205, 15990, 3, 56, 40.0067139153, 116.328223001, 50.3684191639, -9.69999980927, -0.236422750162, -0.00620729929756, -0.00253707890526, -0.646264569247, 1.69664721952, 180.840349425, 0.0177020840347, 0.0176142286509, 0.0182898100466, 0.00836653914303, 0.00837056338787, 0.00807592924684, 0.0148764196783, 0.0149224679917, 0.125784695148, 251666497, 0
1637149247791449461, 1465, 0, 160, 126, 0, 67, 180, 2183, 269658080, 33554432, 18205, 15990, 3, 56, 40.0067138717, 116.328222999, 50.3684588922, -9.69999980927, -0.248349161269, -0.00867294312495, 0.00300782341116, -0.647972918933, 1.69754007851, 180.841411664, 0.0177020840347, 0.0176142286509, 0.0182898100466, 0.00836653914303, 0.00837056338787, 0.00807592924684, 0.0148764196783, 0.0149224679917, 0.125784695148, 251666497, 0
1637149247811224201, 1465, 0, 160, 126, 0, 67, 180, 2183, 269658100, 33554432, 18205, 15990, 3, 56, 40.006713826, 116.328222998, 50.3684225958, -9.69999980927, -0.25935183836, -0.00787069768882, -0.00235228300821, -0.649735584824, 1.69682087877, 180.843757375, 0.0177020840347, 0.0176142286509, 0.0182898100466, 0.00836653914303, 0.00837056338787, 0.00807592924684, 0.0148764196783, 0.0149224679917, 0.125784695148, 251666497, 0
1637149247830766894, 1465, 0, 160, 126, 0, 67, 180, 2183, 269658120, 33554432, 18205, 15990, 3, 56, 40.0067137782, 116.328222996, 50.3684570519, -9.69999980927, -0.27098077776, -0.00867311836177, 0.00280252637525, -0.651199614836, 1.69870880949, 180.845255866, 0.0177020840347, 0.0176142286509, 0.0182898100466, 0.00836653914303, 0.00837056338787, 0.00807592924684, 0.0148764196783, 0.0149224679917, 0.125784695148, 251666497, 0
1637149247851100376, 1465, 0, 160, 126, 0, 67, 180, 2183, 269658140, 33554432, 18205, 15990, 3, 56, 40.0067137284, 116.328222994, 50.3684169697, -9.69999980927, -0.282436920006, -0.00973678552258, -0.00333205072886, -0.653401488946, 1.69821101253, 180.847243493, 0.0177020840347, 0.0176142286509, 0.0182898100466, 0.00836653914303, 0.00837056338787, 0.00807592924684, 0.0148764196783, 0.0149224679917, 0.125784695148, 251666497, 0
1637149247869976919, 1465, 0, 160, 126, 0, 67, 180, 2183, 269658160, 33554432, 18205, 15990, 3, 56, 40.0067136766, 116.328222992, 50.368441877, -9.69999980927, -0.293256065624, -0.00942003807597, 0.00212920448403, -0.654614317754, 1.69868866859, 180.848415868, 0.0177020840347, 0.0176142286509, 0.0182898100466, 0.00836653914303, 0.00837056338787, 0.00807592924684, 0.0148764196783, 0.0149224679917, 0.125784695148, 251666497, 0
1637149247890443645, 1465, 0, 160, 126, 0, 67, 180, 2183, 269658180, 33554432, 18205, 15990, 3, 56, 40.0067136228, 116.32822299, 50.3683999823, -9.69999980927, -0.303649169616, -0.0105414736523, -0.00315502837937, -0.658449674482, 1.69779017895, 180.8489414, 0.0177020840347, 0.0176142286509, 0.0182898100466, 0.00836653914303, 0.00837056338787, 0.00807592924684, 0.0148764196783, 0.0149224679917, 0.125784695148, 251666497, 0
1637149247909761980, 1465, 0, 160, 126, 0, 67, 180, 2183, 269658200, 33554432, 18205, 15990, 3, 56, 40.0067135672, 116.328222988, 50.3684538156, -9.69999980927, -0.31377238169, -0.0118215128153, 0.00434249170197, -0.659961758479, 1.69688807165, 180.84873561, 0.0177020840347, 0.0176142286509, 0.0182898100466, 0.00836653914303, 0.00837056338787, 0.00807592924684, 0.0148764196783, 0.0149224679917, 0.125784695148, 251666497, 0
1637149247931071820, 1465, 0, 160, 126, 0, 67, 180, 2183, 269658220, 33554432, 18205, 15990, 3, 56, 40.0067135096, 116.328222985, 50.3684457149, -9.69999980927, -0.325097291458, -0.0132735549533, -0.000821064546489, -0.663492635565, 1.69378653659, 180.847950728, 0.0177020840347, 0.0176142286509, 0.0182898100466, 0.00836653914303, 0.00837056338787, 0.00807592924684, 0.0148764196783, 0.0149224679917, 0.125784695148, 251666497, 0
1637149247950451778, 1465, 0, 160, 126, 0, 67, 180, 2183, 269658240, 33554432, 18205, 15990, 3, 56, 40.0067134503, 116.328222982, 50.3685464375, -9.69999980927, -0.334321721999, -0.0125013890868, 0.00686613032146, -0.665429724519, 1.69202272811, 180.847391693, 0.0177020840347, 0.0176142286509, 0.0182898100466, 0.00836653914303, 0.00837056338787, 0.00807592924684, 0.0148764196783, 0.0149224679917, 0.125784695148, 251666497, 0
1637149247971203349, 1465, 0, 160, 126, 0, 67, 180, 2183, 269658260, 33554432, 18205, 15990, 3, 56, 40.006713389, 116.328222979, 50.3685559062, -9.69999980927, -0.345717116394, -0.0166856928227, 0.000244555303033, -0.667257246535, 1.68677294407, 180.846708554, 0.0177020840347, 0.0176142286509, 0.0182898100466, 0.00836653914303, 0.00837056338787, 0.00807592924684, 0.0148764196783, 0.0149224679917, 0.125784695148, 251666497, 0
1637149247990633640, 1465, 0, 160, 126, 0, 67, 180, 2183, 269658280, 33554432, 18205, 15990, 3, 56, 40.0067133262, 116.328222976, 50.3686849121, -9.69999980927, -0.352966691842, -0.0129177698896, 0.00797097014902, -0.667121882319, 1.68324549804, 180.845457914, 0.0177020840347, 0.0176142286509, 0.0182898100466, 0.00836653914303, 0.00837056338787, 0.00807592924684, 0.0148764196783, 0.0149224679917, 0.125784695148, 251666497, 0
1637149248009793133, 1465, 0, 160, 126, 0, 67, 180, 2183, 269658300, 33554432, 18205, 15990, 3, 56, 40.0067132612, 116.328222972, 50.3686914481, -9.69999980927, -0.366067428244, -0.0188764237267, 0.000563752197582, -0.667886018585, 1.6804537797, 180.844250612, 0.0177020840347, 0.0176142286509, 0.0182898100466, 0.00836653914303, 0.00837056338787, 0.00807592924684, 0.0148764196783, 0.0149224679917, 0.125784695148, 251666497, 0
1637149248032435912, 1465, 0, 160, 126, 0, 67, 180, 2183, 269658320, 33554432, 18205, 15990, 3, 56, 40.0067131946, 116.328222969, 50.3688333053, -9.69999980927, -0.374577534374, -0.0119334618541, 0.00847442460333, -0.668233916966, 1.67654604405, 180.844074404, 0.0177020840347, 0.0176142286509, 0.0182898100466, 0.00836653914303, 0.00837056338787, 0.00807592924684, 0.0148764196783, 0.0149224679917, 0.125784695148, 251666497, 0
1637149248049877966, 1465, 0, 160, 126, 0, 67, 180, 2183, 269658340, 33554432, 18205, 15990, 3, 56, 40.0067131262, 116.328222965, 50.3688378213, -9.69999980927, -0.384785574111, -0.0184175273757, 0.00142825558466, -0.670486243641, 1.67492940348, 180.842932411, 0.0177020840347, 0.0176142286509, 0.0182898100466, 0.00836653914303, 0.00837056338787, 0.00807592924684, 0.0148764196783, 0.0149224679917, 0.125784695148, 251666497, 0
1637149248071102919, 1465, 0, 160, 126, 0, 67, 180, 2183, 269658360, 33554432, 18205, 15990, 3, 56, 40.0067130559, 116.328222962, 50.3689819155, -9.69999980927, -0.395790285468, -0.0120286554977, 0.00823049559039, -0.671129397627, 1.67284324576, 180.844138021, 0.0177020840347, 0.0176142286509, 0.0182898100466, 0.00836653914303, 0.00837056338787, 0.00807592924684, 0.0148764196783, 0.0149224679917, 0.125784695148, 251666497, 0
1637149248091097564, 1465, 0, 160, 126, 0, 67, 180, 2183, 269658380, 33554432, 18205, 15990, 3, 56, 40.0067129837, 116.328222958, 50.3690048065, -9.69999980927, -0.405058143144, -0.0181002473482, 0.00289442372263, -0.673155063618, 1.66985759423, 180.844042802, 0.0177020840347, 0.0176142286509, 0.0182898100466, 0.00836653914303, 0.00837056338787, 0.00807592924684, 0.0148764196783, 0.0149224679917, 0.125784695148, 251666497, 0
1637149248109674787, 1465, 0, 160, 126, 0, 67, 180, 2183, 269658400, 33554432, 18205, 15990, 3, 56, 40.0067129099, 116.328222955, 50.3691400234, -9.69999980927, -0.415238217642, -0.0138092885299, 0.00709529506934, -0.673906476551, 1.66716755544, 180.845403674, 0.0177020840347, 0.0176142286509, 0.0182898100466, 0.00836653914303, 0.00837056338787, 0.00807592924684, 0.0148764196783, 0.0149224679917, 0.125784695148, 251666497, 0
1637149248131693476, 1465, 0, 160, 126, 0, 67, 180, 2183, 269658420, 33554432, 18205, 15990, 3, 56, 40.0067128339, 116.32822295, 50.3691773554, -9.69999980927, -0.426430667467, -0.0201639089639, 0.00435125616851, -0.674016001867, 1.66458274487, 180.84541602, 0.0177020840347, 0.0176142286509, 0.0182898100466, 0.00836653914303, 0.00837056338787, 0.00807592924684, 0.0148764196783, 0.0149224679917, 0.125784695148, 251666497, 0
1637149248151860814, 1465, 0, 160, 126, 0, 67, 180, 2183, 269658440, 33554432, 18205, 15990, 3, 56, 40.0067127563, 116.328222946, 50.3693108819, -9.69999980927, -0.435919062674, -0.0159794955606, 0.0066128285406, -0.673651451963, 1.66022355283, 180.847147221, 0.0177020840347, 0.0176142286509, 0.0182898100466, 0.00836653914303, 0.00837056338787, 0.00807592924684, 0.0148764196783, 0.0149224679917, 0.125784695148, 251666497, 0
1637149248169948373, 1465, 0, 160, 126, 0, 67, 180, 2183, 269658460, 33554432, 18205, 15990, 3, 56, 40.0067126769, 116.328222941, 50.3693787223, -9.69999980927, -0.445113273951, -0.0228722563594, 0.00655215393189, -0.672144570816, 1.6571452857, 180.846337964, 0.0177020840347, 0.0176142286509, 0.0182898100466, 0.00836653914303, 0.00837056338787, 0.00807592924684, 0.0148764196783, 0.0149224679917, 0.125784695148, 251666497, 0
1637149248190288171, 1465, 0, 160, 126, 0, 67, 180, 2183, 269658480, 33554432, 18205, 15990, 3, 56, 40.0067125959, 116.328222936, 50.3695039116, -9.69999980927, -0.45459274774, -0.0192772943735, 0.005521045313, -0.670251504931, 1.65165706592, 180.84682008, 0.0177020840347, 0.0176142286509, 0.0182898100466, 0.00836653914303, 0.00837056338787, 0.00807592924684, 0.0148764196783, 0.0149224679917, 0.125784695148, 251666497, 0
1637149248209859256, 1465, 0, 160, 126, 0, 67, 180, 2183, 269658500, 33554432, 18205, 15990, 3, 56, 40.0067125132, 116.32822293, 50.3696213923, -9.69999980927, -0.46344336425, -0.0251837396531, 0.0095595506837, -0.669727270747, 1.64713966881, 180.844793798, 0.0177020840347, 0.0176142286509, 0.0182898100466, 0.00836653914303, 0.00837056338787, 0.00807592924684, 0.0148764196783, 0.0149224679917, 0.125784695148, 251666497, 0
1637149248230780011, 1465, 0, 160, 126, 0, 67, 180, 2183, 269658520, 33554432, 18205, 15990, 3, 56, 40.0067124289, 116.328222925, 50.3697633641, -9.69999980927, -0.472891509515, -0.0236720518602, 0.00618308044392, -0.667532486476, 1.64142623385, 180.843759543, 0.0177020840347, 0.0176142286509, 0.0182898100466, 0.00836653914303, 0.00837056338787, 0.00807592924684, 0.0148764196783, 0.0149224679917, 0.125784695148, 251666497, 0
1637149248250618750, 1465, 0, 160, 126, 0, 67, 180, 2183, 269658540, 33554432, 18205, 15990, 3, 56, 40.0067123431, 116.328222919, 50.3699191734, -9.69999980927, -0.480846457871, -0.0261653456436, 0.011119167766, -0.666641349267, 1.63484485525, 180.840169185, 0.0177020840347, 0.0176142286509, 0.0182898100466, 0.00836653914303, 0.00837056338787, 0.00807592924684, 0.0148764196783, 0.0149224679917, 0.125784695148, 251666497, 0
1637149248269574209, 1465, 0, 160, 126, 0, 67, 180, 2183, 269658560, 33554432, 18205, 15990, 3, 56, 40.0067122556, 116.328222913, 50.3700539395, -9.69999980927, -0.489708751996, -0.0265763651231, 0.00520236264646, -0.664456512722, 1.62804933663, 180.838175095, 0.0177020840347, 0.0176142286509, 0.0182898100466, 0.00836653914303, 0.00837056338787, 0.00807592924684, 0.0148764196783, 0.0149224679917, 0.125784695148, 251666497, 0
1637149248289544014, 1465, 0, 160, 126, 0, 67, 180, 2183, 269658580, 33554432, 18205, 15990, 3, 56, 40.006712167, 116.328222906, 50.3702385984, -9.69999980927, -0.496072726847, -0.0262146098281, 0.0119739242005, -0.661786276498, 1.62257898837, 180.835163147, 0.0177020840347, 0.0176142286509, 0.0182898100466, 0.00836653914303, 0.00837056338787, 0.00807592924684, 0.0148764196783, 0.0149224679917, 0.125784695148, 251666497, 0
1637149248310590371, 1465, 0, 160, 126, 0, 67, 180, 2183, 269658600, 33554432, 18205, 15990, 3, 56, 40.0067120768, 116.3282229, 50.3703567004, -9.69999980927, -0.504584239926, -0.0281999471184, 0.00409072656897, -0.660681073394, 1.61609164696, 180.832095435, 0.0177020840347, 0.0176142286509, 0.0182898100466, 0.00836653914303, 0.00837056338787, 0.00807592924684, 0.0148764196783, 0.0149224679917, 0.125784695148, 251666497, 0
1637149248330655104, 1465, 0, 160, 126, 0, 67, 180, 2183, 269658620, 33554432, 18205, 15990, 3, 56, 40.0067119853, 116.328222893, 50.3705538819, -9.69999980927, -0.51199100969, -0.0254625944529, 0.0121217911212, -0.657126410131, 1.61153438169, 180.828999041, 0.0177020840347, 0.0176142286509, 0.0182898100466, 0.00836653914303, 0.00837056338787, 0.00807592924684, 0.0148764196783, 0.0149224679917, 0.125784695148, 251666497, 0
1637149248350106281, 1465, 0, 160, 126, 0, 67, 180, 2183, 269658640, 33554432, 18205, 15990, 3, 56, 40.0067118924, 116.328222887, 50.3706412427, -9.69999980927, -0.51926419937, -0.0275160482472, 0.00214223661868, -0.655683830112, 1.60571080074, 180.826592468, 0.0177020840347, 0.0176142286509, 0.0182898100466, 0.00836653914303, 0.00837056338787, 0.00807592924684, 0.0148764196783, 0.0149224679917, 0.125784695148, 251666497, 0
1637149248370620973, 1465, 0, 160, 126, 0, 67, 180, 2183, 269658660, 33554432, 18205, 15990, 3, 56, 40.0067117985, 116.328222881, 50.3708415534, -9.69999980927, -0.525122678747, -0.024537620752, 0.0113035631815, -0.652480789197, 1.60272064144, 180.824168243, 0.0177020840347, 0.0176142286509, 0.0182898100466, 0.00836653914303, 0.00837056338787, 0.00807592924684, 0.0148764196783, 0.0149224679917, 0.125784695148, 251666497, 0
1637149248390027965, 1465, 0, 160, 126, 0, 67, 180, 2183, 269658680, 33554432, 18205, 15990, 3, 56, 40.0067117029, 116.328222874, 50.3709058696, -9.69999980927, -0.535279798593, -0.0274839070648, 0.000798485037749, -0.651740012398, 1.59816720749, 180.822076337, 0.0177020840347, 0.0176142286509, 0.0182898100466, 0.00836653914303, 0.00837056338787, 0.00807592924684, 0.0148764196783, 0.0149224679917, 0.125784695148, 251666497, 0
1637149248410053307, 1465, 0, 160, 126, 0, 67, 180, 2183, 269658700, 33554432, 18205, 15990, 3, 56, 40.0067116061, 116.328222868, 50.3710831041, -9.69999980927, -0.541133758802, -0.0239355643394, 0.00946576654152, -0.648792051687, 1.59767789695, 180.820265062, 0.0177020840347, 0.0176142286509, 0.0182898100466, 0.00836653914303, 0.00837056338787, 0.00807592924684, 0.0148764196783, 0.0149224679917, 0.125784695148, 251666497, 0
1637149248432172468, 1465, 0, 160, 126, 0, 67, 180, 2183, 269658720, 33554432, 18205, 15990, 3, 56, 40.0067115077, 116.328222862, 50.3710905742, -9.69999980927, -0.550237478387, -0.0285964978699, -0.00242904585864, -0.646663552022, 1.59448859968, 180.818507128, 0.0177020840347, 0.0176142286509, 0.0182898100466, 0.00836653914303, 0.00837056338787, 0.00807592924684, 0.0148764196783, 0.0149224679917, 0.125784695148, 251666497, 0
1637149248449923470, 1465, 0, 160, 126, 0, 67, 180, 2183, 269658740, 33554432, 18205, 15990, 3, 56, 40.0067114081, 116.328222857, 50.3712347299, -9.69999980927, -0.556372054781, -0.0202629342744, 0.00688512464969, -0.64445207619, 1.59553997083, 180.816264527, 0.0177020840347, 0.0176142286509, 0.0182898100466, 0.00836653914303, 0.00837056338787, 0.00807592924684, 0.0148764196783, 0.0149224679917, 0.125784695148, 251666497, 0
1637149248470513391, 1465, 0, 160, 126, 0, 67, 180, 2183, 269658760, 33554432, 18205, 15990, 3, 56, 40.0067113069, 116.328222851, 50.3711957885, -9.69999980927, -0.566389537706, -0.0257220379205, -0.00426462166667, -0.645885419748, 1.59682555858, 180.815112379, 0.0177020840347, 0.0176142286509, 0.0182898100466, 0.00836653914303, 0.00837056338787, 0.00807592924684, 0.0148764196783, 0.0149224679917, 0.125784695148, 251666497, 0
1637149248490089780, 1465, 0, 160, 126, 0, 67, 180, 2183, 269658780, 33554432, 18205, 15990, 3, 56, 40.0067112045, 116.328222846, 50.3713089256, -9.69999980927, -0.572376850941, -0.0160004252652, 0.00425039069236, -0.646852865852, 1.5964501645, 180.813033057, 0.0177020840347, 0.0176142286509, 0.0182898100466, 0.00836653914303, 0.00837056338787, 0.00807592924684, 0.0148764196783, 0.0149224679917, 0.125784695148, 251666497, 0
1637149248510211018, 1465, 0, 160, 126, 0, 67, 180, 2183, 269658800, 33554432, 18205, 15990, 3, 56, 40.0067111005, 116.328222842, 50.3712569308, -9.69999980927, -0.581900541722, -0.0219521367267, -0.00399211130136, -0.65251649948, 1.59838818966, 180.811105841, 0.0177020840347, 0.0176142286509, 0.0182898100466, 0.00836653914303, 0.00837056338787, 0.00807592924684, 0.0148764196783, 0.0149224679917, 0.125784695148, 251666497, 0
1637149248530054527, 1465, 0, 160, 126, 0, 67, 180, 2183, 269658820, 33554432, 18205, 15990, 3, 56, 40.0067109948, 116.328222838, 50.3713855594, -9.69999980927, -0.591216631987, -0.0135659978395, 0.00513381789385, -0.656493131121, 1.59877709545, 180.809532712, 0.0177020840347, 0.0176142286509, 0.0182898100466, 0.00836653914303, 0.00837056338787, 0.00807592924684, 0.0148764196783, 0.0149224679917, 0.125784695148, 251666497, 0
1637149248551204914, 1465, 0, 160, 126, 0, 67, 180, 2183, 269658840, 33554432, 18205, 15990, 3, 56, 40.0067108875, 116.328222834, 50.3713601334, -9.69999980927, -0.600823565666, -0.0199428375065, -0.00213318674854, -0.662958877954, 1.59970649028, 180.806143015, 0.0177020840347, 0.0176142286509, 0.0182898100466, 0.00836653914303, 0.00837056338787, 0.00807592924684, 0.0148764196783, 0.0149224679917, 0.125784695148, 251666497, 0
1637149248569673906, 1465, 0, 160, 126, 0, 67, 180, 2183, 269658860, 33554432, 18205, 15990, 3, 56, 40.0067107788, 116.32822283, 50.3714921502, -9.69999980927, -0.608091212351, -0.0151987541311, 0.00385065757396, -0.665612462044, 1.59823252469, 180.804242957, 0.0177020840347, 0.0176142286509, 0.0182898100466, 0.00836653914303, 0.00837056338787, 0.00807592924684, 0.0148764196783, 0.0149224679917, 0.125784695148, 251666497, 0
1637149248590175954, 1465, 0, 160, 126, 0, 67, 180, 2183, 269658880, 33554432, 18205, 15990, 3, 56, 40.0067106684, 116.328222826, 50.371471229, -9.69999980927, -0.617299996235, -0.0202897802561, -0.00200132883427, -0.670364029887, 1.5992890511, 180.800559473, 0.0177020840347, 0.0176142286509, 0.0182898100466, 0.00836653914303, 0.00837056338787, 0.00807592924684, 0.0148764196783, 0.0149224679917, 0.125784695148, 251666497, 0
1637149248610042770, 1465, 0, 160, 126, 0, 67, 180, 2183, 269658900, 33554432, 18205, 15990, 3, 56, 40.0067105567, 116.328222822, 50.3715796713, -9.69999980927, -0.624132989245, -0.0174557932101, 0.00205123459888, -0.672550599549, 1.59717454135, 180.797079796, 0.0177020840347, 0.0176142286509, 0.0182898100466, 0.00836653914303, 0.00837056338787, 0.00807592924684, 0.0148764196783, 0.0149224679917, 0.125784695148, 251666497, 0
1637149248630851799, 1465, 0, 160, 126, 0, 67, 180, 2183, 269658920, 33554432, 18205, 15990, 3, 56, 40.0067104434, 116.328222817, 50.3715579631, -9.69999980927, -0.632985455516, -0.0222263002072, -0.00147618552707, -0.676834700192, 1.59786277473, 180.792226184, 0.0177020840347, 0.0176142286509, 0.0182898100466, 0.00836653914303, 0.00837056338787, 0.00807592924684, 0.0148764196783, 0.0149224679917, 0.125784695148, 251666497, 0
1637149248649661219, 1465, 0, 160, 126, 0, 67, 180, 2183, 269658940, 33554432, 18205, 15990, 3, 56, 40.0067103286, 116.328222813, 50.3716464806, -9.69999980927, -0.641579274063, -0.0195503833289, 0.00071014039076, -0.67993892582, 1.59578411295, 180.78754941, 0.0177020840347, 0.0176142286509, 0.0182898100466, 0.00836653914303, 0.00837056338787, 0.00807592924684, 0.0148764196783, 0.0149224679917, 0.125784695148, 251666497, 0
1637149248671662358, 1465, 0, 160, 126, 0, 67, 180, 2183, 269658960, 33554432, 18205, 15990, 3, 56, 40.0067102123, 116.328222807, 50.3716553617, -9.69999980927, -0.650283193853, -0.0248173057901, 0.000913879910876, -0.685810691395, 1.59475420122, 180.781427745, 0.0177020840347, 0.0176142286509, 0.0182898100466, 0.00836653914303, 0.00837056338787, 0.00807592924684, 0.0148764196783, 0.0149224679917, 0.125784695148, 251666497, 0
1637149248689270583, 1465, 0, 160, 126, 0, 67, 180, 2183, 269658980, 33554432, 18205, 15990, 3, 56, 40.0067100943, 116.328222802, 50.3717287034, -9.69999980927, -0.659679675098, -0.0237817849529, 8.98193713685e-05, -0.689186631843, 1.59190846479, 180.775390138, 0.0177020840347, 0.0176142286509, 0.0182898100466, 0.00836653914303, 0.00837056338787, 0.00807592924684, 0.0148764196783, 0.0149224679917, 0.125784695148, 251666497, 0
1637149248715312294, 1465, 0, 160, 126, 0, 67, 180, 2183, 269659000, 33554432, 18205, 15990, 3, 56, 40.0067099746, 116.328222795, 50.3717906447, -9.69999980927, -0.668976745282, -0.0303169272355, 0.0046054266934, -0.692052520119, 1.59071724371, 180.768125846, 0.0177020840347, 0.0176142286509, 0.0182898100466, 0.00836653914303, 0.00837056338787, 0.00807592924684, 0.0148764196783, 0.0149224679917, 0.125784695148, 251666497, 0
1637149248732699577, 1465, 0, 160, 126, 0, 67, 180, 2183, 269659020, 33554432, 18205, 15990, 3, 56, 40.0067098535, 116.328222789, 50.3718824517, -9.69999980927, -0.676919268329, -0.0270938059719, 0.00149863176879, -0.692614393823, 1.58631825755, 180.763311798, 0.0239640083164, 0.0238882470876, 0.024309117347, 0.0126098096371, 0.0126619776711, 0.0114832082763, 0.0245419219136, 0.0245694257319, 0.127450197935, 251666497, 0
1637149248750355787, 1465, 0, 160, 126, 0, 67, 180, 2183, 269659040, 33554432, 18205, 15990, 3, 56, 40.0067097309, 116.328222782, 50.3720230507, -9.69999980927, -0.684423815045, -0.0303197800886, 0.00811244428775, -0.694976874342, 1.5852785248, 180.758384877, 0.0216805133969, 0.0215953793377, 0.0221505146474, 0.0121203167364, 0.0121659720317, 0.0110366651788, 0.0245374105871, 0.0245657525957, 0.127448990941, 251658305, 0
1637149248771033745, 1465, 0, 160, 126, 0, 67, 180, 2183, 269659060, 33554432, 18205, 15990, 3, 56, 40.0067096067, 116.328222775, 50.3721836554, -9.69999980927, -0.693954430112, -0.0293917509027, 0.00329810237242, -0.696122077619, 1.57930048342, 180.755467123, 0.0216805133969, 0.0215953793377, 0.0221505146474, 0.0121203167364, 0.0121659720317, 0.0110366651788, 0.0245374105871, 0.0245657525957, 0.127448990941, 251658305, 0
1637149248791528521, 1465, 0, 160, 126, 0, 68, 180, 2183, 269659080, 33554432, 18205, 15990, 3, 56, 40.0067094811, 116.328222767, 50.372397352, -9.69999980927, -0.701933473929, -0.0343347934423, 0.0113625726005, -0.693820740135, 1.57453980582, 180.753326876, 0.0216805133969, 0.0215953793377, 0.0221505146474, 0.0121203167364, 0.0121659720317, 0.0110366651788, 0.0245374105871, 0.0245657525957, 0.127448990941, 251658305, 0
1637149248810054936, 1465, 0, 160, 126, 0, 68, 180, 2183, 269659100, 33554432, 18205, 15990, 3, 56, 40.0067093538, 116.32822276, 50.3725737799, -9.69999980927, -0.710890214577, -0.0336332094104, 0.00433484548432, -0.689120297763, 1.56828133489, 180.752997475, 0.0216805133969, 0.0215953793377, 0.0221505146474, 0.0121203167364, 0.0121659720317, 0.0110366651788, 0.0245374105871, 0.0245657525957, 0.127448990941, 251658305, 0
1637149248831409690, 1465, 0, 160, 126, 0, 68, 180, 2183, 269659120, 33554432, 18205, 15990, 3, 56, 40.0067092252, 116.328222751, 50.3728309125, -9.69999980927, -0.71760165357, -0.0381575118247, 0.0137697142385, -0.683015648195, 1.56355669715, 180.75289159, 0.0216805133969, 0.0215953793377, 0.0221505146474, 0.0121203167364, 0.0121659720317, 0.0110366651788, 0.0245374105871, 0.0245657525957, 0.127448990941, 251658305, 0
1637149248850449571, 1465, 0, 160, 126, 0, 68, 180, 2183, 269659140, 33554432, 18205, 15990, 3, 56, 40.0067090948, 116.328222743, 50.3730222592, -9.69999980927, -0.72830213577, -0.0353322593678, 0.00535536822897, -0.676366034969, 1.55479427191, 180.753759131, 0.0216805133969, 0.0215953793377, 0.0221505146474, 0.0121203167364, 0.0121659720317, 0.0110366651788, 0.0245374105871, 0.0245657525957, 0.127448990941, 251658305, 0
1637149248870012801, 1465, 0, 160, 126, 0, 68, 180, 2183, 269659160, 33554432, 18205, 15990, 3, 56, 40.0067089632, 116.328222734, 50.3733139317, -9.69999980927, -0.734214688187, -0.0369252510319, 0.0154136307603, -0.672420673733, 1.54834250187, 180.75284525, 0.0216805133969, 0.0215953793377, 0.0221505146474, 0.0121203167364, 0.0121659720317, 0.0110366651788, 0.0245374105871, 0.0245657525957, 0.127448990941, 251658305, 0
1637149248890224879, 1465, 0, 160, 126, 0, 68, 180, 2183, 269659180, 33554432, 18205, 15990, 3, 56, 40.0067088303, 116.328222726, 50.3734999504, -9.69999980927, -0.742277275159, -0.037929764751, 0.00573248733392, -0.668361094877, 1.53955325963, 180.752514539, 0.0216805133969, 0.0215953793377, 0.0221505146474, 0.0121203167364, 0.0121659720317, 0.0110366651788, 0.0245374105871, 0.0245657525957, 0.127448990941, 251658305, 0
