time, .header.seq, .header.stamp.secs, .header.stamp.nsecs, .header.frame_id, .orientation.x, .orientation.y, .orientation.z, .orientation.w, .orientation_covariance, .angular_velocity.x, .angular_velocity.y, .angular_velocity.z, .angular_velocity_covariance, .linear_acceleration.x, .linear_acceleration.y, .linear_acceleration.z, .linear_acceleration_covariance
1637149246211790797, 9785, 1636513052, 801800966, base_link, -0.00518005447369, -0.0129132046622, -0.99987757417, -0.00715910977673, "(0.00016519427834118475, 0.0, 0.0, 0.0, 0.0001638459045560656, 0.0, 0.0, 0.0, 0.016688488581222183)", 0.000401649349648, 0.000605355139095, 3.82988776179e-05, "(0.001, 0.0, 0.0, 0.0, 0.001, 0.0, 0.0, 0.0, 0.001)", 0.172988897151, 0.11920521442, 0.126393572047, "(0.001, 0.0, 0.0, 0.0, 0.001, 0.0, 0.0, 0.0, 0.001)"
1637149246232085443, 9786, 1636513052, 821367979, base_link, -0.00519182203953, -0.0129127753333, -0.99987744002, -0.00717008760385, "(0.00016519427834118475, 0.0, 0.0, 0.0, 0.0001638459045560656, 0.0, 0.0, 0.0, 0.016688488581222183)", -0.000253491153385, -7.39904998683e-05, -0.000871309120146, "(0.001, 0.0, 0.0, 0.0, 0.001, 0.0, 0.0, 0.0, 0.001)", -0.0983701569339, -0.0582906853701, -0.0841319627566, "(0.001, 0.0, 0.0, 0.0, 0.001, 0.0, 0.0, 0.0, 0.001)"
1637149246250542581, 9787, 1636513052, 840667963, base_link, -0.00518408330495, -0.0129101854842, -0.999877555782, -0.00716420505548, "(0.00016519427834118475, 0.0, 0.0, 0.0, 0.0001638459045560656, 0.0, 0.0, 0.0, 0.016688488581222183)", 7.4931214212e-05, 0.000256152615278, -0.000315258369859, "(0.001, 0.0, 0.0, 0.0, 0.001, 0.0, 0.0, 0.0, 0.001)", 0.0979375140336, 0.0699182142389, 0.113324924541, "(0.001, 0.0, 0.0, 0.0, 0.001, 0.0, 0.0, 0.0, 0.001)"
1637149246273083932, 9788, 1636513052, 861669063, base_link, -0.00519110984415, -0.0129044433547, -0.999877539658, -0.00717170886043, "(0.00016519427834118475, 0.0, 0.0, 0.0, 0.0001638459045560656, 0.0, 0.0, 0.0, 0.016688488581222183)", -0.00099184452241, -0.00017792276808, -0.000572673693446, "(0.001, 0.0, 0.0, 0.0, 0.001, 0.0, 0.0, 0.0, 0.001)", 0.0198721002893, 0.0196051957334, -0.0767130888239, "(0.001, 0.0, 0.0, 0.0, 0.001, 0.0, 0.0, 0.0, 0.001)"
1637149246290598830, 9789, 1636513052, 880784034, base_link, -0.00518877015335, -0.0128975634303, -0.999877701306, -0.00716323613375, "(0.00016519427834118475, 0.0, 0.0, 0.0, 0.0001638459045560656, 0.0, 0.0, 0.0, 0.016688488581222183)", -0.00157205915429, 5.01498942106e-05, 0.000553875847394, "(0.001, 0.0, 0.0, 0.0, 0.001, 0.0, 0.0, 0.0, 0.001)", -0.0240277197568, -0.0183582814651, 0.057696465539, "(0.001, 0.0, 0.0, 0.0, 0.001, 0.0, 0.0, 0.0, 0.001)"
1637149246315045834, 9790, 1636513052, 902432918, base_link, -0.00519921606501, -0.012899641366, -0.999877609468, -0.00716473938013, "(0.00016519427834118475, 0.0, 0.0, 0.0, 0.0001638459045560656, 0.0, 0.0, 0.0, 0.016688488581222183)", -0.000426626281563, -0.000682955075017, 0.00022784262962, "(0.001, 0.0, 0.0, 0.0, 0.001, 0.0, 0.0, 0.0, 0.001)", 0.0674305578107, -0.0711624428484, -0.108145472661, "(0.001, 0.0, 0.0, 0.0, 0.001, 0.0, 0.0, 0.0, 0.001)"
1637149246330179527, 9791, 1636513052, 920404911, base_link, -0.00518226065962, -0.0128933320665, -0.999877821636, -0.00715876825226, "(0.00016519427834118475, 0.0, 0.0, 0.0, 0.0001638459045560656, 0.0, 0.0, 0.0, 0.016688488581222183)", -0.000683596049382, 0.001411648514, 0.000624622988136, "(0.001, 0.0, 0.0, 0.0, 0.001, 0.0, 0.0, 0.0, 0.001)", 0.0542916201479, 0.0618498987971, 0.107863193496, "(0.001, 0.0, 0.0, 0.0, 0.001, 0.0, 0.0, 0.0, 0.001)"
1637149246351351861, 9792, 1636513052, 941482067, base_link, -0.00520221240244, -0.0129020666443, -0.999877634744, -0.00715466293407, "(0.00016519427834118475, 0.0, 0.0, 0.0, 0.0001638459045560656, 0.0, 0.0, 0.0, 0.016688488581222183)", 0.00034666337832, -0.00108978532133, 0.000835537707466, "(0.001, 0.0, 0.0, 0.0, 0.001, 0.0, 0.0, 0.0, 0.001)", -0.0912089094805, -0.0627389329141, -0.150544889405, "(0.001, 0.0, 0.0, 0.0, 0.001, 0.0, 0.0, 0.0, 0.001)"
1637149246371552104, 9793, 1636513052, 961713075, base_link, -0.00516906611016, -0.0128993412034, -0.999877846532, -0.00715400354094, "(0.00016519427834118475, 0.0, 0.0, 0.0, 0.0001638459045560656, 0.0, 0.0, 0.0, 0.016688488581222183)", 0.000649965976587, 0.00274148652925, 0.000501474784607, "(0.001, 0.0, 0.0, 0.0, 0.001, 0.0, 0.0, 0.0, 0.001)", 0.216000899433, 0.0102253858056, 0.113767666536, "(0.001, 0.0, 0.0, 0.0, 0.001, 0.0, 0.0, 0.0, 0.001)"
1637149246390597262, 9794, 1636513052, 980829000, base_link, -0.00517460637843, -0.0129038629334, -0.999877743624, -0.00715622639745, "(0.00016519427834118475, 0.0, 0.0, 0.0, 0.0001638459045560656, 0.0, 0.0, 0.0, 0.016688488581222183)", 6.37823146574e-05, 0.00121805547705, -0.000128296557493, "(0.001, 0.0, 0.0, 0.0, 0.001, 0.0, 0.0, 0.0, 0.001)", -0.206364975755, -0.101430483252, -0.164438466063, "(0.001, 0.0, 0.0, 0.0, 0.001, 0.0, 0.0, 0.0, 0.001)"
1637149246411542713, 9795, 1636513053, 1208066, base_link, -0.00517460637843, -0.0129038629334, -0.999877743624, -0.00715622639745, "(0.00016519427834118475, 0.0, 0.0, 0.0, 0.0001638459045560656, 0.0, 0.0, 0.0, 0.016688488581222183)", -0.000720107860496, 0.000711569746699, 0.000254012186755, "(0.001, 0.0, 0.0, 0.0, 0.001, 0.0, 0.0, 0.0, 0.001)", 0.110074922726, -0.0213319518794, 0.146000315526, "(0.001, 0.0, 0.0, 0.0, 0.001, 0.0, 0.0, 0.0, 0.001)"
1637149246431944107, 9796, 1636513053, 21610021, base_link, -0.00517081899902, -0.012901483103, -0.99987777146, -0.00715936476565, "(0.00016519427834118475, 0.0, 0.0, 0.0, 0.0001638459045560656, 0.0, 0.0, 0.0, 0.016688488581222183)", 0.000278783070621, 0.00073703600362, -0.000337641034585, "(0.001, 0.0, 0.0, 0.0, 0.001, 0.0, 0.0, 0.0, 0.001)", -0.113264093623, -0.0331299669457, -0.0964342184539, "(0.001, 0.0, 0.0, 0.0, 0.001, 0.0, 0.0, 0.0, 0.001)"
1637149246450244197, 9797, 1636513053, 40483951, base_link, -0.00516274306224, -0.012915721073, -0.999877666399, -0.00715419239969, "(0.00016519427834118475, 0.0, 0.0, 0.0, 0.0001638459045560656, 0.0, 0.0, 0.0, 0.016688488581222183)", 0.0019782980507, 0.000949769843409, 7.46242364462e-05, "(0.001, 0.0, 0.0, 0.0, 0.001, 0.0, 0.0, 0.0, 0.001)", -0.0663193623666, 0.0497887187941, 0.125920803796, "(0.001, 0.0, 0.0, 0.0, 0.001, 0.0, 0.0, 0.0, 0.001)"
1637149246471584215, 9798, 1636513053, 61763048, base_link, -0.00518168228869, -0.0129154913278, -0.999877540444, -0.00715851714208, "(0.00016519427834118475, 0.0, 0.0, 0.0, 0.0001638459045560656, 0.0, 0.0, 0.0, 0.016688488581222183)", 0.000674818781131, -0.000958320382899, -0.000111510918625, "(0.001, 0.0, 0.0, 0.0, 0.001, 0.0, 0.0, 0.0, 0.001)", -0.102130723307, -0.0162783472136, -0.134080979987, "(0.001, 0.0, 0.0, 0.0, 0.001, 0.0, 0.0, 0.0, 0.001)"
1637149246491993350, 9799, 1636513053, 82154989, base_link, -0.00516449932936, -0.0129036524006, -0.99987781532, -0.00715388924872, "(0.00016519427834118475, 0.0, 0.0, 0.0, 0.0001638459045560656, 0.0, 0.0, 0.0, 0.016688488581222183)", -0.00117694551697, 0.00030997499211, 0.000213219798733, "(0.001, 0.0, 0.0, 0.0, 0.001, 0.0, 0.0, 0.0, 0.001)", 0.0993964716498, -0.00350136637351, 0.118099029334, "(0.001, 0.0, 0.0, 0.0, 0.001, 0.0, 0.0, 0.0, 0.001)"
1637149246510682737, 9800, 1636513053, 100918054, base_link, -0.00519011398137, -0.0129221307172, -0.999877374617, -0.00716358730606, "(0.00016519427834118475, 0.0, 0.0, 0.0, 0.0001638459045560656, 0.0, 0.0, 0.0, 0.016688488581222183)", 0.000899707980716, -0.00133076189502, -0.000632659879375, "(0.001, 0.0, 0.0, 0.0, 0.001, 0.0, 0.0, 0.0, 0.001)", -0.202194506994, -0.0197009469843, -0.16935545455, "(0.001, 0.0, 0.0, 0.0, 0.001, 0.0, 0.0, 0.0, 0.001)"
1637149246530858592, 9801, 1636513053, 120984077, base_link, -0.00518592074721, -0.0129206584875, -0.999877465122, -0.00715664380267, "(0.00016519427834118475, 0.0, 0.0, 0.0, 0.0001638459045560656, 0.0, 0.0, 0.0, 0.016688488581222183)", 0.00163548613015, -0.00145829061037, -1.62607443749e-06, "(0.001, 0.0, 0.0, 0.0, 0.001, 0.0, 0.0, 0.0, 0.001)", 0.255408815271, 0.222471140764, 0.212298469168, "(0.001, 0.0, 0.0, 0.0, 0.001, 0.0, 0.0, 0.0, 0.001)"
1637149246551940879, 9802, 1636513053, 142085075, base_link, -0.00518910878158, -0.0129115046525, -0.999877521849, -0.00716292528969, "(0.00016519427834118475, 0.0, 0.0, 0.0, 0.0001638459045560656, 0.0, 0.0, 0.0, 0.016688488581222183)", -0.00111630890091, 0.000125152879551, -0.00031173944412, "(0.001, 0.0, 0.0, 0.0, 0.001, 0.0, 0.0, 0.0, 0.001)", -0.182560320796, -0.103425421575, -0.174364499381, "(0.001, 0.0, 0.0, 0.0, 0.001, 0.0, 0.0, 0.0, 0.001)"
1637149246570094358, 9803, 1636513053, 160336971, base_link, -0.00518508718033, -0.0129140763895, -0.999877521055, -0.00716131213899, "(0.00016519427834118475, 0.0, 0.0, 0.0, 0.0001638459045560656, 0.0, 0.0, 0.0, 0.016688488581222183)", -0.000334855360721, -0.000368116963272, -0.000179424026237, "(0.001, 0.0, 0.0, 0.0, 0.001, 0.0, 0.0, 0.0, 0.001)", 0.148281884657, -0.0258708219417, 0.145536251755, "(0.001, 0.0, 0.0, 0.0, 0.001, 0.0, 0.0, 0.0, 0.001)"
1637149246590791946, 9804, 1636513053, 181031942, base_link, -0.00518957441575, -0.012902027186, -0.999877651353, -0.00716158761428, "(0.00016519427834118475, 0.0, 0.0, 0.0, 0.0001638459045560656, 0.0, 0.0, 0.0, 0.016688488581222183)", -0.00117779012699, 0.000450201539893, 3.01921829558e-05, "(0.001, 0.0, 0.0, 0.0, 0.001, 0.0, 0.0, 0.0, 0.001)", 0.010385782304, 0.0455733261618, -0.145634449213, "(0.001, 0.0, 0.0, 0.0, 0.001, 0.0, 0.0, 0.0, 0.001)"
1637149246610310638, 9805, 1636513053, 200526952, base_link, -0.00518052465482, -0.0129120140884, -0.999877637826, -0.00715202287605, "(0.00016519427834118475, 0.0, 0.0, 0.0, 0.0001638459045560656, 0.0, 0.0, 0.0, 0.016688488581222183)", 0.000575125915995, 0.000846058290846, 0.00118510219166, "(0.001, 0.0, 0.0, 0.0, 0.001, 0.0, 0.0, 0.0, 0.001)", 0.0260643354311, 0.0201453493865, 0.113374418975, "(0.001, 0.0, 0.0, 0.0, 0.001, 0.0, 0.0, 0.0, 0.001)"
1637149246631102825, 9806, 1636513053, 221056938, base_link, -0.00519940263788, -0.0129065879758, -0.999877594593, -0.00715416177306, "(0.00016519427834118475, 0.0, 0.0, 0.0, 0.0001638459045560656, 0.0, 0.0, 0.0, 0.016688488581222183)", -0.000656980369678, -0.00118191419515, 0.000257328180665, "(0.001, 0.0, 0.0, 0.0, 0.001, 0.0, 0.0, 0.0, 0.001)", 0.01731672453, -0.0566955290268, -0.123140029248, "(0.001, 0.0, 0.0, 0.0, 0.001, 0.0, 0.0, 0.0, 0.001)"
1637149246651026392, 9807, 1636513053, 241295099, base_link, -0.00518576121918, -0.0129012856986, -0.999877743654, -0.00715279339381, "(0.00016519427834118475, 0.0, 0.0, 0.0, 0.0001638459045560656, 0.0, 0.0, 0.0, 0.016688488581222183)", -0.000630448970942, 0.000418186383209, 0.000296565403789, "(0.001, 0.0, 0.0, 0.0, 0.001, 0.0, 0.0, 0.0, 0.001)", 0.0499947997738, -0.0435434367082, 0.145873047154, "(0.001, 0.0, 0.0, 0.0, 0.001, 0.0, 0.0, 0.0, 0.001)"
1637149246672024826, 9808, 1636513053, 262228012, base_link, -0.00519589543715, -0.0129148934173, -0.99987753772, -0.00714966860285, "(0.00016519427834118475, 0.0, 0.0, 0.0, 0.0001638459045560656, 0.0, 0.0, 0.0, 0.016688488581222183)", 0.000445713881165, -9.41269778163e-05, 0.000346745555408, "(0.001, 0.0, 0.0, 0.0, 0.001, 0.0, 0.0, 0.0, 0.001)", -0.0723292961124, -0.00472001165086, -0.16686472018, "(0.001, 0.0, 0.0, 0.0, 0.001, 0.0, 0.0, 0.0, 0.001)"
1637149246690668051, 9809, 1636513053, 280838966, base_link, -0.00517598384771, -0.0129033199966, -0.999877788088, -0.00714999393209, "(0.00016519427834118475, 0.0, 0.0, 0.0, 0.0001638459045560656, 0.0, 0.0, 0.0, 0.016688488581222183)", -0.000144780450575, 0.00147651449598, 9.12656585662e-05, "(0.001, 0.0, 0.0, 0.0, 0.001, 0.0, 0.0, 0.0, 0.001)", 0.135135839621, 0.0586742272206, 0.161897558858, "(0.001, 0.0, 0.0, 0.0, 0.001, 0.0, 0.0, 0.0, 0.001)"
1637149246716449458, 9810, 1636513053, 306615114, base_link, -0.00518730723005, -0.0128999071702, -0.999877781228, -0.00714890513943, "(0.00016519427834118475, 0.0, 0.0, 0.0, 0.0001638459045560656, 0.0, 0.0, 0.0, 0.016688488581222183)", -0.00107126108614, 0.00035013608196, 0.000214461400968, "(0.001, 0.0, 0.0, 0.0, 0.001, 0.0, 0.0, 0.0, 0.001)", -0.075358759801, -0.137658321738, -0.178646906429, "(0.001, 0.0, 0.0, 0.0, 0.001, 0.0, 0.0, 0.0, 0.001)"
1637149246733370453, 9811, 1636513053, 323296070, base_link, -0.00518646085971, -0.0129004715021, -0.999877757505, -0.00715181831183, "(0.00022273900861756544, 0.0, 0.0, 0.0, 0.00022138354353470283, 0.0, 0.0, 0.0, 0.016789962321709595)", -8.46645114322e-06, -0.000300430208585, -0.000154719742224, "(0.001, 0.0, 0.0, 0.0, 0.001, 0.0, 0.0, 0.0, 0.001)", -0.0626502065442, 0.0599068494193, 0.167252843828, "(0.001, 0.0, 0.0, 0.0, 0.001, 0.0, 0.0, 0.0, 0.001)"
1637149246751085180, 9812, 1636513053, 341332912, base_link, -0.00518825564789, -0.0129088600614, -0.999877683624, -0.00714570679022, "(0.00016518812576916952, 0.0, 0.0, 0.0, 0.00016383949104348608, 0.0, 0.0, 0.0, 0.015722743815343998)", 0.000186130331651, -0.000169564924137, 0.000565545684217, "(0.001, 0.0, 0.0, 0.0, 0.001, 0.0, 0.0, 0.0, 0.001)", 0.140895019777, 0.0248003867987, -0.137077106292, "(0.001, 0.0, 0.0, 0.0, 0.001, 0.0, 0.0, 0.0, 0.001)"
1637149246770667417, 9813, 1636513053, 360961914, base_link, -0.00519049551082, -0.0128997723716, -0.999877816462, -0.00714190287561, "(0.00016518812576916952, 0.0, 0.0, 0.0, 0.00016383949104348608, 0.0, 0.0, 0.0, 0.015722743815343998)", -1.1703980537e-06, 1.44940277665e-05, 0.000900459949898, "(0.001, 0.0, 0.0, 0.0, 0.001, 0.0, 0.0, 0.0, 0.001)", -0.242308817544, -0.020831313586, 0.0803005004525, "(0.001, 0.0, 0.0, 0.0, 0.001, 0.0, 0.0, 0.0, 0.001)"
1637149246792100495, 9814, 1636513053, 382337093, base_link, -0.00520730292646, -0.0129143952618, -0.999877546673, -0.00714101186869, "(0.00016518812576916952, 0.0, 0.0, 0.0, 0.00016383949104348608, 0.0, 0.0, 0.0, 0.015722743815343998)", 0.00114907321267, -0.00196204520148, 0.000304923385718, "(0.001, 0.0, 0.0, 0.0, 0.001, 0.0, 0.0, 0.0, 0.001)", 0.234394508166, -0.0336833519298, -0.119105586853, "(0.001, 0.0, 0.0, 0.0, 0.001, 0.0, 0.0, 0.0, 0.001)"
1637149246812211829, 9815, 1636513053, 400645971, base_link, -0.00518813432814, -0.0129034251114, -0.999877774683, -0.00714286898147, "(0.00016518812576916952, 0.0, 0.0, 0.0, 0.00016383949104348608, 0.0, 0.0, 0.0, 0.015722743815343998)", -0.000704115070363, 0.00135285411039, -1.48813277484e-05, "(0.001, 0.0, 0.0, 0.0, 0.001, 0.0, 0.0, 0.0, 0.001)", -0.169470563556, -0.00379199770387, 0.121500425178, "(0.001, 0.0, 0.0, 0.0, 0.001, 0.0, 0.0, 0.0, 0.001)"
1637149246831706613, 9816, 1636513053, 420902967, base_link, -0.00521124129234, -0.0129104800257, -0.999877609487, -0.00713642179117, "(0.00016518812576916952, 0.0, 0.0, 0.0, 0.00016383949104348608, 0.0, 0.0, 0.0, 0.015722743815343998)", 0.000654337580959, -0.00170549010995, 0.000531792707358, "(0.001, 0.0, 0.0, 0.0, 0.001, 0.0, 0.0, 0.0, 0.001)", 0.123029251122, 0.0251913303022, -0.0939259088228, "(0.001, 0.0, 0.0, 0.0, 0.001, 0.0, 0.0, 0.0, 0.001)"
1637149246851326514, 9817, 1636513053, 441612958, base_link, -0.00518961036457, -0.0129008240356, -0.999877861304, -0.00713436451617, "(0.00016518812576916952, 0.0, 0.0, 0.0, 0.00016383949104348608, 0.0, 0.0, 0.0, 0.015722743815343998)", -0.000450738823721, 0.00129774862933, 0.000772242468255, "(0.001, 0.0, 0.0, 0.0, 0.001, 0.0, 0.0, 0.0, 0.001)", 0.0103448505003, 0.0734994322938, 0.0549060920702, "(0.001, 0.0, 0.0, 0.0, 0.001, 0.0, 0.0, 0.0, 0.001)"
1637149246870975961, 9818, 1636513053, 461247920, base_link, -0.00519623725184, -0.0129087056454, -0.999877761781, -0.00712923088584, "(0.00016518812576916952, 0.0, 0.0, 0.0, 0.00016383949104348608, 0.0, 0.0, 0.0, 0.015722743815343998)", 0.000345097905932, -3.23760436973e-05, 0.000748531250613, "(0.001, 0.0, 0.0, 0.0, 0.001, 0.0, 0.0, 0.0, 0.001)", 0.0527877871511, -0.0243823336189, -0.0516780644937, "(0.001, 0.0, 0.0, 0.0, 0.001, 0.0, 0.0, 0.0, 0.001)"
1637149246891050719, 9819, 1636513053, 481241941, base_link, -0.00519198397784, -0.0128852473858, -0.999878114977, -0.00712522924846, "(0.00016518812576916952, 0.0, 0.0, 0.0, 0.00016383949104348608, 0.0, 0.0, 0.0, 0.015722743815343998)", -0.00216949035657, 0.000225154045105, 0.00107320119713, "(0.001, 0.0, 0.0, 0.0, 0.001, 0.0, 0.0, 0.0, 0.001)", -0.0674584424209, 0.0190537603438, 0.0617794640582, "(0.001, 0.0, 0.0, 0.0, 0.001, 0.0, 0.0, 0.0, 0.001)"
1637149246912258337, 9820, 1636513053, 502403020, base_link, -0.00519260181693, -0.0128980137655, -0.999877921328, -0.00712885467773, "(0.00016518812576916952, 0.0, 0.0, 0.0, 0.00016383949104348608, 0.0, 0.0, 0.0, 0.015722743815343998)", 0.000265219462657, 0.000198776393356, -1.00189464798e-06, "(0.001, 0.0, 0.0, 0.0, 0.001, 0.0, 0.0, 0.0, 0.001)", 0.235175934289, -0.00718951743247, -0.0552010642532, "(0.001, 0.0, 0.0, 0.0, 0.001, 0.0, 0.0, 0.0, 0.001)"
1637149246930499821, 9821, 1636513053, 520550012, base_link, -0.00519020037497, -0.0128953813494, -0.999878035444, -0.00711935362323, "(0.00016518812576916952, 0.0, 0.0, 0.0, 0.00016383949104348608, 0.0, 0.0, 0.0, 0.015722743815343998)", 0.000248519444298, 0.00100234790117, 0.00111300497408, "(0.001, 0.0, 0.0, 0.0, 0.001, 0.0, 0.0, 0.0, 0.001)", -0.275938164574, 0.0935722774436, 0.0197288758876, "(0.001, 0.0, 0.0, 0.0, 0.001, 0.0, 0.0, 0.0, 0.001)"
1637149246951642763, 9822, 1636513053, 541719913, base_link, -0.00520181763992, -0.0128961594619, -0.999877954168, -0.00712088002398, "(0.00016518812576916952, 0.0, 0.0, 0.0, 0.00016383949104348608, 0.0, 0.0, 0.0, 0.015722743815343998)", 0.000486395428697, -0.00135564777625, 0.00020342644505, "(0.001, 0.0, 0.0, 0.0, 0.001, 0.0, 0.0, 0.0, 0.001)", 0.246963040042, -0.0398436817916, 0.0441923124377, "(0.001, 0.0, 0.0, 0.0, 0.001, 0.0, 0.0, 0.0, 0.001)"
1637149246971724617, 9823, 1636513053, 561889886, base_link, -0.0051834165517, -0.0128889368977, -0.999878146321, -0.0071203938774, "(0.00016518812576916952, 0.0, 0.0, 0.0, 0.00016383949104348608, 0.0, 0.0, 0.0, 0.015722743815343998)", -0.00113317614524, 0.00211958477758, 0.000172714670891, "(0.001, 0.0, 0.0, 0.0, 0.001, 0.0, 0.0, 0.0, 0.001)", -0.240655691086, -0.108233752832, -0.0394817626955, "(0.001, 0.0, 0.0, 0.0, 0.001, 0.0, 0.0, 0.0, 0.001)"
1637149246990496034, 9824, 1636513053, 580665111, base_link, -0.0051834165517, -0.0128889368977, -0.999878146321, -0.0071203938774, "(0.00016518812576916952, 0.0, 0.0, 0.0, 0.00016383949104348608, 0.0, 0.0, 0.0, 0.015722743815343998)", -0.000278217734663, -0.00202597973844, -0.0001514051755, "(0.001, 0.0, 0.0, 0.0, 0.001, 0.0, 0.0, 0.0, 0.001)", 0.0976734665035, -0.0473218564567, -0.00293645495262, "(0.001, 0.0, 0.0, 0.0, 0.001, 0.0, 0.0, 0.0, 0.001)"
1637149247011161630, 9825, 1636513053, 600825071, base_link, -0.00521561506953, -0.0128742983917, -0.999878247524, -0.00710914406863, "(0.00016518812576916952, 0.0, 0.0, 0.0, 0.00016383949104348608, 0.0, 0.0, 0.0, 0.015722743815343998)", -0.00129525408083, -0.00212281719007, 0.00123349670511, "(0.001, 0.0, 0.0, 0.0, 0.001, 0.0, 0.0, 0.0, 0.001)", -0.109348867627, -0.246545280543, -0.0735174584203, "(0.001, 0.0, 0.0, 0.0, 0.001, 0.0, 0.0, 0.0, 0.001)"
1637149247032393475, 9826, 1636513053, 622632026, base_link, -0.00524728125985, -0.0128708836195, -0.999878252831, -0.00709125590038, "(0.00016518812576916952, 0.0, 0.0, 0.0, 0.00016383949104348608, 0.0, 0.0, 0.0, 0.015722743815343998)", -0.00120841573247, -0.00406128970145, 0.0026684040727, "(0.001, 0.0, 0.0, 0.0, 0.001, 0.0, 0.0, 0.0, 0.001)", -0.0342361359177, -0.243584193957, -0.0999680852118, "(0.001, 0.0, 0.0, 0.0, 0.001, 0.0, 0.0, 0.0, 0.001)"
1637149247050407430, 9827, 1636513053, 640594959, base_link, -0.00528022587763, -0.0128900192191, -0.999877885467, -0.00708383894298, "(0.00016518812576916952, 0.0, 0.0, 0.0, 0.00016383949104348608, 0.0, 0.0, 0.0, 0.015722743815343998)", 0.00208442494238, -0.00679197192636, 0.00303484715461, "(0.001, 0.0, 0.0, 0.0, 0.001, 0.0, 0.0, 0.0, 0.001)", -0.337514291788, -0.0627223149262, -0.317025766757, "(0.001, 0.0, 0.0, 0.0, 0.001, 0.0, 0.0, 0.0, 0.001)"
1637149247071351813, 9828, 1636513053, 661642074, base_link, -0.00529984145266, -0.0129160407423, -0.999877421891, -0.00708722543825, "(0.00016518812576916952, 0.0, 0.0, 0.0, 0.00016383949104348608, 0.0, 0.0, 0.0, 0.015722743815343998)", 0.00349379584219, -0.00422345941879, 0.000172729467376, "(0.001, 0.0, 0.0, 0.0, 0.001, 0.0, 0.0, 0.0, 0.001)", 0.0486162319772, -0.0998340207426, -0.126237005285, "(0.001, 0.0, 0.0, 0.0, 0.001, 0.0, 0.0, 0.0, 0.001)"
1637149247090924156, 9829, 1636513053, 680951118, base_link, -0.00532901279798, -0.0129401487871, -0.999876892592, -0.00709604349248, "(0.00016518812576916952, 0.0, 0.0, 0.0, 0.00016383949104348608, 0.0, 0.0, 0.0, 0.015722743815343998)", 0.00563395393196, -0.00573600293265, -0.000730407979304, "(0.001, 0.0, 0.0, 0.0, 0.001, 0.0, 0.0, 0.0, 0.001)", -0.481510385117, -0.113535178457, -0.22017937436, "(0.001, 0.0, 0.0, 0.0, 0.001, 0.0, 0.0, 0.0, 0.001)"
1637149247111398056, 9830, 1636513053, 701600074, base_link, -0.00535898964949, -0.0129631382379, -0.999876341537, -0.00710914282489, "(0.00016518812576916952, 0.0, 0.0, 0.0, 0.00016383949104348608, 0.0, 0.0, 0.0, 0.015722743815343998)", 0.00378748764435, -0.00503308475021, -0.00174710851216, "(0.001, 0.0, 0.0, 0.0, 0.001, 0.0, 0.0, 0.0, 0.001)", 0.159768401853, -0.0974592156883, 0.00866634277636, "(0.001, 0.0, 0.0, 0.0, 0.001, 0.0, 0.0, 0.0, 0.001)"
1637149247130798210, 9831, 1636513053, 720998048, base_link, -0.00539099788494, -0.0130079152421, -0.999875402443, -0.00713518552186, "(0.00016518812576916952, 0.0, 0.0, 0.0, 0.00016383949104348608, 0.0, 0.0, 0.0, 0.015722743815343998)", 0.00847021955933, -0.00618034441157, -0.00452270839768, "(0.001, 0.0, 0.0, 0.0, 0.001, 0.0, 0.0, 0.0, 0.001)", -0.514286334753, 0.000690797620987, -0.176999737724, "(0.001, 0.0, 0.0, 0.0, 0.001, 0.0, 0.0, 0.0, 0.001)"
1637149247151045702, 9832, 1636513053, 741154909, base_link, -0.00543350790912, -0.0130570911194, -0.999874395404, -0.00715421402624, "(0.00016518812576916952, 0.0, 0.0, 0.0, 0.00016383949104348608, 0.0, 0.0, 0.0, 0.015722743815343998)", 0.00711109128709, -0.0069656896115, -0.00317845885629, "(0.001, 0.0, 0.0, 0.0, 0.001, 0.0, 0.0, 0.0, 0.001)", 0.201856940899, 0.0522754708835, 0.0397477929802, "(0.001, 0.0, 0.0, 0.0, 0.001, 0.0, 0.0, 0.0, 0.001)"
1637149247170409227, 9833, 1636513053, 760565996, base_link, -0.00547820837233, -0.0130900571647, -0.999873535794, -0.00717997600464, "(0.00016518812576916952, 0.0, 0.0, 0.0, 0.00016383949104348608, 0.0, 0.0, 0.0, 0.015722743815343998)", 0.00965048212029, -0.00950193628972, -0.00529448157041, "(0.001, 0.0, 0.0, 0.0, 0.001, 0.0, 0.0, 0.0, 0.001)", -0.194566036865, 0.0927403672333, -0.16584191759, "(0.001, 0.0, 0.0, 0.0, 0.001, 0.0, 0.0, 0.0, 0.001)"
1637149247191507671, 9834, 1636513053, 781663894, base_link, -0.00552032702838, -0.0131352396434, -0.999872579101, -0.00719840468659, "(0.00016518812576916952, 0.0, 0.0, 0.0, 0.00016383949104348608, 0.0, 0.0, 0.0, 0.015722743815343998)", 0.00681059139568, -0.00729478682331, -0.00344701649815, "(0.001, 0.0, 0.0, 0.0, 0.001, 0.0, 0.0, 0.0, 0.001)", 0.264974507888, 0.0437712922494, 0.0587014510834, "(0.001, 0.0, 0.0, 0.0, 0.001, 0.0, 0.0, 0.0, 0.001)"
1637149247214104496, 9835, 1636513053, 803257942, base_link, -0.00556804222366, -0.0131842249017, -0.999871567444, -0.00721260958881, "(0.00016518812576916952, 0.0, 0.0, 0.0, 0.00016383949104348608, 0.0, 0.0, 0.0, 0.015722743815343998)", 0.0111607795833, -0.010501335053, -0.00382093463954, "(0.001, 0.0, 0.0, 0.0, 0.001, 0.0, 0.0, 0.0, 0.001)", -0.00201132181616, 0.215656912276, -0.0681502066935, "(0.001, 0.0, 0.0, 0.0, 0.001, 0.0, 0.0, 0.0, 0.001)"
1637149247231684150, 9836, 1636513053, 821830987, base_link, -0.00558706447131, -0.0132267404523, -0.999870872439, -0.00721640459283, "(0.00016518812576916952, 0.0, 0.0, 0.0, 0.00016383949104348608, 0.0, 0.0, 0.0, 0.015722743815343998)", 0.00763982926988, -0.00510650088723, -0.001433805324, "(0.001, 0.0, 0.0, 0.0, 0.001, 0.0, 0.0, 0.0, 0.001)", 0.440201358972, 0.217848334442, 0.129028802955, "(0.001, 0.0, 0.0, 0.0, 0.001, 0.0, 0.0, 0.0, 0.001)"
1637149247250753670, 9837, 1636513053, 840949058, base_link, -0.00563413030332, -0.0132794564793, -0.999869865591, -0.00722249919911, "(0.00016518812576916952, 0.0, 0.0, 0.0, 0.00016383949104348608, 0.0, 0.0, 0.0, 0.015722743815343998)", 0.0115299634106, -0.00842404167596, -0.00149128943193, "(0.001, 0.0, 0.0, 0.0, 0.001, 0.0, 0.0, 0.0, 0.001)", -0.127954286893, 0.230762866317, -0.118368841088, "(0.001, 0.0, 0.0, 0.0, 0.001, 0.0, 0.0, 0.0, 0.001)"
1637149247270635730, 9838, 1636513053, 860857963, base_link, -0.00564410575873, -0.013326631149, -0.999869173559, -0.00722362362325, "(0.00016518812576916952, 0.0, 0.0, 0.0, 0.00016383949104348608, 0.0, 0.0, 0.0, 0.015722743815343998)", 0.00821240908724, -0.00407734528453, -0.000565843881262, "(0.001, 0.0, 0.0, 0.0, 0.001, 0.0, 0.0, 0.0, 0.001)", 0.495556167553, 0.223037959724, 0.124136577949, "(0.001, 0.0, 0.0, 0.0, 0.001, 0.0, 0.0, 0.0, 0.001)"
1637149247291086439, 9839, 1636513053, 881227970, base_link, -0.00566260271175, -0.0133790839096, -0.999868429579, -0.00721516289954, "(0.00016518812576916952, 0.0, 0.0, 0.0, 0.00016383949104348608, 0.0, 0.0, 0.0, 0.015722743815343998)", 0.0118733117957, -0.00354650253273, 0.000645417149169, "(0.001, 0.0, 0.0, 0.0, 0.001, 0.0, 0.0, 0.0, 0.001)", -0.132629904364, 0.333246642285, -0.17077559442, "(0.001, 0.0, 0.0, 0.0, 0.001, 0.0, 0.0, 0.0, 0.001)"
1637149247310772592, 9840, 1636513053, 901010990, base_link, -0.00566458781717, -0.013439491909, -0.999867717429, -0.00720001005458, "(0.00016518812576916952, 0.0, 0.0, 0.0, 0.00016383949104348608, 0.0, 0.0, 0.0, 0.015722743815343998)", 0.00955991395824, -0.00200714087398, 0.00193781333726, "(0.001, 0.0, 0.0, 0.0, 0.001, 0.0, 0.0, 0.0, 0.001)", 0.379585657415, 0.320883883801, 0.139905401632, "(0.001, 0.0, 0.0, 0.0, 0.001, 0.0, 0.0, 0.0, 0.001)"
1637149247330324496, 9841, 1636513053, 920269012, base_link, -0.00567861987688, -0.0134895996499, -0.9998669741, -0.00719847772194, "(0.00016518812576916952, 0.0, 0.0, 0.0, 0.00016383949104348608, 0.0, 0.0, 0.0, 0.015722743815343998)", 0.0127373738105, -0.00170798176006, 0.00157589862761, "(0.001, 0.0, 0.0, 0.0, 0.001, 0.0, 0.0, 0.0, 0.001)", -0.0895901138672, 0.545286882781, -0.164547637599, "(0.001, 0.0, 0.0, 0.0, 0.001, 0.0, 0.0, 0.0, 0.001)"
1637149247350646873, 9842, 1636513053, 940824985, base_link, -0.00568814358684, -0.01355052109, -0.999866173227, -0.00718776997449, "(0.00016518812576916952, 0.0, 0.0, 0.0, 0.00016383949104348608, 0.0, 0.0, 0.0, 0.015722743815343998)", 0.00946082439196, -0.00192422570672, 0.0012112226868, "(0.001, 0.0, 0.0, 0.0, 0.001, 0.0, 0.0, 0.0, 0.001)", 0.2167855445, 0.337627646656, 0.108321821942, "(0.001, 0.0, 0.0, 0.0, 0.001, 0.0, 0.0, 0.0, 0.001)"
1637149247371068613, 9843, 1636513053, 961175918, base_link, -0.00569328840626, -0.0136133435439, -0.999865331439, -0.00718208397358, "(0.00016518812576916952, 0.0, 0.0, 0.0, 0.00016383949104348608, 0.0, 0.0, 0.0, 0.015722743815343998)", 0.014553969223, -0.00136609089634, 0.00193044938701, "(0.001, 0.0, 0.0, 0.0, 0.001, 0.0, 0.0, 0.0, 0.001)", -0.0964869279516, 0.643475730756, -0.256421304507, "(0.001, 0.0, 0.0, 0.0, 0.001, 0.0, 0.0, 0.0, 0.001)"
1637149247390535538, 9844, 1636513053, 980768918, base_link, -0.00567574999308, -0.0136848203906, -0.999864493279, -0.00717681217643, "(0.00016518812576916952, 0.0, 0.0, 0.0, 0.00016383949104348608, 0.0, 0.0, 0.0, 0.015722743815343998)", 0.0109729669001, 0.00107300215367, 0.00086126939739, "(0.001, 0.0, 0.0, 0.0, 0.001, 0.0, 0.0, 0.0, 0.001)", 0.192497505747, 0.497420992483, 0.100899383661, "(0.001, 0.0, 0.0, 0.0, 0.001, 0.0, 0.0, 0.0, 0.001)"
1637149247410941879, 9845, 1636513054, 628948, base_link, -0.00569360803921, -0.0137645139819, -0.999863280704, -0.00717919784191, "(0.00016518812576916952, 0.0, 0.0, 0.0, 0.00016383949104348608, 0.0, 0.0, 0.0, 0.015722743815343998)", 0.0179132347924, -0.000467883111134, 0.000148339226885, "(0.001, 0.0, 0.0, 0.0, 0.001, 0.0, 0.0, 0.0, 0.001)", -0.243344517399, 0.85152344027, -0.281139177763, "(0.001, 0.0, 0.0, 0.0, 0.001, 0.0, 0.0, 0.0, 0.001)"
1637149247431959405, 9846, 1636513054, 22173881, base_link, -0.00567581284498, -0.0138447233177, -0.999862242986, -0.00718358104919, "(0.00016518812576916952, 0.0, 0.0, 0.0, 0.00016383949104348608, 0.0, 0.0, 0.0, 0.015722743815343998)", 0.0129295225668, 0.000792375414107, -0.000319358179161, "(0.001, 0.0, 0.0, 0.0, 0.001, 0.0, 0.0, 0.0, 0.001)", 0.211785091589, 0.657456941475, 0.155152064931, "(0.001, 0.0, 0.0, 0.0, 0.001, 0.0, 0.0, 0.0, 0.001)"
1637149247450378418, 9847, 1636513054, 40589094, base_link, -0.00569080733599, -0.01392418814, -0.999860937093, -0.00719987301528, "(0.00016518812576916952, 0.0, 0.0, 0.0, 0.00016383949104348608, 0.0, 0.0, 0.0, 0.015722743815343998)", 0.018812453199, -0.000211196480675, -0.00273862269566, "(0.001, 0.0, 0.0, 0.0, 0.001, 0.0, 0.0, 0.0, 0.001)", -0.191183328881, 0.895823687824, -0.283056283888, "(0.001, 0.0, 0.0, 0.0, 0.001, 0.0, 0.0, 0.0, 0.001)"
1637149247472190330, 9848, 1636513054, 62279939, base_link, -0.00567535441209, -0.0140174008271, -0.999859593035, -0.00721782805677, "(0.00016518812576916952, 0.0, 0.0, 0.0, 0.00016383949104348608, 0.0, 0.0, 0.0, 0.015722743815343998)", 0.0142951340513, 0.00102867849899, -0.0023386664061, "(0.001, 0.0, 0.0, 0.0, 0.001, 0.0, 0.0, 0.0, 0.001)", 0.107850901381, 0.690990892575, 0.173265453055, "(0.001, 0.0, 0.0, 0.0, 0.001, 0.0, 0.0, 0.0, 0.001)"
1637149247491546398, 9849, 1636513054, 81788063, base_link, -0.00567779373221, -0.0141108501136, -0.999858087379, -0.00724235248085, "(0.00016518812576916952, 0.0, 0.0, 0.0, 0.00016383949104348608, 0.0, 0.0, 0.0, 0.015722743815343998)", 0.0219586489518, 0.000832027140421, -0.00543159031507, "(0.001, 0.0, 0.0, 0.0, 0.001, 0.0, 0.0, 0.0, 0.001)", -0.0344633004575, 1.20756974321, -0.286994426396, "(0.001, 0.0, 0.0, 0.0, 0.001, 0.0, 0.0, 0.0, 0.001)"
1637149247510764991, 9850, 1636513054, 100913047, base_link, -0.00566355970497, -0.0141976028671, -0.999856816845, -0.00725933693533, "(0.00016518812576916952, 0.0, 0.0, 0.0, 0.00016383949104348608, 0.0, 0.0, 0.0, 0.015722743815343998)", 0.0146507125404, 0.00144418491115, -0.00273633712619, "(0.001, 0.0, 0.0, 0.0, 0.001, 0.0, 0.0, 0.0, 0.001)", 0.0259550158542, 0.691635835318, 0.233938102966, "(0.001, 0.0, 0.0, 0.0, 0.001, 0.0, 0.0, 0.0, 0.001)"
1637149247531493267, 9851, 1636513054, 120604038, base_link, -0.0056776513628, -0.0142869352904, -0.999855245366, -0.00728944915327, "(0.00016518812576916952, 0.0, 0.0, 0.0, 0.00016383949104348608, 0.0, 0.0, 0.0, 0.015722743815343998)", 0.021450651985, -0.00035471937776, -0.00633930740922, "(0.001, 0.0, 0.0, 0.0, 0.001, 0.0, 0.0, 0.0, 0.001)", 0.0380204155513, 1.32471342447, -0.160198764578, "(0.001, 0.0, 0.0, 0.0, 0.001, 0.0, 0.0, 0.0, 0.001)"
1637149247552106774, 9852, 1636513054, 142322063, base_link, -0.00564578507193, -0.0143729427428, -0.999854087969, -0.00730386192356, "(0.00016518812576916952, 0.0, 0.0, 0.0, 0.00016383949104348608, 0.0, 0.0, 0.0, 0.015722743815343998)", 0.0142217527823, 0.00262802757032, -0.00297709079217, "(0.001, 0.0, 0.0, 0.0, 0.001, 0.0, 0.0, 0.0, 0.001)", 0.0805759583911, 0.824417050596, 0.277697481247, "(0.001, 0.0, 0.0, 0.0, 0.001, 0.0, 0.0, 0.0, 0.001)"
1637149247570306289, 9853, 1636513054, 160470008, base_link, -0.00566854642229, -0.0144494920539, -0.99985273561, -0.00732030426081, "(0.00016518812576916952, 0.0, 0.0, 0.0, 0.00016383949104348608, 0.0, 0.0, 0.0, 0.015722743815343998)", 0.0190747284566, -6.70077401343e-05, -0.00428261599011, "(0.001, 0.0, 0.0, 0.0, 0.001, 0.0, 0.0, 0.0, 0.001)", -0.0488819840125, 1.37616205673, -0.138752354444, "(0.001, 0.0, 0.0, 0.0, 0.001, 0.0, 0.0, 0.0, 0.001)"
1637149247591014564, 9854, 1636513054, 181237936, base_link, -0.00564407423317, -0.0145165854895, -0.9998517902, -0.00733558484339, "(0.00016518812576916952, 0.0, 0.0, 0.0, 0.00016383949104348608, 0.0, 0.0, 0.0, 0.015722743815343998)", 0.0120269333953, 0.00141293098204, -0.00253461835392, "(0.001, 0.0, 0.0, 0.0, 0.001, 0.0, 0.0, 0.0, 0.001)", 0.156181713416, 0.849085254779, 0.335322142843, "(0.001, 0.0, 0.0, 0.0, 0.001, 0.0, 0.0, 0.0, 0.001)"
1637149247610245978, 9855, 1636513054, 200361013, base_link, -0.00566395975012, -0.0145822303563, -0.999850641659, -0.00734659734112, "(0.00016518812576916952, 0.0, 0.0, 0.0, 0.00016383949104348608, 0.0, 0.0, 0.0, 0.015722743815343998)", 0.0158755551073, -0.000213948388486, -0.00349035309155, "(0.001, 0.0, 0.0, 0.0, 0.001, 0.0, 0.0, 0.0, 0.001)", -0.125099181016, 1.50690372064, -0.0949773274905, "(0.001, 0.0, 0.0, 0.0, 0.001, 0.0, 0.0, 0.0, 0.001)"
1637149247631990137, 9856, 1636513054, 221518039, base_link, -0.00565774810601, -0.0146267184299, -0.999849939497, -0.00735849731577, "(0.00016518812576916952, 0.0, 0.0, 0.0, 0.00016383949104348608, 0.0, 0.0, 0.0, 0.015722743815343998)", 0.00905633227758, -0.000133134505948, -0.00168551573703, "(0.001, 0.0, 0.0, 0.0, 0.001, 0.0, 0.0, 0.0, 0.001)", 0.157327967428, 0.864335060367, 0.32583521982, "(0.001, 0.0, 0.0, 0.0, 0.001, 0.0, 0.0, 0.0, 0.001)"
1637149247650600222, 9857, 1636513054, 240856885, base_link, -0.00566952535075, -0.0146747260601, -0.999849107491, -0.00736689536336, "(0.00016518812576916952, 0.0, 0.0, 0.0, 0.00016383949104348608, 0.0, 0.0, 0.0, 0.015722743815343998)", 0.0122176051821, -0.000936213909816, -0.00283472514924, "(0.001, 0.0, 0.0, 0.0, 0.001, 0.0, 0.0, 0.0, 0.001)", -0.0775888253895, 1.50022667332, -0.0675155767636, "(0.001, 0.0, 0.0, 0.0, 0.001, 0.0, 0.0, 0.0, 0.001)"
1637149247672055280, 9858, 1636513054, 262168884, base_link, -0.00566952535075, -0.0146747260601, -0.999849107491, -0.00736689536336, "(0.00016518812576916952, 0.0, 0.0, 0.0, 0.00016383949104348608, 0.0, 0.0, 0.0, 0.015722743815343998)", 0.00617396258728, -0.00113959917137, -0.000783663954387, "(0.001, 0.0, 0.0, 0.0, 0.001, 0.0, 0.0, 0.0, 0.001)", 0.0931742703311, 0.88254898359, 0.312888752239, "(0.001, 0.0, 0.0, 0.0, 0.001, 0.0, 0.0, 0.0, 0.001)"
1637149247690343636, 9859, 1636513054, 280311107, base_link, -0.00569406928097, -0.0147207625318, -0.999848247855, -0.00737278696079, "(0.00016518812576916952, 0.0, 0.0, 0.0, 0.00016383949104348608, 0.0, 0.0, 0.0, 0.015722743815343998)", 0.00560576118158, -0.00267543679159, -0.000987054211087, "(0.001, 0.0, 0.0, 0.0, 0.001, 0.0, 0.0, 0.0, 0.001)", -0.0945115834807, 1.40035724203, -0.0297690029758, "(0.001, 0.0, 0.0, 0.0, 0.001, 0.0, 0.0, 0.0, 0.001)"
1637149247715163175, 9860, 1636513054, 305057048, base_link, -0.00568841799154, -0.014739280882, -0.999847954033, -0.00737999433374, "(0.00016518812576916952, 0.0, 0.0, 0.0, 0.00016383949104348608, 0.0, 0.0, 0.0, 0.015722743815343998)", 0.00365862839164, -0.000876290700968, -0.000537250551482, "(0.001, 0.0, 0.0, 0.0, 0.001, 0.0, 0.0, 0.0, 0.001)", 0.15521732473, 0.939916056702, 0.237429165044, "(0.001, 0.0, 0.0, 0.0, 0.001, 0.0, 0.0, 0.0, 0.001)"
1637149247732261428, 9861, 1636513054, 322469949, base_link, -0.00571510941213, -0.0147467285357, -0.999847607574, -0.00739142406356, "(0.00022268713881196892, 0.0, 0.0, 0.0, 0.00022131387544619633, 0.0, 0.0, 0.0, 0.015822085680385678)", 0.00266525219112, -0.00310887991792, -0.00241580469343, "(0.001, 0.0, 0.0, 0.0, 0.001, 0.0, 0.0, 0.0, 0.001)", -0.276966453912, 1.4197358153, -0.11328098024, "(0.001, 0.0, 0.0, 0.0, 0.001, 0.0, 0.0, 0.0, 0.001)"
1637149247750785925, 9862, 1636513054, 340943098, base_link, -0.00572865801739, -0.0147610221743, -0.999847247531, -0.0074011017135, "(0.0002226800509636008, 0.0, 0.0, 0.0, 0.0002213078624458166, 0.0, 0.0, 0.0, 0.015821789533593034)", 0.00267944584112, -0.00262280964071, -0.00124941080682, "(0.001, 0.0, 0.0, 0.0, 0.001, 0.0, 0.0, 0.0, 0.001)", 0.203636231679, 0.935221506056, 0.192402649704, "(0.001, 0.0, 0.0, 0.0, 0.001, 0.0, 0.0, 0.0, 0.001)"
1637149247770791308, 9863, 1636513054, 360939979, base_link, -0.00574749502956, -0.0147635121998, -0.999846992699, -0.00741594224576, "(0.0002226800509636008, 0.0, 0.0, 0.0, 0.0002213078624458166, 0.0, 0.0, 0.0, 0.015821789533593034)", 0.00193085726078, -0.00335287542756, -0.00311334618702, "(0.001, 0.0, 0.0, 0.0, 0.001, 0.0, 0.0, 0.0, 0.001)", -0.237482352315, 1.34819817657, -0.187858497713, "(0.001, 0.0, 0.0, 0.0, 0.001, 0.0, 0.0, 0.0, 0.001)"
1637149247792467275, 9864, 1636513054, 382581949, base_link, -0.00576259431628, -0.0147711387035, -0.999846722406, -0.00742547391348, "(0.0002226800509636008, 0.0, 0.0, 0.0, 0.0002213078624458166, 0.0, 0.0, 0.0, 0.015821789533593034)", 0.00121919401376, -0.00336825373695, -0.00154823330846, "(0.001, 0.0, 0.0, 0.0, 0.001, 0.0, 0.0, 0.0, 0.001)", 0.170048619939, 0.966759007688, 0.159596083076, "(0.001, 0.0, 0.0, 0.0, 0.001, 0.0, 0.0, 0.0, 0.001)"
1637149247811896637, 9865, 1636513054, 401936054, base_link, -0.00577823080458, -0.0147646309563, -0.999846574641, -0.0074461332806, "(0.0002226800509636008, 0.0, 0.0, 0.0, 0.0002213078624458166, 0.0, 0.0, 0.0, 0.015821789533593034)", -0.000237821207419, -0.00339084043871, -0.00391711403109, "(0.001, 0.0, 0.0, 0.0, 0.001, 0.0, 0.0, 0.0, 0.001)", -0.0998899341214, 1.35733562989, -0.20210667827, "(0.001, 0.0, 0.0, 0.0, 0.001, 0.0, 0.0, 0.0, 0.001)"
1637149247831169556, 9866, 1636513054, 421310901, base_link, -0.00579131811084, -0.0147809328851, -0.999846158511, -0.00745948851784, "(0.0002226800509636008, 0.0, 0.0, 0.0, 0.0002213078624458166, 0.0, 0.0, 0.0, 0.015821789533593034)", 0.00143515041652, -0.00276704148954, -0.00222456584018, "(0.001, 0.0, 0.0, 0.0, 0.001, 0.0, 0.0, 0.0, 0.001)", 0.145183956731, 0.930911843838, 0.119628187572, "(0.001, 0.0, 0.0, 0.0, 0.001, 0.0, 0.0, 0.0, 0.001)"
1637149247851610408, 9867, 1636513054, 441788911, base_link, -0.00581075475972, -0.0147763453266, -0.999845982069, -0.007477090885, "(0.0002226800509636008, 0.0, 0.0, 0.0, 0.0002213078624458166, 0.0, 0.0, 0.0, 0.015821789533593034)", 0.000360592829667, -0.00362485183544, -0.00396476955057, "(0.001, 0.0, 0.0, 0.0, 0.001, 0.0, 0.0, 0.0, 0.001)", -0.0727627593546, 1.36233945383, -0.224368207466, "(0.001, 0.0, 0.0, 0.0, 0.001, 0.0, 0.0, 0.0, 0.001)"
1637149247870922139, 9868, 1636513054, 461114883, base_link, -0.00582151873611, -0.0147803743284, -0.999845782008, -0.00748749995868, "(0.0002226800509636008, 0.0, 0.0, 0.0, 0.0002213078624458166, 0.0, 0.0, 0.0, 0.015821789533593034)", 0.00109420621865, -0.00260073762096, -0.00189955583725, "(0.001, 0.0, 0.0, 0.0, 0.001, 0.0, 0.0, 0.0, 0.001)", 0.140230014825, 0.899407738439, 0.100586640875, "(0.001, 0.0, 0.0, 0.0, 0.001, 0.0, 0.0, 0.0, 0.001)"
1637149247890771699, 9869, 1636513054, 481070041, base_link, -0.00585499374371, -0.0147722572625, -0.999845668776, -0.00749253588118, "(0.0002226800509636008, 0.0, 0.0, 0.0, 0.0002213078624458166, 0.0, 0.0, 0.0, 0.015821789533593034)", -0.000736469174916, -0.00527762219756, -0.00191836451026, "(0.001, 0.0, 0.0, 0.0, 0.001, 0.0, 0.0, 0.0, 0.001)", -0.0740172672943, 1.29302420278, -0.183726483598, "(0.001, 0.0, 0.0, 0.0, 0.001, 0.0, 0.0, 0.0, 0.001)"
1637149247911201758, 9870, 1636513054, 501404047, base_link, -0.00586810297202, -0.0147642977663, -0.999845721816, -0.00749089076006, "(0.0002226800509636008, 0.0, 0.0, 0.0, 0.0002213078624458166, 0.0, 0.0, 0.0, 0.015821789533593034)", -0.00100266259671, -0.00347107212487, -0.000213859255514, "(0.001, 0.0, 0.0, 0.0, 0.001, 0.0, 0.0, 0.0, 0.001)", 0.197183362029, 0.818208780391, 0.217683327696, "(0.001, 0.0, 0.0, 0.0, 0.001, 0.0, 0.0, 0.0, 0.001)"
1637149247931109466, 9871, 1636513054, 520483970, base_link, -0.0058986118693, -0.0147370454883, -0.999845993375, -0.00748434362864, "(0.0002226800509636008, 0.0, 0.0, 0.0, 0.0002213078624458166, 0.0, 0.0, 0.0, 0.015821789533593034)", -0.00409234445829, -0.00551143040908, 0.000283792173272, "(0.001, 0.0, 0.0, 0.0, 0.001, 0.0, 0.0, 0.0, 0.001)", 0.0298776034415, 1.30844187451, -0.0940276903027, "(0.001, 0.0, 0.0, 0.0, 0.001, 0.0, 0.0, 0.0, 0.001)"
1637149247951644806, 9872, 1636513054, 541887044, base_link, -0.00591532917371, -0.0147215580448, -0.999846158059, -0.0074796273122, "(0.0002226800509636008, 0.0, 0.0, 0.0, 0.0002213078624458166, 0.0, 0.0, 0.0, 0.015821789533593034)", -0.00279989853771, -0.00375042535872, 0.00133092241343, "(0.001, 0.0, 0.0, 0.0, 0.001, 0.0, 0.0, 0.0, 0.001)", 0.106851345364, 0.800253111685, 0.259744636817, "(0.001, 0.0, 0.0, 0.0, 0.001, 0.0, 0.0, 0.0, 0.001)"
1637149247971619785, 9873, 1636513054, 561907052, base_link, -0.00593085256475, -0.0146756680842, -0.999846785494, -0.00747363976017, "(0.0002226800509636008, 0.0, 0.0, 0.0, 0.0002213078624458166, 0.0, 0.0, 0.0, 0.015821789533593034)", -0.0083981267648, -0.00393768562128, 0.00137758182879, "(0.001, 0.0, 0.0, 0.0, 0.001, 0.0, 0.0, 0.0, 0.001)", 0.147019024204, 1.27819876848, -0.199540936576, "(0.001, 0.0, 0.0, 0.0, 0.001, 0.0, 0.0, 0.0, 0.001)"
1637149247990643206, 9874, 1636513054, 580847024, base_link, -0.00592928685076, -0.0146449635217, -0.999847327937, -0.00746253435847, "(0.0002226800509636008, 0.0, 0.0, 0.0, 0.0002213078624458166, 0.0, 0.0, 0.0, 0.015821789533593034)", -0.00483652219068, -0.00103538577946, 0.00162684922094, "(0.001, 0.0, 0.0, 0.0, 0.001, 0.0, 0.0, 0.0, 0.001)", -0.00227193979011, 0.692191697581, 0.276355635138, "(0.001, 0.0, 0.0, 0.0, 0.001, 0.0, 0.0, 0.0, 0.001)"
1637149248010000211, 9875, 1636513054, 600279092, base_link, -0.00593562250362, -0.0146206176422, -0.999847725525, -0.00745195858419, "(0.0002226800509636008, 0.0, 0.0, 0.0, 0.0002213078624458166, 0.0, 0.0, 0.0, 0.015821789533593034)", -0.00761258784419, -0.00136734286696, 0.00238999057929, "(0.001, 0.0, 0.0, 0.0, 0.001, 0.0, 0.0, 0.0, 0.001)", 0.174193252278, 1.28319921051, -0.315343123438, "(0.001, 0.0, 0.0, 0.0, 0.001, 0.0, 0.0, 0.0, 0.001)"
1637149248032443345, 9876, 1636513054, 622452020, base_link, -0.00593838730234, -0.0145865078648, -0.99984821989, -0.00745027034788, "(0.0002226800509636008, 0.0, 0.0, 0.0, 0.0002213078624458166, 0.0, 0.0, 0.0, 0.015821789533593034)", -0.00407866347541, -0.00043116446164, 0.000968706811902, "(0.001, 0.0, 0.0, 0.0, 0.001, 0.0, 0.0, 0.0, 0.001)", -0.146538110699, 0.799678897329, 0.310238739107, "(0.001, 0.0, 0.0, 0.0, 0.001, 0.0, 0.0, 0.0, 0.001)"
1637149248050260058, 9877, 1636513054, 640538930, base_link, -0.00595779165539, -0.014572315073, -0.999848384075, -0.00744051177811, "(0.0002226800509636008, 0.0, 0.0, 0.0, 0.0002213078624458166, 0.0, 0.0, 0.0, 0.015821789533593034)", -0.00569302851878, -0.00315082913882, 0.00164211704751, "(0.001, 0.0, 0.0, 0.0, 0.001, 0.0, 0.0, 0.0, 0.001)", 0.0977292760207, 1.17005067143, -0.348004011009, "(0.001, 0.0, 0.0, 0.0, 0.001, 0.0, 0.0, 0.0, 0.001)"
1637149248071543441, 9878, 1636513054, 661808967, base_link, -0.00596342416214, -0.0145540081474, -0.999848538977, -0.00745100824803, "(0.0002226800509636008, 0.0, 0.0, 0.0, 0.0002213078624458166, 0.0, 0.0, 0.0, 0.015821789533593034)", -0.00271941327144, -0.00132823809636, -0.000206722252984, "(0.001, 0.0, 0.0, 0.0, 0.001, 0.0, 0.0, 0.0, 0.001)", -0.166015208106, 0.848552799433, 0.322497050797, "(0.001, 0.0, 0.0, 0.0, 0.001, 0.0, 0.0, 0.0, 0.001)"
1637149248091489868, 9879, 1636513054, 681739091, base_link, -0.00598089700832, -0.0145278305878, -0.999848820708, -0.00745028447603, "(0.0002226800509636008, 0.0, 0.0, 0.0, 0.0002213078624458166, 0.0, 0.0, 0.0, 0.015821789533593034)", -0.00580265793713, -0.00326255509995, -0.000566175506912, "(0.001, 0.0, 0.0, 0.0, 0.001, 0.0, 0.0, 0.0, 0.001)", 0.167946647181, 1.2158378294, -0.304654878412, "(0.001, 0.0, 0.0, 0.0, 0.001, 0.0, 0.0, 0.0, 0.001)"
1637149248110313673, 9880, 1636513054, 700521945, base_link, -0.00598089700832, -0.0145278305878, -0.999848820708, -0.00745028447603, "(0.0002226800509636008, 0.0, 0.0, 0.0, 0.0002213078624458166, 0.0, 0.0, 0.0, 0.015821789533593034)", -0.00356585483279, -0.00170015867226, -0.00111734392995, "(0.001, 0.0, 0.0, 0.0, 0.001, 0.0, 0.0, 0.0, 0.001)", -0.140623192365, 0.774150419742, 0.259843621019, "(0.001, 0.0, 0.0, 0.0, 0.001, 0.0, 0.0, 0.0, 0.001)"
1637149248131693478, 9881, 1636513054, 721512079, base_link, -0.00598824744822, -0.0144816779962, -0.999849358061, -0.00746210962099, "(0.0002226800509636008, 0.0, 0.0, 0.0, 0.0002213078624458166, 0.0, 0.0, 0.0, 0.015821789533593034)", -0.00569746052363, -0.00128947242103, -0.00115327119804, "(0.001, 0.0, 0.0, 0.0, 0.001, 0.0, 0.0, 0.0, 0.001)", 0.349667275347, 1.31252967769, -0.273558241315, "(0.001, 0.0, 0.0, 0.0, 0.001, 0.0, 0.0, 0.0, 0.001)"
1637149248152112767, 9882, 1636513054, 742371082, base_link, -0.0059850074645, -0.0144435758625, -0.999849817738, -0.00747694932872, "(0.0002226800509636008, 0.0, 0.0, 0.0, 0.0002213078624458166, 0.0, 0.0, 0.0, 0.015821789533593034)", -0.00490870288889, 0.000204072674876, -0.0013587340285, "(0.001, 0.0, 0.0, 0.0, 0.001, 0.0, 0.0, 0.0, 0.001)", -0.186485912014, 0.7749824285, 0.24494270764, "(0.001, 0.0, 0.0, 0.0, 0.001, 0.0, 0.0, 0.0, 0.001)"
1637149248170717954, 9883, 1636513054, 760865926, base_link, -0.0059715613225, -0.0144168574004, -0.999850339098, -0.00746954368435, "(0.0002226800509636008, 0.0, 0.0, 0.0, 0.0002213078624458166, 0.0, 0.0, 0.0, 0.015821789533593034)", -0.00719754714508, 0.00145158217811, -0.000511478910777, "(0.001, 0.0, 0.0, 0.0, 0.001, 0.0, 0.0, 0.0, 0.001)", 0.462329310004, 1.17705672695, -0.176395124961, "(0.001, 0.0, 0.0, 0.0, 0.001, 0.0, 0.0, 0.0, 0.001)"
1637149248190802150, 9884, 1636513054, 781049013, base_link, -0.00595475449386, -0.0143690690772, -0.999851099654, -0.0074732371536, "(0.0002226800509636008, 0.0, 0.0, 0.0, 0.0002213078624458166, 0.0, 0.0, 0.0, 0.015821789533593034)", -0.00647180319426, 0.00292398888877, -0.000248510397775, "(0.001, 0.0, 0.0, 0.0, 0.001, 0.0, 0.0, 0.0, 0.001)", -0.183168230212, 0.731375637961, 0.15229933293, "(0.001, 0.0, 0.0, 0.0, 0.001, 0.0, 0.0, 0.0, 0.001)"
1637149248211957509, 9885, 1636513054, 802074909, base_link, -0.00594963901226, -0.0143297925553, -0.999851827953, -0.00745526521701, "(0.0002226800509636008, 0.0, 0.0, 0.0, 0.0002213078624458166, 0.0, 0.0, 0.0, 0.015821789533593034)", -0.00953093862813, 0.00157369844062, 0.00207286225185, "(0.001, 0.0, 0.0, 0.0, 0.001, 0.0, 0.0, 0.0, 0.001)", 0.409374643709, 1.10940780104, -0.0219610274177, "(0.001, 0.0, 0.0, 0.0, 0.001, 0.0, 0.0, 0.0, 0.001)"
1637149248231448039, 9886, 1636513054, 821650981, base_link, -0.00592999649943, -0.0142801370433, -0.999852726483, -0.00744568137694, "(0.0002226800509636008, 0.0, 0.0, 0.0, 0.0002213078624458166, 0.0, 0.0, 0.0, 0.015821789533593034)", -0.00757104259918, 0.0027539552137, 0.00156536708454, "(0.001, 0.0, 0.0, 0.0, 0.001, 0.0, 0.0, 0.0, 0.001)", -0.0922522209029, 0.733284353555, 0.105363901295, "(0.001, 0.0, 0.0, 0.0, 0.001, 0.0, 0.0, 0.0, 0.001)"
1637149248251822627, 9887, 1636513054, 841998100, base_link, -0.00592135731513, -0.0142229554777, -0.999853828781, -0.00741391509394, "(0.0002226800509636008, 0.0, 0.0, 0.0, 0.0002213078624458166, 0.0, 0.0, 0.0, 0.015821789533593034)", -0.0126126460892, 0.00292827461801, 0.0053947931811, "(0.001, 0.0, 0.0, 0.0, 0.001, 0.0, 0.0, 0.0, 0.001)", 0.271949707051, 1.03927652281, 0.00262972289117, "(0.001, 0.0, 0.0, 0.0, 0.001, 0.0, 0.0, 0.0, 0.001)"
1637149248270783559, 9888, 1636513054, 860830068, base_link, -0.00590161748587, -0.0141639060089, -0.999854917093, -0.00739590709383, "(0.0002226800509636008, 0.0, 0.0, 0.0, 0.0002213078624458166, 0.0, 0.0, 0.0, 0.015821789533593034)", -0.00898456310649, 0.00271153655962, 0.00331116183572, "(0.001, 0.0, 0.0, 0.0, 0.001, 0.0, 0.0, 0.0, 0.001)", -0.0606298694611, 0.681171569162, -0.0290701377768, "(0.001, 0.0, 0.0, 0.0, 0.001, 0.0, 0.0, 0.0, 0.001)"
1637149248290957374, 9889, 1636513054, 881225109, base_link, -0.00587760239712, -0.0141165018908, -0.999855927432, -0.00736902592092, "(0.0002226800509636008, 0.0, 0.0, 0.0, 0.0002213078624458166, 0.0, 0.0, 0.0, 0.015821789533593034)", -0.0123315872959, 0.00491061439332, 0.00600763156346, "(0.001, 0.0, 0.0, 0.0, 0.001, 0.0, 0.0, 0.0, 0.001)", 0.124060635696, 0.919539297299, 0.0716427801131, "(0.001, 0.0, 0.0, 0.0, 0.001, 0.0, 0.0, 0.0, 0.001)"
1637149248310922161, 9890, 1636513054, 901128053, base_link, -0.00586717473121, -0.0140601253661, -0.999856983311, -0.00734180224195, "(0.0002226800509636008, 0.0, 0.0, 0.0, 0.0002213078624458166, 0.0, 0.0, 0.0, 0.015821789533593034)", -0.00893156177735, 0.00247518612816, 0.00386177734319, "(0.001, 0.0, 0.0, 0.0, 0.001, 0.0, 0.0, 0.0, 0.001)", -0.0450569333406, 0.613846133932, -0.148898650945, "(0.001, 0.0, 0.0, 0.0, 0.001, 0.0, 0.0, 0.0, 0.001)"
1637149248330667711, 9891, 1636513054, 920622110, base_link, -0.00583549448564, -0.0140207467718, -0.999857924528, -0.00731412482686, "(0.0002226800509636008, 0.0, 0.0, 0.0, 0.0002213078624458166, 0.0, 0.0, 0.0, 0.015821789533593034)", -0.0109179368088, 0.00528702170545, 0.00687191146431, "(0.001, 0.0, 0.0, 0.0, 0.001, 0.0, 0.0, 0.0, 0.001)", 0.0602914855646, 0.936723525604, 0.123736797134, "(0.001, 0.0, 0.0, 0.0, 0.001, 0.0, 0.0, 0.0, 0.001)"
1637149248350906855, 9892, 1636513054, 941134929, base_link, -0.00582225047169, -0.0139701479336, -0.999858866747, -0.00729266438448, "(0.0002226800509636008, 0.0, 0.0, 0.0, 0.0002213078624458166, 0.0, 0.0, 0.0, 0.015821789533593034)", -0.00785553361641, 0.00331847678681, 0.00347028201952, "(0.001, 0.0, 0.0, 0.0, 0.001, 0.0, 0.0, 0.0, 0.001)", -0.125169604811, 0.594493547705, -0.267750289422, "(0.001, 0.0, 0.0, 0.0, 0.001, 0.0, 0.0, 0.0, 0.001)"
1637149248372613778, 9893, 1636513054, 961406946, base_link, -0.00579382148889, -0.0139443839261, -0.999859549489, -0.00727097558685, "(0.0002226800509636008, 0.0, 0.0, 0.0, 0.0002213078624458166, 0.0, 0.0, 0.0, 0.015821789533593034)", -0.00877659954527, 0.00514884681768, 0.00581708863688, "(0.001, 0.0, 0.0, 0.0, 0.001, 0.0, 0.0, 0.0, 0.001)", 0.00998471655212, 0.765483475817, 0.1867840178, "(0.001, 0.0, 0.0, 0.0, 0.001, 0.0, 0.0, 0.0, 0.001)"
1637149248390441231, 9894, 1636513054, 980695009, base_link, -0.00578682146338, -0.0139048058873, -0.999860276043, -0.00725241069705, "(0.0002226800509636008, 0.0, 0.0, 0.0, 0.0002213078624458166, 0.0, 0.0, 0.0, 0.015821789533593034)", -0.00609888563746, 0.00276979326488, 0.00281784725981, "(0.001, 0.0, 0.0, 0.0, 0.001, 0.0, 0.0, 0.0, 0.001)", -0.0746156106783, 0.704440324946, -0.328823156791, "(0.001, 0.0, 0.0, 0.0, 0.001, 0.0, 0.0, 0.0, 0.001)"
1637149248410310549, 9895, 1636513055, 531911, base_link, -0.0057608492328, -0.0139008140676, -0.999860598799, -0.00723622507918, "(0.0002226800509636008, 0.0, 0.0, 0.0, 0.0002213078624458166, 0.0, 0.0, 0.0, 0.015821789533593034)", -0.00456934946266, 0.00385480038039, 0.00446305241847, "(0.001, 0.0, 0.0, 0.0, 0.001, 0.0, 0.0, 0.0, 0.001)", -0.0293850632032, 0.882861568035, 0.158122713972, "(0.001, 0.0, 0.0, 0.0, 0.001, 0.0, 0.0, 0.0, 0.001)"
1637149248432186425, 9896, 1636513055, 21984100, base_link, -0.00574186731774, -0.0138732085335, -0.999861205269, -0.00722047387191, "(0.0002226800509636008, 0.0, 0.0, 0.0, 0.0002213078624458166, 0.0, 0.0, 0.0, 0.015821789533593034)", -0.00390260938257, 0.00372974284928, 0.00230347036397, "(0.001, 0.0, 0.0, 0.0, 0.001, 0.0, 0.0, 0.0, 0.001)", 0.0308284265825, 0.649377100243, -0.449565284612, "(0.001, 0.0, 0.0, 0.0, 0.001, 0.0, 0.0, 0.0, 0.001)"
1637149248450388970, 9897, 1636513055, 40501117, base_link, -0.00572236434942, -0.0138826335501, -0.999861328939, -0.00720068914409, "(0.0002226800509636008, 0.0, 0.0, 0.0, 0.0002213078624458166, 0.0, 0.0, 0.0, 0.015821789533593034)", -0.000760641798464, 0.00497361002612, 0.00463697627689, "(0.001, 0.0, 0.0, 0.0, 0.001, 0.0, 0.0, 0.0, 0.001)", -0.295775921549, 0.860571654316, 0.198000470806, "(0.001, 0.0, 0.0, 0.0, 0.001, 0.0, 0.0, 0.0, 0.001)"
1637149248470987142, 9898, 1636513055, 61204910, base_link, -0.00573481022751, -0.013893818466, -0.999861172924, -0.00719087191628, "(0.0002226800509636008, 0.0, 0.0, 0.0, 0.0002213078624458166, 0.0, 0.0, 0.0, 0.015821789533593034)", 0.000469484254823, 5.80119823889e-05, 0.00187192603643, "(0.001, 0.0, 0.0, 0.0, 0.001, 0.0, 0.0, 0.0, 0.001)", -0.00347246456156, 0.691630655831, -0.480649597389, "(0.001, 0.0, 0.0, 0.0, 0.001, 0.0, 0.0, 0.0, 0.001)"
1637149248491180355, 9899, 1636513055, 81291913, base_link, -0.00574297652251, -0.0138905864876, -0.999861300564, -0.00717282806123, "(0.0002226800509636008, 0.0, 0.0, 0.0, 0.0002213078624458166, 0.0, 0.0, 0.0, 0.015821789533593034)", 0.0011214434526, -0.00103501976978, 0.00374302575695, "(0.001, 0.0, 0.0, 0.0, 0.001, 0.0, 0.0, 0.0, 0.001)", -0.402897697188, 0.892123993188, 0.258978466504, "(0.001, 0.0, 0.0, 0.0, 0.001, 0.0, 0.0, 0.0, 0.001)"
1637149248510691054, 9900, 1636513055, 100917100, base_link, -0.00579227893223, -0.0139072395008, -0.999860899577, -0.00715679340901, "(0.0002226800509636008, 0.0, 0.0, 0.0, 0.0002213078624458166, 0.0, 0.0, 0.0, 0.015821789533593034)", 0.00104980943662, -0.00511558714634, 0.00263563222155, "(0.001, 0.0, 0.0, 0.0, 0.001, 0.0, 0.0, 0.0, 0.001)", -0.014953780827, 0.659720710353, -0.42485581108, "(0.001, 0.0, 0.0, 0.0, 0.001, 0.0, 0.0, 0.0, 0.001)"
1637149248530396790, 9901, 1636513055, 120573997, base_link, -0.00582680954333, -0.0139104644994, -0.99986074865, -0.00714356890773, "(0.0002226800509636008, 0.0, 0.0, 0.0, 0.0002213078624458166, 0.0, 0.0, 0.0, 0.015821789533593034)", 0.00226696051503, -0.00882738968572, 0.00354788174264, "(0.001, 0.0, 0.0, 0.0, 0.001, 0.0, 0.0, 0.0, 0.001)", -0.332159121321, 1.10463494867, 0.445463678068, "(0.001, 0.0, 0.0, 0.0, 0.001, 0.0, 0.0, 0.0, 0.001)"
1637149248553441686, 9902, 1636513055, 141855001, base_link, -0.00588287088541, -0.0139183448087, -0.99986051567, -0.00711482333684, "(0.0002226800509636008, 0.0, 0.0, 0.0, 0.0002213078624458166, 0.0, 0.0, 0.0, 0.015821789533593034)", 0.000441619983255, -0.00773801588479, 0.00370974192859, "(0.001, 0.0, 0.0, 0.0, 0.001, 0.0, 0.0, 0.0, 0.001)", 0.0821139640616, 0.755969610864, -0.381792616162, "(0.001, 0.0, 0.0, 0.0, 0.001, 0.0, 0.0, 0.0, 0.001)"
1637149248570348042, 9903, 1636513055, 160527944, base_link, -0.00590570454163, -0.0139054169767, -0.999860677007, -0.00709849337737, "(0.0002226800509636008, 0.0, 0.0, 0.0, 0.0002213078624458166, 0.0, 0.0, 0.0, 0.015821789533593034)", -8.42558649993e-05, -0.00835238010625, 0.0052051736903, "(0.001, 0.0, 0.0, 0.0, 0.001, 0.0, 0.0, 0.0, 0.001)", -0.148366677274, 0.975234272349, 0.357754302353, "(0.001, 0.0, 0.0, 0.0, 0.001, 0.0, 0.0, 0.0, 0.001)"
1637149248590693834, 9904, 1636513055, 180854082, base_link, -0.00594678068737, -0.0139145324426, -0.999860529943, -0.00706698301401, "(0.0002226800509636008, 0.0, 0.0, 0.0, 0.0002213078624458166, 0.0, 0.0, 0.0, 0.015821789533593034)", -3.85075716919e-05, -0.00600878613751, 0.00405640217633, "(0.001, 0.0, 0.0, 0.0, 0.001, 0.0, 0.0, 0.0, 0.001)", 0.172974072663, 0.717123337627, -0.415303743415, "(0.001, 0.0, 0.0, 0.0, 0.001, 0.0, 0.0, 0.0, 0.001)"
1637149248610350454, 9905, 1636513055, 200613975, base_link, -0.00596531009192, -0.0138961287141, -0.999860888526, -0.0070367803508, "(0.0002226800509636008, 0.0, 0.0, 0.0, 0.0002213078624458166, 0.0, 0.0, 0.0, 0.015821789533593034)", -0.00153451070284, -0.00632388905268, 0.00698895365954, "(0.001, 0.0, 0.0, 0.0, 0.001, 0.0, 0.0, 0.0, 0.001)", -0.0604971002954, 0.915596136588, 0.264829717445, "(0.001, 0.0, 0.0, 0.0, 0.001, 0.0, 0.0, 0.0, 0.001)"
1637149248633100791, 9906, 1636513055, 223284006, base_link, -0.00600214316511, -0.0139021250052, -0.999860878015, -0.00699498489886, "(0.0002226800509636008, 0.0, 0.0, 0.0, 0.0002213078624458166, 0.0, 0.0, 0.0, 0.015821789533593034)", 2.37535384595e-05, -0.00512096684409, 0.00603600296775, "(0.001, 0.0, 0.0, 0.0, 0.001, 0.0, 0.0, 0.0, 0.001)", 0.220139691807, 0.67737569105, -0.366839158315, "(0.001, 0.0, 0.0, 0.0, 0.001, 0.0, 0.0, 0.0, 0.001)"
1637149248650615491, 9907, 1636513055, 240789890, base_link, -0.00602853834121, -0.0138840443189, -0.999861253215, -0.006954448735, "(0.0002226800509636008, 0.0, 0.0, 0.0, 0.0002213078624458166, 0.0, 0.0, 0.0, 0.015821789533593034)", -0.00199196868329, -0.00690707773307, 0.0094461559065, "(0.001, 0.0, 0.0, 0.0, 0.001, 0.0, 0.0, 0.0, 0.001)", -0.0316493619973, 1.03314253588, 0.238357463479, "(0.001, 0.0, 0.0, 0.0, 0.001, 0.0, 0.0, 0.0, 0.001)"
1637149248671866204, 9908, 1636513055, 262147903, base_link, -0.0060789698145, -0.0138750262806, -0.999861438603, -0.00690169304389, "(0.0002226800509636008, 0.0, 0.0, 0.0, 0.0002213078624458166, 0.0, 0.0, 0.0, 0.015821789533593034)", -0.00154725136802, -0.0068181718565, 0.00785151731603, "(0.001, 0.0, 0.0, 0.0, 0.001, 0.0, 0.0, 0.0, 0.001)", 0.229145759051, 0.690934002374, -0.22316242647, "(0.001, 0.0, 0.0, 0.0, 0.001, 0.0, 0.0, 0.0, 0.001)"
1637149248690001644, 9909, 1636513055, 280209064, base_link, -0.00610752938014, -0.0138503144371, -0.999861967634, -0.00684927404379, "(0.0002226800509636008, 0.0, 0.0, 0.0, 0.0002213078624458166, 0.0, 0.0, 0.0, 0.015821789533593034)", -0.00376769823869, -0.00798765022256, 0.0123817091718, "(0.001, 0.0, 0.0, 0.0, 0.001, 0.0, 0.0, 0.0, 0.001)", 0.130691723728, 1.07803584715, 0.157064417566, "(0.001, 0.0, 0.0, 0.0, 0.001, 0.0, 0.0, 0.0, 0.001)"
1637149248720364680, 9910, 1636513055, 305474042, base_link, -0.00613158870465, -0.0138401379211, -0.999862391551, -0.00678617446961, "(0.0002226800509636008, 0.0, 0.0, 0.0, 0.0002213078624458166, 0.0, 0.0, 0.0, 0.015821789533593034)", -0.00261784961785, -0.00473599944392, 0.00939150798099, "(0.001, 0.0, 0.0, 0.0, 0.001, 0.0, 0.0, 0.0, 0.001)", 0.308158507927, 0.757655743055, -0.0491227973852, "(0.001, 0.0, 0.0, 0.0, 0.001, 0.0, 0.0, 0.0, 0.001)"
1637149248733131824, 9911, 1636513055, 323369979, base_link, -0.00613565740426, -0.0138019792549, -0.999863179349, -0.00674400915701, "(0.0006036566807952198, 0.0, 0.0, 0.0, 0.0006023059312144086, 0.0, 0.0, 0.0, 0.016243552953697282)", -0.00608257961256, -0.00332207778876, 0.012295310728, "(0.001, 0.0, 0.0, 0.0, 0.001, 0.0, 0.0, 0.0, 0.001)", 0.0602300184367, 1.02480259467, 0.149913870448, "(0.001, 0.0, 0.0, 0.0, 0.001, 0.0, 0.0, 0.0, 0.001)"
1637149248750933992, 9912, 1636513055, 341145992, base_link, -0.00615561841108, -0.0137930327425, -0.999863467609, -0.00670124990235, "(0.0006034762005913269, 0.0, 0.0, 0.0, 0.0006020845183185713, 0.0, 0.0, 0.0, 0.01624324529189125)", -0.00277887931235, -0.00279954317777, 0.00724951287738, "(0.001, 0.0, 0.0, 0.0, 0.001, 0.0, 0.0, 0.0, 0.001)", 0.139268384019, 0.642128842758, 0.0468571536388, "(0.001, 0.0, 0.0, 0.0, 0.001, 0.0, 0.0, 0.0, 0.001)"
1637149248771898376, 9913, 1636513055, 362000942, base_link, -0.00616492011682, -0.0137409615445, -0.99986429873, -0.00667561689182, "(0.0006034762005913269, 0.0, 0.0, 0.0, 0.0006020845183185713, 0.0, 0.0, 0.0, 0.01624324529189125)", -0.00848378600886, -0.0029354072361, 0.00832608736744, "(0.001, 0.0, 0.0, 0.0, 0.001, 0.0, 0.0, 0.0, 0.001)", -0.0504572459253, 1.03212152937, 0.0957848631893, "(0.001, 0.0, 0.0, 0.0, 0.001, 0.0, 0.0, 0.0, 0.001)"
1637149248794274011, 9914, 1636513055, 384408950, base_link, -0.00614431361493, -0.0136996711944, -0.99986512016, -0.00665641852525, "(0.0006034762005913269, 0.0, 0.0, 0.0, 0.0006020845183185713, 0.0, 0.0, 0.0, 0.01624324529189125)", -0.00631032638755, 0.000845480182509, 0.00392511672303, "(0.001, 0.0, 0.0, 0.0, 0.001, 0.0, 0.0, 0.0, 0.001)", 0.332255728017, 0.678628659413, 0.134628297068, "(0.001, 0.0, 0.0, 0.0, 0.001, 0.0, 0.0, 0.0, 0.001)"
1637149248810267448, 9915, 1636513055, 400563001, base_link, -0.00610290632376, -0.0136453535775, -0.999866141536, -0.00665265891755, "(0.0006034762005913269, 0.0, 0.0, 0.0, 0.0006020845183185713, 0.0, 0.0, 0.0, 0.01624324529189125)", -0.0112025271, 0.00726366021021, 0.00301669442454, "(0.001, 0.0, 0.0, 0.0, 0.001, 0.0, 0.0, 0.0, 0.001)", -0.0111172846976, 1.04508999572, -0.0519170369544, "(0.001, 0.0, 0.0, 0.0, 0.001, 0.0, 0.0, 0.0, 0.001)"
1637149248831446653, 9916, 1636513055, 421389102, base_link, -0.00604936021834, -0.0136044887634, -0.999867036379, -0.00665076606253, "(0.0006034762005913269, 0.0, 0.0, 0.0, 0.0006020845183185713, 0.0, 0.0, 0.0, 0.01624324529189125)", -0.00756193732189, 0.00638324732606, 0.000733308248219, "(0.001, 0.0, 0.0, 0.0, 0.001, 0.0, 0.0, 0.0, 0.001)", 0.384011397402, 0.607081176631, 0.186369866149, "(0.001, 0.0, 0.0, 0.0, 0.001, 0.0, 0.0, 0.0, 0.001)"
