time , .header.id , .header.msg_type , .header.port_addr , .header.length , .header.sequence , .header.idle_time , .header.time_status , .header.gps_week , .header.gps_week_seconds , .header.receiver_status , .header.reserved , .header.software_version , .ins_status , .position_type , .latitude , .longitude , .altitude , .undulation , .north_velocity , .east_velocity , .up_velocity , .roll , .pitch , .azimuth , .latitude_std , .longitude_std , .altitude_std , .north_velocity_std , .east_velocity_std , .up_velocity_std , .roll_std , .pitch_std , .azimuth_std , .extended_status , .seconds_since_update
1605412501908669949 , 1465 , 0 , 160 , 126 , 0 , 91 , 180 , 2130 , 378183280 , 33554432 , 18205 , 15990 , 3 , 53 , 40.0067617027 , 116.328199796 , 52.0608696388 , -9.69999980927 , 1.23140944539 , 0.321275660583 , 0.0268615151694 , -0.602993472939 , 1.23784143593 , 14.666512401 , 0.528386831284 , 0.492392778397 , 1.05502355099 , 0.0313912332058 , 0.0258361864835 , 0.0333590134978 , 0.0501354038715 , 0.0528089143336 , 0.0765591189265 , 251660754 , 0
1605412501945228032 , 1465 , 0 , 160 , 126 , 0 , 91 , 180 , 2130 , 378183300 , 33554432 , 18205 , 15990 , 3 , 53 , 40.0067619251 , 116.328199872 , 52.0613523778 , -9.69999980927 , 1.2336311528 , 0.329328528492 , 0.0277494822598 , -0.59828850856 , 1.2361555068 , 14.6521356037 , 0.528386831284 , 0.492392778397 , 1.05502355099 , 0.0313912332058 , 0.0258361864835 , 0.0333590134978 , 0.0501354038715 , 0.0528089143336 , 0.0765591189265 , 251660754 , 0
1605412501983962209 , 1465 , 0 , 160 , 126 , 0 , 91 , 180 , 2130 , 378183320 , 33554432 , 18205 , 15990 , 3 , 53 , 40.0067621477 , 116.328199948 , 52.0618306035 , -9.69999980927 , 1.23545405428 , 0.316780423514 , 0.0299458849236 , -0.59117892033 , 1.23300863118 , 14.6358793426 , 0.528386831284 , 0.492392778397 , 1.05502355099 , 0.0313912332058 , 0.0258361864835 , 0.0333590134978 , 0.0501354038715 , 0.0528089143336 , 0.0765591189265 , 251660754 , 0
1605412502022310863 , 1465 , 0 , 160 , 126 , 0 , 91 , 180 , 2130 , 378183340 , 33554432 , 18205 , 15990 , 3 , 53 , 40.0067623708 , 116.328200024 , 52.0623274446 , -9.69999980927 , 1.23948853932 , 0.324574702644 , 0.0275320409229 , -0.588994461974 , 1.22808139839 , 14.6211791781 , 0.528386831284 , 0.492392778397 , 1.05502355099 , 0.0313912332058 , 0.0258361864835 , 0.0333590134978 , 0.0501354038715 , 0.0528089143336 , 0.0765591189265 , 251660754 , 0
1605412502060570858 , 1465 , 0 , 160 , 126 , 0 , 91 , 180 , 2130 , 378183360 , 33554432 , 18205 , 15990 , 3 , 53 , 40.0067625948 , 116.328200097 , 52.0628972389 , -9.69999980927 , 1.24191012604 , 0.309889862189 , 0.0336670769995 , -0.589416885654 , 1.22525756634 , 14.6068376778 , 0.528386831284 , 0.492392778397 , 1.05502355099 , 0.0313912332058 , 0.0258361864835 , 0.0333590134978 , 0.0501354038715 , 0.0528089143336 , 0.0765591189265 , 251660754 , 0
1605412502106057927 , 1465 , 0 , 160 , 126 , 0 , 91 , 180 , 2130 , 378183380 , 33554432 , 18205 , 15990 , 3 , 53 , 40.0067628186 , 116.328200171 , 52.0633687889 , -9.69999980927 , 1.2414004419 , 0.315476203043 , 0.0254296167089 , -0.592286256223 , 1.22261466745 , 14.5917079913 , 0.528386831284 , 0.492392778397 , 1.05502355099 , 0.0313912332058 , 0.0258361864835 , 0.0333590134978 , 0.0501354038715 , 0.0528089143336 , 0.0765591189265 , 251660754 , 0
1605412502143207481 , 1465 , 0 , 160 , 126 , 0 , 91 , 180 , 2130 , 378183400 , 33554432 , 18205 , 15990 , 3 , 53 , 40.0067630431 , 116.328200243 , 52.0639018854 , -9.69999980927 , 1.24478671421 , 0.306458591119 , 0.029425258694 , -0.597421748625 , 1.22401376308 , 14.5785857785 , 0.528386831284 , 0.492392778397 , 1.05502355099 , 0.0313912332058 , 0.0258361864835 , 0.0333590134978 , 0.0501354038715 , 0.0528089143336 , 0.0765591189265 , 251660754 , 0
1605412502182401170 , 1465 , 0 , 160 , 126 , 0 , 91 , 180 , 2130 , 378183420 , 33554432 , 18205 , 15990 , 3 , 53 , 40.0067632673 , 116.328200315 , 52.0643418292 , -9.69999980927 , 1.2433230456 , 0.307307659832 , 0.0242576409249 , -0.601326722467 , 1.22371914533 , 14.5625055024 , 0.528386831284 , 0.492392778397 , 1.05502355099 , 0.0313912332058 , 0.0258361864835 , 0.0333590134978 , 0.0501354038715 , 0.0528089143336 , 0.0765591189265 , 251660754 , 0
1605412502220669147 , 1465 , 0 , 160 , 126 , 0 , 91 , 180 , 2130 , 378183440 , 33554432 , 18205 , 15990 , 3 , 53 , 40.0067634927 , 116.328200386 , 52.0647846051 , -9.69999980927 , 1.25236861186 , 0.301827847958 , 0.0235287691545 , -0.61271776685 , 1.22521398528 , 14.5461071764 , 0.528386831284 , 0.492392778397 , 1.05502355099 , 0.0313912332058 , 0.0258361864835 , 0.0333590134978 , 0.0501354038715 , 0.0528089143336 , 0.0765591189265 , 251660754 , 0
1605412502261814244 , 1465 , 0 , 160 , 126 , 0 , 91 , 180 , 2130 , 378183460 , 33554432 , 18205 , 15990 , 3 , 53 , 40.0067637189 , 116.328200456 , 52.0652181823 , -9.69999980927 , 1.2565632773 , 0.295313045318 , 0.0252325543498 , -0.624953517592 , 1.22708135516 , 14.5287292953 , 0.528386831284 , 0.492392778397 , 1.05502355099 , 0.0313912332058 , 0.0258361864835 , 0.0333590134978 , 0.0501354038715 , 0.0528089143336 , 0.0765591189265 , 251660754 , 0
1605412502300732694 , 1465 , 0 , 160 , 126 , 0 , 91 , 180 , 2130 , 378183480 , 33554432 , 18205 , 15990 , 3 , 53 , 40.0067639453 , 116.328200527 , 52.0655786805 , -9.69999980927 , 1.25632951445 , 0.306624327147 , 0.0192649872284 , -0.638574097211 , 1.22809622802 , 14.5102238035 , 0.528386831284 , 0.492392778397 , 1.05502355099 , 0.0313912332058 , 0.0258361864835 , 0.0333590134978 , 0.0501354038715 , 0.0528089143336 , 0.0765591189265 , 251660754 , 0
1605412502346882324 , 1465 , 0 , 160 , 126 , 0 , 91 , 180 , 2130 , 378183500 , 33554432 , 18205 , 15990 , 3 , 53 , 40.006764172 , 116.328200598 , 52.0659780866 , -9.69999980927 , 1.25809602678 , 0.302669542806 , 0.0234571299434 , -0.643424017182 , 1.23268987597 , 14.4890635829 , 0.528386831284 , 0.492392778397 , 1.05502355099 , 0.0313912332058 , 0.0258361864835 , 0.0333590134978 , 0.0501354038715 , 0.0528089143336 , 0.0765591189265 , 251660754 , 0
1605412502381149835 , 1465 , 0 , 160 , 126 , 0 , 91 , 180 , 2130 , 378183520 , 33554432 , 18205 , 15990 , 3 , 53 , 40.0067643991 , 116.32820067 , 52.0662083784 , -9.69999980927 , 1.25980366622 , 0.311385753923 , 0.0145632109136 , -0.648110622712 , 1.23833178616 , 14.4653481605 , 0.528386831284 , 0.492392778397 , 1.05502355099 , 0.0313912332058 , 0.0258361864835 , 0.0333590134978 , 0.0501354038715 , 0.0528089143336 , 0.0765591189265 , 251660754 , 0
1605412502422392832 , 1465 , 0 , 160 , 126 , 0 , 91 , 180 , 2130 , 378183540 , 33554432 , 18205 , 15990 , 3 , 53 , 40.0067646266 , 116.328200742 , 52.0665605105 , -9.69999980927 , 1.26332039854 , 0.303338343262 , 0.022091615798 , -0.651614060737 , 1.24538872975 , 14.4419094482 , 0.528386831284 , 0.492392778397 , 1.05502355099 , 0.0313912332058 , 0.0258361864835 , 0.0333590134978 , 0.0501354038715 , 0.0528089143336 , 0.0765591189265 , 251660754 , 0
1605412502464236164 , 1465 , 0 , 160 , 126 , 0 , 91 , 180 , 2130 , 378183560 , 33554432 , 18205 , 15990 , 3 , 53 , 40.0067648545 , 116.328200815 , 52.0667267404 , -9.69999980927 , 1.2647909411 , 0.314741180128 , 0.0134331894419 , -0.655922018589 , 1.25070839267 , 14.4136039039 , 0.528386831284 , 0.492392778397 , 1.05502355099 , 0.0313912332058 , 0.0258361864835 , 0.0333590134978 , 0.0501354038715 , 0.0528089143336 , 0.0765591189265 , 251660754 , 0
1605412502504711189 , 1465 , 0 , 160 , 126 , 0 , 91 , 180 , 2130 , 378183580 , 33554432 , 18205 , 15990 , 3 , 53 , 40.0067650831 , 116.328200888 , 52.0670120539 , -9.69999980927 , 1.26960184961 , 0.31095484371 , 0.0175095543233 , -0.659007337871 , 1.25883993897 , 14.3877303973 , 0.528386831284 , 0.492392778397 , 1.05502355099 , 0.0313912332058 , 0.0258361864835 , 0.0333590134978 , 0.0501354038715 , 0.0528089143336 , 0.0765591189265 , 251660754 , 0
1605412502546797026 , 1465 , 0 , 160 , 126 , 0 , 91 , 180 , 2130 , 378183600 , 33554432 , 18205 , 15990 , 3 , 53 , 40.0067653123 , 116.328200962 , 52.0671634693 , -9.69999980927 , 1.27228658296 , 0.311394094257 , 0.0136739685201 , -0.660992610627 , 1.26652502841 , 14.3586903051 , 0.528386831284 , 0.492392778397 , 1.05502355099 , 0.0313912332058 , 0.0258361864835 , 0.0333590134978 , 0.0501354038715 , 0.0528089143336 , 0.0765591189265 , 251660754 , 0
1605412502581788203 , 1465 , 0 , 160 , 126 , 0 , 91 , 180 , 2130 , 378183620 , 33554432 , 18205 , 15990 , 3 , 53 , 40.0067655419 , 116.328201035 , 52.0673842458 , -9.69999980927 , 1.27559601024 , 0.312155722177 , 0.0131109270347 , -0.666791030842 , 1.2727105181 , 14.3318124848 , 0.528386831284 , 0.492392778397 , 1.05502355099 , 0.0313912332058 , 0.0258361864835 , 0.0333590134978 , 0.0501354038715 , 0.0528089143336 , 0.0765591189265 , 251660754 , 0
1605412502623697764 , 1465 , 0 , 160 , 126 , 0 , 91 , 180 , 2130 , 378183640 , 33554432 , 18205 , 15990 , 3 , 53 , 40.0067657724 , 116.328201108 , 52.0675473362 , -9.69999980927 , 1.27970009176 , 0.307797061458 , 0.0147120373696 , -0.670627063892 , 1.28098048536 , 14.3046892907 , 0.528386831284 , 0.492392778397 , 1.05502355099 , 0.0313912332058 , 0.0258361864835 , 0.0333590134978 , 0.0501354038715 , 0.0528089143336 , 0.0765591189265 , 251660754 , 0
1605412502665070302 , 1465 , 0 , 160 , 126 , 0 , 91 , 180 , 2130 , 378183660 , 33554432 , 18205 , 15990 , 3 , 53 , 40.0067660034 , 116.328201182 , 52.0677318405 , -9.69999980927 , 1.28270293619 , 0.31419667367 , 0.0114396558488 , -0.676693106172 , 1.290370272 , 14.2785939131 , 0.528386831284 , 0.492392778397 , 1.05502355099 , 0.0313912332058 , 0.0258361864835 , 0.0333590134978 , 0.0501354038715 , 0.0528089143336 , 0.0765591189265 , 251660754 , 0
1605412502700860650 , 1465 , 0 , 160 , 126 , 0 , 91 , 180 , 2130 , 378183680 , 33554432 , 18205 , 15990 , 3 , 53 , 40.006766236 , 116.328201254 , 52.0679642772 , -9.69999980927 , 1.29244051928 , 0.30459305741 , 0.0187779531249 , -0.68055536803 , 1.29675534704 , 14.2535218384 , 0.528386831284 , 0.492392778397 , 1.05502355099 , 0.0313912332058 , 0.0258361864835 , 0.0333590134978 , 0.0501354038715 , 0.0528089143336 , 0.0765591189265 , 251660754 , 0
1605412502748502329 , 1465 , 0 , 160 , 126 , 0 , 91 , 180 , 2130 , 378183700 , 33554432 , 18205 , 15990 , 3 , 53 , 40.0067664695 , 116.328201327 , 52.0681977393 , -9.69999980927 , 1.29785475314 , 0.313921201151 , 0.0147681573622 , -0.686033612603 , 1.30183767773 , 14.228243931 , 0.528386831284 , 0.492392778397 , 1.05502355099 , 0.0313912332058 , 0.0258361864835 , 0.0333590134978 , 0.0501354038715 , 0.0528089143336 , 0.0765591189265 , 251660754 , 0
1605412502783709227 , 1465 , 0 , 160 , 126 , 0 , 91 , 180 , 2130 , 378183720 , 33554432 , 18205 , 15990 , 3 , 53 , 40.0067667036 , 116.328201399 , 52.0685444204 , -9.69999980927 , 1.2995385724 , 0.306141566372 , 0.0219264455967 , -0.691182942669 , 1.30390950838 , 14.2038334053 , 0.528386831284 , 0.492392778397 , 1.05502355099 , 0.0313912332058 , 0.0258361864835 , 0.0333590134978 , 0.0501354038715 , 0.0528089143336 , 0.0765591189265 , 251660754 , 0
1605412502821413133 , 1465 , 0 , 160 , 126 , 0 , 91 , 180 , 2130 , 378183740 , 33554432 , 18205 , 15990 , 3 , 53 , 40.0067669379 , 116.328201472 , 52.0689091003 , -9.69999980927 , 1.30068378889 , 0.313988555823 , 0.0218781426285 , -0.693774249044 , 1.30504152539 , 14.1775083353 , 0.528386831284 , 0.492392778397 , 1.05502355099 , 0.0313912332058 , 0.0258361864835 , 0.0333590134978 , 0.0501354038715 , 0.0528089143336 , 0.0765591189265 , 251660754 , 0
1605412502861220157 , 1465 , 0 , 160 , 126 , 0 , 91 , 180 , 2130 , 378183760 , 33554432 , 18205 , 15990 , 3 , 53 , 40.0067671733 , 116.328201544 , 52.0693739671 , -9.69999980927 , 1.30574623905 , 0.310372599427 , 0.0275042119801 , -0.697008638467 , 1.30721203994 , 14.1523904072 , 0.528386831284 , 0.492392778397 , 1.05502355099 , 0.0313912332058 , 0.0258361864835 , 0.0333590134978 , 0.0501354038715 , 0.0528089143336 , 0.0765591189265 , 251660754 , 0
1605412502905281551 , 1465 , 0 , 160 , 126 , 0 , 91 , 180 , 2130 , 378183780 , 33554432 , 18205 , 15990 , 3 , 53 , 40.0067674091 , 116.328201617 , 52.069880629 , -9.69999980927 , 1.31000818851 , 0.309048956167 , 0.0302563325803 , -0.697340197385 , 1.30813693322 , 14.1250301297 , 0.528386831284 , 0.492392778397 , 1.05502355099 , 0.0313912332058 , 0.0258361864835 , 0.0333590134978 , 0.0501354038715 , 0.0528089143336 , 0.0765591189265 , 251660754 , 0
1605412502944942778 , 1465 , 0 , 160 , 126 , 0 , 91 , 180 , 2130 , 378183800 , 33554432 , 18205 , 15990 , 3 , 53 , 40.0067676462 , 116.328201689 , 52.0704577789 , -9.69999980927 , 1.31598386874 , 0.310251627464 , 0.0328108987544 , -0.705802612039 , 1.30579923981 , 14.0971785219 , 0.528386890888 , 0.492392778397 , 1.05502355099 , 0.0313912332058 , 0.0258361864835 , 0.0333590134978 , 0.0501354038715 , 0.0528089143336 , 0.0765591189265 , 251660754 , 0
1605412502982398557 , 1465 , 0 , 160 , 126 , 0 , 91 , 180 , 2130 , 378183820 , 33554432 , 18205 , 15990 , 3 , 53 , 40.0067678831 , 116.328201761 , 52.0711021349 , -9.69999980927 , 1.31452030463 , 0.305727301609 , 0.0371935433192 , -0.710364578577 , 1.30481701042 , 14.0666215555 , 0.528386890888 , 0.492392778397 , 1.05502355099 , 0.0313912332058 , 0.0258361864835 , 0.0333590134978 , 0.0501354038715 , 0.0528089143336 , 0.0765591189265 , 251660754 , 0
1605412503021020408 , 1465 , 0 , 160 , 126 , 0 , 91 , 180 , 2130 , 378183840 , 33554432 , 18205 , 15990 , 3 , 53 , 40.0067681209 , 116.328201834 , 52.0717216861 , -9.69999980927 , 1.32045660251 , 0.310339468487 , 0.0348668051732 , -0.717542299884 , 1.30260772395 , 14.0339818496 , 0.528386890888 , 0.492392778397 , 1.05502355099 , 0.0313912332058 , 0.0258361864835 , 0.0333590134978 , 0.0501354038715 , 0.0528089143336 , 0.0765591189265 , 251660754 , 0
1605412503065321673 , 1465 , 0 , 160 , 126 , 0 , 91 , 180 , 2130 , 378183860 , 33554432 , 18205 , 15990 , 3 , 53 , 40.0067683599 , 116.328201905 , 52.0724726804 , -9.69999980927 , 1.32862080631 , 0.301244117717 , 0.0429140989787 , -0.726185590503 , 1.301338655 , 13.9995072462 , 0.528386890888 , 0.492392778397 , 1.05502355099 , 0.0313912332058 , 0.0258361864835 , 0.0333590134978 , 0.0501354038715 , 0.0528089143336 , 0.0765591189265 , 251660754 , 0
1605412503100619525 , 1465 , 0 , 160 , 126 , 0 , 91 , 180 , 2130 , 378183880 , 33554432 , 18205 , 15990 , 3 , 53 , 40.0067685993 , 116.328201977 , 52.0731227892 , -9.69999980927 , 1.32980325064 , 0.307378239367 , 0.0366054334927 , -0.73770627267 , 1.29941461155 , 13.9625128186 , 0.528386890888 , 0.492392778397 , 1.05502355099 , 0.0313912332058 , 0.0258361864835 , 0.0333590134978 , 0.0501354038715 , 0.0528089143336 , 0.0765591189265 , 251660754 , 0
1605412503146776683 , 1465 , 0 , 160 , 126 , 0 , 91 , 180 , 2130 , 378183900 , 33554432 , 18205 , 15990 , 3 , 53 , 40.00676884 , 116.328202047 , 52.0739109134 , -9.69999980927 , 1.33802738 , 0.299166130965 , 0.0434746173946 , -0.751348639979 , 1.2974496796 , 13.9250618894 , 0.528386890888 , 0.492392778397 , 1.05502355099 , 0.0313912332058 , 0.0258361864835 , 0.0333590134978 , 0.0501354038715 , 0.0528089143336 , 0.0765591189265 , 251660754 , 0
1605412503187264678 , 1465 , 0 , 160 , 126 , 0 , 91 , 180 , 2130 , 378183920 , 33554432 , 18205 , 15990 , 3 , 53 , 40.0067690811 , 116.32820212 , 52.0745681608 , -9.69999980927 , 1.33814478491 , 0.305345862616 , 0.0379510034406 , -0.762145769875 , 1.29435762883 , 13.8853511506 , 0.528386890888 , 0.492392778397 , 1.05502355099 , 0.0313912332058 , 0.0258361864835 , 0.0333590134978 , 0.0501354038715 , 0.0528089143336 , 0.0765591189265 , 251660754 , 0
1605412503221603990 , 1465 , 0 , 160 , 126 , 0 , 91 , 180 , 2130 , 378183940 , 33554432 , 18205 , 15990 , 3 , 53 , 40.0067693229 , 116.328202191 , 52.0753127495 , -9.69999980927 , 1.34394866859 , 0.303761346944 , 0.03985095624 , -0.773297396058 , 1.29170092886 , 13.8462490243 , 0.528386890888 , 0.492392778397 , 1.05502355099 , 0.0313912332058 , 0.0258361864835 , 0.0333590134978 , 0.0501354038715 , 0.0528089143336 , 0.0765591189265 , 251660754 , 0
1605412503260992009 , 1465 , 0 , 160 , 126 , 0 , 91 , 180 , 2130 , 378183960 , 33554432 , 18205 , 15990 , 3 , 53 , 40.0067695659 , 116.328202263 , 52.0759399468 , -9.69999980927 , 1.34937017615 , 0.305046031881 , 0.0374762609569 , -0.780575075421 , 1.28837065452 , 13.8042409488 , 0.528386890888 , 0.492392778397 , 1.05502355099 , 0.0313912332058 , 0.0258361864835 , 0.0333590134978 , 0.0501354038715 , 0.0528089143336 , 0.0765591189265 , 251660754 , 0
1605412503302438296 , 1465 , 0 , 160 , 126 , 0 , 91 , 180 , 2130 , 378183980 , 33554432 , 18205 , 15990 , 3 , 53 , 40.006769809 , 116.328202335 , 52.0765801733 , -9.69999980927 , 1.34941448237 , 0.306526549389 , 0.0334033835866 , -0.789532962741 , 1.28748158296 , 13.7635365983 , 0.528386890888 , 0.492392778397 , 1.05502355099 , 0.0313912332058 , 0.0258361864835 , 0.0333590134978 , 0.0501354038715 , 0.0528089143336 , 0.0765591189265 , 251660754 , 0
1605412503348679282 , 1465 , 0 , 160 , 126 , 0 , 91 , 180 , 2130 , 378184000 , 33554432 , 18205 , 15990 , 3 , 53 , 40.0067700533 , 116.328202406 , 52.0771157481 , -9.69999980927 , 1.3576679949 , 0.298436623785 , 0.0320349863345 , -0.79795276558 , 1.28735705558 , 13.7217312489 , 0.528386890888 , 0.492392778397 , 1.05502355099 , 0.0313912332058 , 0.0258361864835 , 0.0333590134978 , 0.0501354038715 , 0.0528089143336 , 0.0765591189265 , 251660754 , 0
1605412503382126864 , 1465 , 0 , 160 , 126 , 0 , 91 , 180 , 2130 , 378184020 , 33554432 , 18205 , 15990 , 3 , 53 , 40.0067702984 , 116.328202477 , 52.0775901359 , -9.69999980927 , 1.36268520582 , 0.304136625091 , 0.0234338333048 , -0.809611504645 , 1.28792481686 , 13.6815603367 , 0.545725703239 , 0.501817762852 , 1.09208750725 , 0.0393892154098 , 0.0338384918869 , 0.0349235571921 , 0.050881549716 , 0.0535182915628 , 0.0770989060402 , 251660754 , 0
1605412503420794673 , 1465 , 0 , 160 , 126 , 0 , 91 , 180 , 2130 , 378184040 , 33554432 , 18205 , 15990 , 3 , 53 , 40.0067705507 , 116.328202547 , 52.0772789838 , -9.69999980927 , 1.37041946452 , 0.290738405588 , 0.0252383727558 , -0.822369859091 , 1.28742911068 , 13.6404462073 , 0.529417276382 , 0.488954424858 , 1.06231796741 , 0.0307541098446 , 0.0251361727715 , 0.033476985991 , 0.0445349514484 , 0.0472698323429 , 0.0744766145945 , 251660754 , 0
1605412503465178060 , 1465 , 0 , 160 , 126 , 0 , 85 , 180 , 2130 , 378184060 , 33554432 , 18205 , 15990 , 3 , 53 , 40.0067708034 , 116.328202617 , 52.0769036645 , -9.69999980927 , 1.37611597045 , 0.295706635143 , 0.0170768465076 , -0.835584065399 , 1.29044061905 , 13.6009346891 , 0.529417276382 , 0.488954424858 , 1.06231796741 , 0.0307541098446 , 0.0251361727715 , 0.033476985991 , 0.0445349514484 , 0.0472698323429 , 0.0744766145945 , 251660754 , 0
1605412503501275709 , 1465 , 0 , 160 , 126 , 0 , 85 , 180 , 2130 , 378184080 , 33554432 , 18205 , 15990 , 3 , 53 , 40.0067710593 , 116.328202684 , 52.0761727737 , -9.69999980927 , 1.38409574778 , 0.283060782086 , 0.0161448238192 , -0.856438294551 , 1.29420128385 , 13.5612064806 , 0.529417276382 , 0.488954424858 , 1.06231796741 , 0.0307541117072 , 0.0251361727715 , 0.033476985991 , 0.0445349514484 , 0.0472698323429 , 0.0744766145945 , 251660754 , 0
1605412503545031746 , 1465 , 0 , 160 , 126 , 0 , 85 , 180 , 2130 , 378184100 , 33554432 , 18205 , 15990 , 3 , 53 , 40.0067713141 , 116.328202753 , 52.0756772337 , -9.69999980927 , 1.38730547337 , 0.293374093463 , 0.0117814862698 , -0.87323349842 , 1.30020829457 , 13.5211326029 , 0.529417276382 , 0.488954424858 , 1.06231796741 , 0.0307541117072 , 0.0251361727715 , 0.033476985991 , 0.0445349514484 , 0.0472698323429 , 0.0744766145945 , 251660754 , 0
1605412503581287687 , 1465 , 0 , 160 , 126 , 0 , 85 , 180 , 2130 , 378184120 , 33554432 , 18205 , 15990 , 3 , 53 , 40.0067715708 , 116.328202821 , 52.0748643912 , -9.69999980927 , 1.38717244236 , 0.290750046098 , 0.010379866019 , -0.887981630331 , 1.30520714643 , 13.4787725926 , 0.529417276382 , 0.488954424858 , 1.06231796741 , 0.0307541117072 , 0.0251361727715 , 0.033476985991 , 0.0445349514484 , 0.0472698323429 , 0.0744766145945 , 251660754 , 0
1605412503625628370 , 1465 , 0 , 160 , 126 , 0 , 85 , 180 , 2130 , 378184140 , 33554432 , 18205 , 15990 , 3 , 53 , 40.0067718268 , 116.328202891 , 52.074335848 , -9.69999980927 , 1.39525687548 , 0.296971844085 , 0.0115477724796 , -0.899964573778 , 1.30911339371 , 13.4333410718 , 0.529417276382 , 0.488954424858 , 1.06231796741 , 0.0307541117072 , 0.0251361727715 , 0.033476985991 , 0.0445349514484 , 0.0472698323429 , 0.0744766145945 , 251660754 , 0
1605412503663834402 , 1465 , 0 , 160 , 126 , 0 , 85 , 180 , 2130 , 378184160 , 33554432 , 18205 , 15990 , 3 , 53 , 40.0067720856 , 116.328202961 , 52.0735063599 , -9.69999980927 , 1.39796448539 , 0.300900732403 , 0.0106664110818 , -0.914113638789 , 1.31593595143 , 13.3863013292 , 0.529417276382 , 0.488954424858 , 1.06231796741 , 0.0307541117072 , 0.0251361727715 , 0.033476985991 , 0.0445349514484 , 0.0472698323429 , 0.0744766145945 , 251660754 , 0
1605412503703025123 , 1465 , 0 , 160 , 126 , 0 , 85 , 180 , 2130 , 378184180 , 33554432 , 18205 , 15990 , 3 , 53 , 40.0067723427 , 116.328203032 , 52.0730157802 , -9.69999980927 , 1.3992652326 , 0.299660795912 , 0.0143745284039 , -0.923503391471 , 1.32032387141 , 13.3363247833 , 0.529417276382 , 0.488954424858 , 1.06231796741 , 0.0307541117072 , 0.0251361727715 , 0.033476985991 , 0.0445349514484 , 0.0472698323429 , 0.0744766145945 , 251660754 , 0
1605412503742819792 , 1465 , 0 , 160 , 126 , 0 , 85 , 180 , 2130 , 378184200 , 33554432 , 18205 , 15990 , 3 , 53 , 40.0067726025 , 116.328203105 , 52.0722155897 , -9.69999980927 , 1.40456007627 , 0.313808705461 , 0.0128635160118 , -0.930593608639 , 1.32612659602 , 13.2839758763 , 0.529417276382 , 0.488954424858 , 1.06231796741 , 0.0307541117072 , 0.0251361727715 , 0.033476985991 , 0.0445349514484 , 0.0472698323429 , 0.0744766145945 , 251660754 , 0
1605412503781804880 , 1465 , 0 , 160 , 126 , 0 , 85 , 180 , 2130 , 378184220 , 33554432 , 18205 , 15990 , 3 , 53 , 40.0067728604 , 116.328203178 , 52.0718455454 , -9.69999980927 , 1.40401864236 , 0.309225793694 , 0.0210942663684 , -0.932994325724 , 1.32968544471 , 13.2302446534 , 0.529417276382 , 0.488954424858 , 1.06231796741 , 0.0307541117072 , 0.0251361727715 , 0.033476985991 , 0.0445349514484 , 0.0472698323429 , 0.0744766145945 , 251660754 , 0
1605412503820807970 , 1465 , 0 , 160 , 126 , 0 , 85 , 180 , 2130 , 378184240 , 33554432 , 18205 , 15990 , 3 , 53 , 40.0067731212 , 116.328203253 , 52.0711108763 , -9.69999980927 , 1.41249610201 , 0.319014620467 , 0.0181493503243 , -0.932146912924 , 1.33353408625 , 13.1770781395 , 0.529417276382 , 0.488954424858 , 1.06231796741 , 0.0307541117072 , 0.0251361727715 , 0.033476985991 , 0.0445349514484 , 0.0472698323429 , 0.0744766145945 , 251660754 , 0
1605412503862175904 , 1465 , 0 , 160 , 126 , 0 , 85 , 180 , 2130 , 378184260 , 33554432 , 18205 , 15990 , 3 , 53 , 40.0067733812 , 116.328203327 , 52.070885472 , -9.69999980927 , 1.41736773266 , 0.311327385959 , 0.0281190410315 , -0.935391377787 , 1.33664333538 , 13.1239813532 , 0.529417276382 , 0.488954424858 , 1.06231796741 , 0.0307541117072 , 0.0251361727715 , 0.033476985991 , 0.0445349514484 , 0.0472698323429 , 0.0744766145945 , 251660754 , 0
1605412503905675923 , 1465 , 0 , 160 , 126 , 0 , 85 , 180 , 2130 , 378184280 , 33554432 , 18205 , 15990 , 3 , 53 , 40.0067736432 , 116.328203403 , 52.0702239173 , -9.69999980927 , 1.41897466256 , 0.321511054048 , 0.0233007768738 , -0.933652961606 , 1.33982544006 , 13.0683599749 , 0.529417276382 , 0.488954424858 , 1.06231796741 , 0.0307541117072 , 0.0251361727715 , 0.033476985991 , 0.0445349514484 , 0.0472698323429 , 0.0744766145945 , 251660754 , 0
1605412503943406975 , 1465 , 0 , 160 , 126 , 0 , 85 , 180 , 2130 , 378184300 , 33554432 , 18205 , 15990 , 3 , 53 , 40.0067739046 , 116.328203479 , 52.0700597046 , -9.69999980927 , 1.42640894462 , 0.322367225335 , 0.0302420966396 , -0.931705250304 , 1.34361052578 , 13.0139957732 , 0.529417276382 , 0.488954424858 , 1.06231796741 , 0.0307541117072 , 0.0251361727715 , 0.033476985991 , 0.0445349514484 , 0.0472698323429 , 0.0744766145945 , 251660754 , 0
1605412503983638915 , 1465 , 0 , 160 , 126 , 0 , 85 , 180 , 2130 , 378184320 , 33554432 , 18205 , 15990 , 3 , 53 , 40.0067741681 , 116.328203555 , 52.0694797626 , -9.69999980927 , 1.4274993148 , 0.32232393334 , 0.0278165572666 , -0.92442153487 , 1.34616262655 , 12.9594645111 , 0.529417276382 , 0.488954424858 , 1.06231796741 , 0.0307541117072 , 0.0251361727715 , 0.033476985991 , 0.0445349514484 , 0.0472698323429 , 0.0744766145945 , 251660754 , 0
1605412504025368463 , 1465 , 0 , 160 , 126 , 0 , 85 , 180 , 2130 , 378184340 , 33554432 , 18205 , 15990 , 3 , 53 , 40.0067744308 , 116.328203633 , 52.0692415843 , -9.69999980927 , 1.43307528465 , 0.329884538183 , 0.0239048064945 , -0.920279973158 , 1.35042214424 , 12.9069895303 , 0.529417276382 , 0.488954424858 , 1.06231796741 , 0.0307541117072 , 0.0251361727715 , 0.033476985991 , 0.0445349514484 , 0.0472698323429 , 0.0744766145945 , 251660754 , 0
1605412504060695153 , 1465 , 0 , 160 , 126 , 0 , 85 , 180 , 2130 , 378184360 , 33554432 , 18205 , 15990 , 3 , 53 , 40.0067746964 , 116.32820371 , 52.0686653033 , -9.69999980927 , 1.44034146309 , 0.327876617884 , 0.0258268303315 , -0.908998492871 , 1.35414242373 , 12.85326455 , 0.529417276382 , 0.488954424858 , 1.06231796741 , 0.0307541117072 , 0.0251361727715 , 0.033476985991 , 0.0445349514484 , 0.0472698323429 , 0.0744766145945 , 251660754 , 0
1605412504101562849 , 1465 , 0 , 160 , 126 , 0 , 85 , 180 , 2130 , 378184380 , 33554432 , 18205 , 15990 , 3 , 53 , 40.0067749611 , 116.32820379 , 52.0683407281 , -9.69999980927 , 1.44585763094 , 0.34255859556 , 0.0179431699873 , -0.896360950845 , 1.35858135833 , 12.8009164378 , 0.529417276382 , 0.488954424858 , 1.06231796741 , 0.0307541117072 , 0.0251361727715 , 0.033476985991 , 0.0445349514484 , 0.0472698323429 , 0.0744766145945 , 251660754 , 0
1605412504144788501 , 1465 , 0 , 160 , 126 , 0 , 85 , 180 , 2130 , 378184400 , 33554432 , 18205 , 15990 , 3 , 53 , 40.0067752289 , 116.328203869 , 52.0677294424 , -9.69999980927 , 1.4523655162 , 0.332974633056 , 0.0225607769867 , -0.877311783529 , 1.36362403183 , 12.7492806627 , 0.529417276382 , 0.488954424858 , 1.06231796741 , 0.0307541117072 , 0.0251361727715 , 0.033476985991 , 0.0445349514484 , 0.0472698323429 , 0.0744766145945 , 251660754 , 0
1605412504181904844 , 1465 , 0 , 160 , 126 , 0 , 85 , 180 , 2130 , 378184420 , 33554432 , 18205 , 15990 , 3 , 53 , 40.0067754946 , 116.328203948 , 52.0672789393 , -9.69999980927 , 1.44993774993 , 0.336630932206 , 0.0110551125761 , -0.861142296025 , 1.37113883296 , 12.6989227428 , 0.529417276382 , 0.488954424858 , 1.06231796741 , 0.0307541117072 , 0.0251361727715 , 0.033476985991 , 0.0445349514484 , 0.0472698323429 , 0.0744766145945 , 251660754 , 0
1605412504223263202 , 1465 , 0 , 160 , 126 , 0 , 85 , 180 , 2130 , 378184440 , 33554432 , 18205 , 15990 , 3 , 53 , 40.0067757632 , 116.328204026 , 52.0665067192 , -9.69999980927 , 1.45674857524 , 0.331020188667 , 0.0137292447333 , -0.845256061707 , 1.37888927173 , 12.649869054 , 0.529417276382 , 0.488954424858 , 1.06231796741 , 0.0307541117072 , 0.0251361727715 , 0.033476985991 , 0.0445349514484 , 0.0472698323429 , 0.0744766145945 , 251660754 , 0
1605412504265390654 , 1465 , 0 , 160 , 126 , 0 , 85 , 180 , 2130 , 378184460 , 33554432 , 18205 , 15990 , 3 , 53 , 40.0067760305 , 116.328204105 , 52.0659667449 , -9.69999980927 , 1.46003270509 , 0.331673344712 , 0.00849045763728 , -0.831150780983 , 1.39131788202 , 12.5973729171 , 0.529417276382 , 0.488954424858 , 1.06231796741 , 0.0307541117072 , 0.0251361727715 , 0.033476985991 , 0.0445349514484 , 0.0472698323429 , 0.0744766145945 , 251660754 , 0
1605412504304422583 , 1465 , 0 , 160 , 126 , 0 , 85 , 180 , 2130 , 378184480 , 33554432 , 18205 , 15990 , 3 , 53 , 40.0067762996 , 116.328204181 , 52.0651478488 , -9.69999980927 , 1.4598038781 , 0.324822526603 , 0.0094869760914 , -0.822243015447 , 1.40209994604 , 12.5487337847 , 0.529417276382 , 0.488954424858 , 1.06231796741 , 0.0307541117072 , 0.0251361727715 , 0.033476985991 , 0.0445349514484 , 0.0472698323429 , 0.0744766145945 , 251660754 , 0
1605412504346039657 , 1465 , 0 , 160 , 126 , 0 , 85 , 180 , 2130 , 378184500 , 33554432 , 18205 , 15990 , 3 , 53 , 40.0067765681 , 116.328204256 , 52.0646282248 , -9.69999980927 , 1.46763695397 , 0.315454812814 , 0.0108381801851 , -0.813446498416 , 1.41760324763 , 12.4967726666 , 0.529417276382 , 0.488954424858 , 1.06231796741 , 0.0307541117072 , 0.0251361727715 , 0.033476985991 , 0.0445349514484 , 0.0472698323429 , 0.0744766145945 , 251660754 , 0
1605412504381640462 , 1465 , 0 , 160 , 126 , 0 , 85 , 180 , 2130 , 378184520 , 33554432 , 18205 , 15990 , 3 , 53 , 40.0067768383 , 116.328204331 , 52.0638326872 , -9.69999980927 , 1.46469098441 , 0.319088232388 , 0.012084338279 , -0.810067460024 , 1.43026583905 , 12.4428134361 , 0.529417276382 , 0.488954424858 , 1.06231796741 , 0.0307541117072 , 0.0251361727715 , 0.033476985991 , 0.0445349514484 , 0.0472698323429 , 0.0744766145945 , 251660754 , 0
1605412504421872822 , 1465 , 0 , 160 , 126 , 0 , 85 , 180 , 2130 , 378184540 , 33554432 , 18205 , 15990 , 3 , 53 , 40.006777107 , 116.328204405 , 52.0635185586 , -9.69999980927 , 1.46784792706 , 0.308139822506 , 0.024273470157 , -0.805007764651 , 1.44010931616 , 12.387197879 , 0.529417276382 , 0.488954424858 , 1.06231796741 , 0.0307541117072 , 0.0251361727715 , 0.033476985991 , 0.0445349514484 , 0.0472698323429 , 0.0744766145945 , 251660754 , 0
1605412504463560529 , 1465 , 0 , 160 , 126 , 0 , 85 , 180 , 2130 , 378184560 , 33554432 , 18205 , 15990 , 3 , 53 , 40.006777379 , 116.328204479 , 52.0628598556 , -9.69999980927 , 1.47666980296 , 0.31402884098 , 0.021538281453 , -0.806362056734 , 1.45098341562 , 12.3289100969 , 0.529417276382 , 0.488954424858 , 1.06231796741 , 0.0307541117072 , 0.0251361727715 , 0.033476985991 , 0.0445349514484 , 0.0472698323429 , 0.0744766145945 , 251660754 , 0
1605412504501951482 , 1465 , 0 , 160 , 126 , 0 , 85 , 180 , 2130 , 378184580 , 33554432 , 18205 , 15990 , 3 , 53 , 40.0067776498 , 116.328204551 , 52.0626823148 , -9.69999980927 , 1.4808340558 , 0.301383797884 , 0.0297068549593 , -0.807918709246 , 1.46146680427 , 12.2681613392 , 0.529417276382 , 0.488954424858 , 1.06231796741 , 0.0307541117072 , 0.0251361727715 , 0.033476985991 , 0.0445349514484 , 0.0472698323429 , 0.0744766145945 , 251660754 , 0
1605412504545615883 , 1465 , 0 , 160 , 126 , 0 , 85 , 180 , 2130 , 378184600 , 33554432 , 18205 , 15990 , 3 , 53 , 40.0067779238 , 116.328204625 , 52.0621840553 , -9.69999980927 , 1.49016406557 , 0.310830370484 , 0.0314408056135 , -0.809193786812 , 1.46776226246 , 12.2050308489 , 0.529417276382 , 0.488954424858 , 1.06231796741 , 0.0307541117072 , 0.0251361727715 , 0.033476985991 , 0.0445349514484 , 0.0472698323429 , 0.0744766145945 , 251660754 , 0
1605412504581935590 , 1465 , 0 , 160 , 126 , 0 , 85 , 180 , 2130 , 378184620 , 33554432 , 18205 , 15990 , 3 , 53 , 40.0067781974 , 116.328204697 , 52.0621885359 , -9.69999980927 , 1.4980009911 , 0.306904168931 , 0.0374532854262 , -0.811582030804 , 1.47064049482 , 12.142400663 , 0.529417276382 , 0.488954424858 , 1.06231796741 , 0.0307541117072 , 0.0251361727715 , 0.0334769822657 , 0.0445349514484 , 0.0472698323429 , 0.0744766145945 , 251660754 , 0
1605412504623871144 , 1465 , 0 , 160 , 126 , 0 , 85 , 180 , 2130 , 378184640 , 33554432 , 18205 , 15990 , 3 , 53 , 40.0067784732 , 116.32820477 , 52.0618234407 , -9.69999980927 , 1.49927297294 , 0.307635389086 , 0.0378064304712 , -0.811294088244 , 1.47146421922 , 12.0766771106 , 0.529417276382 , 0.488954424858 , 1.06231796741 , 0.0307541117072 , 0.0251361727715 , 0.0334769822657 , 0.0445349514484 , 0.0472698323429 , 0.0744766145945 , 251660754 , 0
1605412504661957864 , 1465 , 0 , 160 , 126 , 0 , 85 , 180 , 2130 , 378184660 , 33554432 , 18205 , 15990 , 3 , 53 , 40.0067787478 , 116.328204844 , 52.0618434772 , -9.69999980927 , 1.50215200676 , 0.313140580598 , 0.0358792721117 , -0.812561646617 , 1.4712428471 , 12.0115604432 , 0.529417335987 , 0.488954424858 , 1.06231796741 , 0.0307541117072 , 0.0251361727715 , 0.0334769822657 , 0.0445349514484 , 0.0472698323429 , 0.0744766145945 , 251660754 , 0
1605412504700915971 , 1465 , 0 , 160 , 126 , 0 , 85 , 180 , 2130 , 378184680 , 33554432 , 18205 , 15990 , 3 , 53 , 40.0067790256 , 116.328204917 , 52.0615329035 , -9.69999980927 , 1.50985470351 , 0.304796104521 , 0.0391359512262 , -0.811496693848 , 1.47479208182 , 11.945259251 , 0.529417335987 , 0.488954424858 , 1.06231796741 , 0.0307541135699 , 0.0251361727715 , 0.0334769822657 , 0.0445349514484 , 0.0472698323429 , 0.0744766145945 , 251660754 , 0
1605412504745893338 , 1465 , 0 , 160 , 126 , 0 , 85 , 180 , 2130 , 378184700 , 33554432 , 18205 , 15990 , 3 , 53 , 40.0067793018 , 116.32820499 , 52.0615196303 , -9.69999980927 , 1.51067005998 , 0.308813346603 , 0.0331142344533 , -0.817270127066 , 1.47611838357 , 11.8793245374 , 0.529417335987 , 0.488954424858 , 1.06231796741 , 0.0307541135699 , 0.0251361727715 , 0.0334769822657 , 0.0445349514484 , 0.0472698323429 , 0.0744766145945 , 251660754 , 0
1605412504783583478 , 1465 , 0 , 160 , 126 , 0 , 85 , 180 , 2130 , 378184720 , 33554432 , 18205 , 15990 , 3 , 53 , 40.0067795802 , 116.328205061 , 52.0612231558 , -9.69999980927 , 1.51400718975 , 0.298846947128 , 0.0370104475224 , -0.820862720447 , 1.47879058409 , 11.8146867606 , 0.529417335987 , 0.488954424858 , 1.06231796741 , 0.0307541135699 , 0.0251361727715 , 0.0334769822657 , 0.0445349514484 , 0.0472698323429 , 0.0744766145945 , 251660754 , 0
1605412504823158297 , 1465 , 0 , 160 , 126 , 0 , 85 , 180 , 2130 , 378184740 , 33554432 , 18205 , 15990 , 3 , 53 , 40.0067798574 , 116.328205132 , 52.0611844547 , -9.69999980927 , 1.51655977982 , 0.300427174343 , 0.0321788571218 , -0.825033518771 , 1.48434428454 , 11.7497548848 , 0.529417335987 , 0.488954424858 , 1.06231796741 , 0.0307541135699 , 0.0251361727715 , 0.0334769822657 , 0.0445349514484 , 0.0472698323429 , 0.0744766145945 , 251660754 , 0
1605412504864467604 , 1465 , 0 , 160 , 126 , 0 , 85 , 180 , 2130 , 378184760 , 33554432 , 18205 , 15990 , 3 , 53 , 40.006780137 , 116.328205201 , 52.0608217744 , -9.69999980927 , 1.52158544439 , 0.29254971455 , 0.031523020936 , -0.835125243524 , 1.48980993377 , 11.6880623673 , 0.529417335987 , 0.488954424858 , 1.06231796741 , 0.0307541135699 , 0.0251361727715 , 0.0334769822657 , 0.0445349514484 , 0.0472698323429 , 0.0744766145945 , 251660754 , 0
1605412504901848119 , 1465 , 0 , 160 , 126 , 0 , 85 , 180 , 2130 , 378184780 , 33554432 , 18205 , 15990 , 3 , 53 , 40.0067804159 , 116.328205271 , 52.0607838249 , -9.69999980927 , 1.52821307628 , 0.296985434098 , 0.0337073563687 , -0.836570849999 , 1.4971058568 , 11.6250785491 , 0.529417335987 , 0.488954424858 , 1.06231796741 , 0.0307541135699 , 0.0251361727715 , 0.0334769822657 , 0.0445349514484 , 0.0472698323429 , 0.0744766145945 , 251660754 , 0
1605412504945940331 , 1465 , 0 , 160 , 126 , 0 , 85 , 180 , 2130 , 378184800 , 33554432 , 18205 , 15990 , 3 , 53 , 40.0067806971 , 116.328205339 , 52.060389936 , -9.69999980927 , 1.52902777215 , 0.289482522625 , 0.0294916766187 , -0.844603754964 , 1.50384951673 , 11.5640563595 , 0.529417335987 , 0.488954424858 , 1.06231796741 , 0.0307541135699 , 0.0251361727715 , 0.0334769822657 , 0.0445349514484 , 0.0472698323429 , 0.0744766145945 , 251660754 , 0
1605412504984904955 , 1465 , 0 , 160 , 126 , 0 , 85 , 180 , 2130 , 378184820 , 33554432 , 18205 , 15990 , 3 , 53 , 40.006780977 , 116.328205405 , 52.0603321781 , -9.69999980927 , 1.53304188194 , 0.279203115408 , 0.0322845331911 , -0.848309982226 , 1.51210842959 , 11.5032643923 , 0.529417335987 , 0.488954424858 , 1.06231796741 , 0.0307541135699 , 0.0251361727715 , 0.0334769822657 , 0.0445349514484 , 0.0472698323429 , 0.0744766145945 , 251660754 , 0
1605412505023522797 , 1465 , 0 , 160 , 126 , 0 , 85 , 180 , 2130 , 378184840 , 33554432 , 18205 , 15990 , 3 , 53 , 40.0067812599 , 116.328205472 , 52.0598996039 , -9.69999980927 , 1.5403330809 , 0.281716406845 , 0.0284554170613 , -0.859571011206 , 1.51941819952 , 11.4460240933 , 0.529417335987 , 0.488954424858 , 1.06231796741 , 0.0307541135699 , 0.0251361727715 , 0.0334769822657 , 0.0445349514484 , 0.0472698323429 , 0.0744766145945 , 251660754 , 0
1605412505060985202 , 1465 , 0 , 160 , 126 , 0 , 85 , 180 , 2130 , 378184860 , 33554432 , 18205 , 15990 , 3 , 53 , 40.0067815415 , 116.328205537 , 52.0598853379 , -9.69999980927 , 1.54357186259 , 0.271418181716 , 0.0351706523553 , -0.866114504429 , 1.52571938338 , 11.3902912544 , 0.529417335987 , 0.488954424858 , 1.06231796741 , 0.0307541135699 , 0.0251361727715 , 0.0334769822657 , 0.0445349514484 , 0.0472698323429 , 0.0744766145945 , 251660754 , 0
1605412505104231770 , 1465 , 0 , 160 , 126 , 0 , 85 , 180 , 2130 , 378184880 , 33554432 , 18205 , 15990 , 3 , 53 , 40.0067818258 , 116.328205603 , 52.0594783975 , -9.69999980927 , 1.54905470161 , 0.27742424117 , 0.0326764396016 , -0.869190414866 , 1.53115737108 , 11.3351506485 , 0.529417335987 , 0.488954424858 , 1.06231796741 , 0.0307541135699 , 0.0251361727715 , 0.0334769822657 , 0.0445349514484 , 0.0472698323429 , 0.0744766145945 , 251660754 , 0
1605412505142788677 , 1465 , 0 , 160 , 126 , 0 , 85 , 180 , 2130 , 378184900 , 33554432 , 18205 , 15990 , 3 , 53 , 40.0067821088 , 116.328205666 , 52.0595087716 , -9.69999980927 , 1.55022284076 , 0.269233909035 , 0.0366346583071 , -0.880653691796 , 1.53660363271 , 11.280479987 , 0.529417335987 , 0.488954424858 , 1.06231796741 , 0.0307541135699 , 0.0251361727715 , 0.0334769822657 , 0.0445349514484 , 0.0472698323429 , 0.0744766145945 , 251660754 , 0
1605412505180582463 , 1465 , 0 , 160 , 126 , 0 , 85 , 180 , 2130 , 378184920 , 33554432 , 18205 , 15990 , 3 , 53 , 40.0067823935 , 116.328205731 , 52.059131206 , -9.69999980927 , 1.55043491363 , 0.269148755971 , 0.0364630500692 , -0.890679697536 , 1.5414037408 , 11.2241472264 , 0.529417335987 , 0.488954424858 , 1.06231796741 , 0.0307541135699 , 0.0251361727715 , 0.0334769822657 , 0.0445349514484 , 0.0472698323429 , 0.0744766145945 , 251660754 , 0
1605412505221897635 , 1465 , 0 , 160 , 126 , 0 , 85 , 180 , 2130 , 378184940 , 33554432 , 18205 , 15990 , 3 , 53 , 40.0067826778 , 116.328205796 , 52.0591651099 , -9.69999980927 , 1.55980946538 , 0.279670954684 , 0.0356499361816 , -0.903316931567 , 1.54537722725 , 11.1680451257 , 0.529417335987 , 0.488954424858 , 1.06231796741 , 0.0307541135699 , 0.0251361727715 , 0.0334769822657 , 0.0445349514484 , 0.0472698323429 , 0.0744766145945 , 251660754 , 0
1605412505263561240 , 1465 , 0 , 160 , 126 , 0 , 85 , 180 , 2130 , 378184960 , 33554432 , 18205 , 15990 , 3 , 53 , 40.006782964 , 116.32820586 , 52.0588627625 , -9.69999980927 , 1.55835224702 , 0.27011893183 , 0.0385634321272 , -0.911593913474 , 1.5510296506 , 11.1103576377 , 0.529417335987 , 0.488954424858 , 1.06231796741 , 0.0307541135699 , 0.0251361727715 , 0.0334769822657 , 0.0445349514484 , 0.0472698323429 , 0.0744766145945 , 251660754 , 0
1605412505304692203 , 1465 , 0 , 160 , 126 , 0 , 85 , 180 , 2130 , 378184980 , 33554432 , 18205 , 15990 , 3 , 53 , 40.006783249 , 116.328205926 , 52.0588513259 , -9.69999980927 , 1.56284503338 , 0.283284084459 , 0.0322697630599 , -0.923476333868 , 1.5551367916 , 11.0525675183 , 0.529417335987 , 0.488954424858 , 1.06231796741 , 0.0307541135699 , 0.0251361727715 , 0.0334769822657 , 0.0445349514484 , 0.0472698323429 , 0.0744766145945 , 251660754 , 0
1605412505345641508 , 1465 , 0 , 160 , 126 , 0 , 85 , 180 , 2130 , 378185000 , 33554432 , 18205 , 15990 , 3 , 53 , 40.0067835371 , 116.328205992 , 52.0586220957 , -9.69999980927 , 1.57015242322 , 0.278272361388 , 0.0405441129179 , -0.932117990008 , 1.56168347707 , 10.9925643824 , 0.529417335987 , 0.488954424858 , 1.06231796741 , 0.0307541135699 , 0.0251361727715 , 0.0334769822657 , 0.0445349514484 , 0.0472698323429 , 0.0744766145945 , 251660754 , 0
1605412505382264400 , 1465 , 0 , 160 , 126 , 0 , 85 , 180 , 2130 , 378185020 , 33554432 , 18205 , 15990 , 3 , 53 , 40.0067838227 , 116.328206059 , 52.0586256618 , -9.69999980927 , 1.56455977388 , 0.285248477027 , 0.033078125792 , -0.940635953016 , 1.56698646066 , 10.9312458041 , 0.54655623436 , 0.498066782951 , 1.099350214 , 0.0380059070885 , 0.0323445834219 , 0.0350557789207 , 0.0453745722771 , 0.0480621978641 , 0.0750475004315 , 251660754 , 0
1605412505425118684 , 1465 , 0 , 160 , 126 , 0 , 85 , 180 , 2130 , 378185040 , 33554432 , 18205 , 15990 , 3 , 53 , 40.0067841026 , 116.328206121 , 52.0586677464 , -9.69999980927 , 1.57166086773 , 0.282526934626 , 0.0338364538611 , -0.950239540863 , 1.57100470114 , 10.8710621379 , 0.53015768528 , 0.485311865807 , 1.06864881516 , 0.0299365092069 , 0.0242538712919 , 0.0335953235626 , 0.0400335974991 , 0.0426714234054 , 0.0726908221841 , 251660754 , 0
1605412505466826562 , 1465 , 0 , 160 , 126 , 0 , 87 , 180 , 2130 , 378185060 , 33554432 , 18205 , 15990 , 3 , 53 , 40.0067843821 , 116.328206185 , 52.0590028865 , -9.69999980927 , 1.57540054861 , 0.286984894602 , 0.0329562584548 , -0.951293371329 , 1.57945824391 , 10.8086926472 , 0.53015768528 , 0.485311865807 , 1.06864881516 , 0.0299365092069 , 0.0242538712919 , 0.0335953235626 , 0.0400335974991 , 0.0426714234054 , 0.0726908221841 , 251660754 , 0
1605412505500905320 , 1465 , 0 , 160 , 126 , 0 , 87 , 180 , 2130 , 378185080 , 33554432 , 18205 , 15990 , 3 , 53 , 40.0067846604 , 116.328206247 , 52.0591663504 , -9.69999980927 , 1.57360936033 , 0.2888139228 , 0.029353383229 , -0.956564273585 , 1.58711830959 , 10.7449704969 , 0.53015768528 , 0.485311865807 , 1.06864881516 , 0.0299365092069 , 0.0242538712919 , 0.0335953235626 , 0.0400335974991 , 0.0426714234054 , 0.0726908221841 , 251660754 , 0
1605412505548639652 , 1465 , 0 , 160 , 126 , 0 , 87 , 180 , 2130 , 378185100 , 33554432 , 18205 , 15990 , 3 , 53 , 40.0067849408 , 116.328206311 , 52.0594565058 , -9.69999980927 , 1.57954772691 , 0.282657697121 , 0.0311193146223 , -0.956897795267 , 1.59994558463 , 10.6816083226 , 0.53015768528 , 0.485311865807 , 1.06864881516 , 0.0299365092069 , 0.0242538712919 , 0.0335953235626 , 0.0400335974991 , 0.0426714234054 , 0.0726908221841 , 251660754 , 0
1605412505581098120 , 1465 , 0 , 160 , 126 , 0 , 87 , 180 , 2130 , 378185120 , 33554432 , 18205 , 15990 , 3 , 53 , 40.00678522 , 116.328206374 , 52.0595048191 , -9.69999980927 , 1.57901513744 , 0.287797623404 , 0.0240905014115 , -0.959710330612 , 1.60951601956 , 10.6186254944 , 0.530157744884 , 0.485311865807 , 1.06864881516 , 0.0299365092069 , 0.0242538712919 , 0.0335953235626 , 0.0400335974991 , 0.0426714234054 , 0.0726908221841 , 251660754 , 0
1605412505626311320 , 1465 , 0 , 160 , 126 , 0 , 87 , 180 , 2130 , 378185140 , 33554432 , 18205 , 15990 , 3 , 53 , 40.0067855012 , 116.328206436 , 52.0597619116 , -9.69999980927 , 1.58313053554 , 0.269810884687 , 0.0298095353623 , -0.962819561439 , 1.62146720517 , 10.5572003606 , 0.530157744884 , 0.485311865807 , 1.06864881516 , 0.0299365092069 , 0.0242538712919 , 0.0335953235626 , 0.0400335974991 , 0.0426714234054 , 0.0726908221841 , 251660754 , 0
1605412505660951166 , 1465 , 0 , 160 , 126 , 0 , 87 , 180 , 2130 , 378185160 , 33554432 , 18205 , 15990 , 3 , 53 , 40.0067857817 , 116.328206498 , 52.0597962774 , -9.69999980927 , 1.58622575044 , 0.278018413236 , 0.0254550598955 , -0.965144871581 , 1.63092818649 , 10.4992965295 , 0.530157744884 , 0.485311865807 , 1.06864881516 , 0.0299365092069 , 0.0242538712919 , 0.0335953235626 , 0.0400335974991 , 0.0426714234054 , 0.0726908221841 , 251660754 , 0
1605412505702105384 , 1465 , 0 , 160 , 126 , 0 , 87 , 180 , 2130 , 378185180 , 33554432 , 18205 , 15990 , 3 , 53 , 40.006786064 , 116.328206559 , 52.0600853814 , -9.69999980927 , 1.59028008601 , 0.270282614679 , 0.0312930026888 , -0.969815641368 , 1.64293194838 , 10.4412381274 , 0.530157744884 , 0.485311865807 , 1.06864881516 , 0.0299365092069 , 0.0242538712919 , 0.0335953235626 , 0.0400335974991 , 0.0426714234054 , 0.0726908221841 , 251660754 , 0
1605412505743447662 , 1465 , 0 , 160 , 126 , 0 , 87 , 180 , 2130 , 378185200 , 33554432 , 18205 , 15990 , 3 , 53 , 40.0067863452 , 116.328206616 , 52.0601495681 , -9.69999980927 , 1.58696916871 , 0.255454512962 , 0.028538397381 , -0.978046466202 , 1.65448078722 , 10.3858928599 , 0.530157744884 , 0.485311865807 , 1.06864881516 , 0.0299365092069 , 0.0242538712919 , 0.0335953235626 , 0.0400335974991 , 0.0426714234054 , 0.0726908221841 , 251660754 , 0
1605412505785056730 , 1465 , 0 , 160 , 126 , 0 , 87 , 180 , 2130 , 378185220 , 33554432 , 18205 , 15990 , 3 , 53 , 40.0067866283 , 116.328206674 , 52.0603429247 , -9.69999980927 , 1.59429432446 , 0.257146738086 , 0.0244134516464 , -0.994621246615 , 1.66654173602 , 10.3319012888 , 0.530157744884 , 0.485311865807 , 1.06864881516 , 0.0299365092069 , 0.0242538712919 , 0.0335953235626 , 0.0400335974991 , 0.0426714234054 , 0.0726908221841 , 251660754 , 0
1605412505821571254 , 1465 , 0 , 160 , 126 , 0 , 87 , 180 , 2130 , 378185240 , 33554432 , 18205 , 15990 , 3 , 53 , 40.0067869118 , 116.328206731 , 52.0603999952 , -9.69999980927 , 1.60260779148 , 0.254630943393 , 0.0259554889483 , -1.00474716886 , 1.67749540158 , 10.2774079151 , 0.530157744884 , 0.485311865807 , 1.06864881516 , 0.0299365092069 , 0.0242538712919 , 0.0335953235626 , 0.0400335974991 , 0.0426714234054 , 0.0726908221841 , 251660754 , 0
1605412505864716262 , 1465 , 0 , 160 , 126 , 0 , 87 , 180 , 2130 , 378185260 , 33554432 , 18205 , 15990 , 3 , 53 , 40.0067871966 , 116.328206789 , 52.0604385864 , -9.69999980927 , 1.60218999668 , 0.259564264183 , 0.0145675360252 , -1.01204136967 , 1.69000826959 , 10.225170713 , 0.530157744884 , 0.485311865807 , 1.06864881516 , 0.0299365092069 , 0.0242538712919 , 0.0335953235626 , 0.0400335974991 , 0.0426714234054 , 0.0726908221841 , 251660754 , 0
1605412505900940462 , 1465 , 0 , 160 , 126 , 0 , 87 , 180 , 2130 , 378185280 , 33554432 , 18205 , 15990 , 3 , 53 , 40.0067874813 , 116.328206845 , 52.0603107782 , -9.69999980927 , 1.60946597535 , 0.255574553711 , 0.0139431602677 , -1.02109615399 , 1.70827936448 , 10.1737791235 , 0.530157744884 , 0.485311865807 , 1.06864881516 , 0.0299365092069 , 0.0242538712919 , 0.0335953235626 , 0.0400335974991 , 0.0426714234054 , 0.0726908221841 , 251660754 , 0
1605412505942747761 , 1465 , 0 , 160 , 126 , 0 , 87 , 180 , 2130 , 378185300 , 33554432 , 18205 , 15990 , 3 , 53 , 40.0067877679 , 116.328206903 , 52.0602000989 , -9.69999980927 , 1.61209326046 , 0.26446855979 , 0.00861572412631 , -1.02641262363 , 1.72677487148 , 10.1187672512 , 0.530157744884 , 0.485311865807 , 1.06864881516 , 0.0299365092069 , 0.0242538712919 , 0.0335953235626 , 0.0400335974991 , 0.0426714234054 , 0.0726908221841 , 251660754 , 0
1605412505980558237 , 1465 , 0 , 160 , 126 , 0 , 87 , 180 , 2130 , 378185320 , 33554432 , 18205 , 15990 , 3 , 53 , 40.0067880536 , 116.328206962 , 52.0599705596 , -9.69999980927 , 1.6129879244 , 0.269933586954 , 0.00953280504762 , -1.02415875133 , 1.7390785799 , 10.0632550504 , 0.530157744884 , 0.485311865807 , 1.06864881516 , 0.0299365092069 , 0.0242538712919 , 0.0335953235626 , 0.0400335974991 , 0.0426714234054 , 0.0726908221841 , 251660754 , 0
1605412506021675983 , 1465 , 0 , 160 , 126 , 0 , 87 , 180 , 2130 , 378185340 , 33554432 , 18205 , 15990 , 3 , 53 , 40.006788341 , 116.328207022 , 52.0598577987 , -9.69999980927 , 1.61550070722 , 0.272174132978 , 0.0102284621592 , -1.01844964289 , 1.75428831961 , 10.0051938384 , 0.530157744884 , 0.485311865807 , 1.06864881516 , 0.0299365092069 , 0.0242538712919 , 0.0335953235626 , 0.0400335974991 , 0.0426714234054 , 0.0726908221841 , 251660754 , 0
1605412506060915728 , 1465 , 0 , 160 , 126 , 0 , 87 , 180 , 2130 , 378185360 , 33554432 , 18205 , 15990 , 3 , 53 , 40.0067886276 , 116.328207083 , 52.059604954 , -9.69999980927 , 1.61800443537 , 0.275110445542 , 0.0103593620372 , -1.01500840698 , 1.76401761601 , 9.94347811153 , 0.530157744884 , 0.485311865807 , 1.06864881516 , 0.0299365092069 , 0.0242538712919 , 0.0335953235626 , 0.0400335974991 , 0.0426714234054 , 0.0726908221841 , 251660754 , 0
1605412506101712634 , 1465 , 0 , 160 , 126 , 0 , 87 , 180 , 2130 , 378185380 , 33554432 , 18205 , 15990 , 3 , 53 , 40.0067889172 , 116.328207143 , 52.0596352806 , -9.69999980927 , 1.63082149423 , 0.267364717122 , 0.0200810425286 , -1.01106377015 , 1.77472406572 , 9.88307550487 , 0.530157744884 , 0.485311865807 , 1.06864881516 , 0.0299365092069 , 0.0242538712919 , 0.0335953235626 , 0.0400335974991 , 0.0426714234054 , 0.0726908221841 , 251660754 , 0
1605412506145797763 , 1465 , 0 , 160 , 126 , 0 , 87 , 180 , 2130 , 378185400 , 33554432 , 18205 , 15990 , 3 , 53 , 40.0067892064 , 116.328207206 , 52.0595233478 , -9.69999980927 , 1.63093494369 , 0.283500674794 , 0.0188975891829 , -1.0064234695 , 1.7817836071 , 9.81951920444 , 0.530157744884 , 0.485311865807 , 1.06864881516 , 0.0299365092069 , 0.0242538712919 , 0.0335953235626 , 0.0400335974991 , 0.0426714234054 , 0.0726908221841 , 251660754 , 0
1605412506182312846 , 1465 , 0 , 160 , 126 , 0 , 87 , 180 , 2130 , 378185420 , 33554432 , 18205 , 15990 , 3 , 53 , 40.0067894968 , 116.328207268 , 52.0595790222 , -9.69999980927 , 1.63074841215 , 0.280808399831 , 0.0175111255588 , -0.999385063343 , 1.78586740558 , 9.75516752356 , 0.530157744884 , 0.485311865807 , 1.06864881516 , 0.0299365110695 , 0.0242538712919 , 0.0335953235626 , 0.0400335974991 , 0.0426714234054 , 0.0726908221841 , 251660754 , 0
1605412506223738824 , 1465 , 0 , 160 , 126 , 0 , 87 , 180 , 2130 , 378185440 , 33554432 , 18205 , 15990 , 3 , 53 , 40.0067897882 , 116.328207332 , 52.0595071614 , -9.69999980927 , 1.64464510288 , 0.281198097099 , 0.0226015703292 , -0.987938743061 , 1.78995486905 , 9.69144203534 , 0.530157744884 , 0.485311865807 , 1.06864881516 , 0.0299365110695 , 0.0242538712919 , 0.0335953235626 , 0.0400335974991 , 0.0426714234054 , 0.0726908221841 , 251660754 , 0
1605412506262625154 , 1465 , 0 , 160 , 126 , 0 , 87 , 180 , 2130 , 378185460 , 33554432 , 18205 , 15990 , 3 , 53 , 40.0067900815 , 116.328207395 , 52.0596267264 , -9.69999980927 , 1.64949166253 , 0.279715627578 , 0.0219214902267 , -0.986506253662 , 1.79155985621 , 9.62806528954 , 0.530157744884 , 0.485311865807 , 1.06864881516 , 0.0299365110695 , 0.0242538712919 , 0.0335953235626 , 0.0400335974991 , 0.0426714234054 , 0.0726908221841 , 251660754 , 0
1605412506305669798 , 1465 , 0 , 160 , 126 , 0 , 87 , 180 , 2130 , 378185480 , 33554432 , 18205 , 15990 , 3 , 53 , 40.0067903746 , 116.328207457 , 52.059684773 , -9.69999980927 , 1.65407996684 , 0.274700420274 , 0.0280973568812 , -0.982981687655 , 1.79176786941 , 9.56429130917 , 0.530157744884 , 0.485311865807 , 1.06864881516 , 0.0299365110695 , 0.0242538712919 , 0.0335953235626 , 0.0400335974991 , 0.0426714234054 , 0.0726908221841 , 251660754 , 0
1605412506343551475 , 1465 , 0 , 160 , 126 , 0 , 87 , 180 , 2130 , 378185500 , 33554432 , 18205 , 15990 , 3 , 53 , 40.0067906703 , 116.328207519 , 52.0598750329 , -9.69999980927 , 1.66195902802 , 0.27610444261 , 0.0246000726349 , -0.976630147909 , 1.79001891708 , 9.50481101229 , 0.530157744884 , 0.485311865807 , 1.06864881516 , 0.0299365110695 , 0.0242538712919 , 0.0335953235626 , 0.0400335974991 , 0.0426714234054 , 0.0726908221841 , 251660754 , 0
1605412506384313368 , 1465 , 0 , 160 , 126 , 0 , 87 , 180 , 2130 , 378185520 , 33554432 , 18205 , 15990 , 3 , 53 , 40.0067909652 , 116.328207578 , 52.06009595 , -9.69999980927 , 1.66236390973 , 0.265444806821 , 0.0338015327385 , -0.970759468771 , 1.78554613487 , 9.45011391116 , 0.530157744884 , 0.485311865807 , 1.06864881516 , 0.0299365110695 , 0.0242538712919 , 0.0335953235626 , 0.0400335974991 , 0.0426714234054 , 0.0726908221841 , 251660754 , 0
1605412506421874638 , 1465 , 0 , 160 , 126 , 0 , 87 , 180 , 2130 , 378185540 , 33554432 , 18205 , 15990 , 3 , 53 , 40.0067912626 , 116.328207639 , 52.0604304457 , -9.69999980927 , 1.67146922763 , 0.269060478167 , 0.0331598028284 , -0.962299842557 , 1.77729899664 , 9.3959426347 , 0.530157744884 , 0.485311865807 , 1.06864881516 , 0.0299365110695 , 0.0242538712919 , 0.0335953235626 , 0.0400335974991 , 0.0426714234054 , 0.0726908221841 , 251660754 , 0
1605412506463870175 , 1465 , 0 , 160 , 126 , 0 , 87 , 180 , 2130 , 378185560 , 33554432 , 18205 , 15990 , 3 , 53 , 40.0067915604 , 116.328207697 , 52.0607347153 , -9.69999980927 , 1.67895919722 , 0.260863007966 , 0.0364867223103 , -0.960139670817 , 1.76902540893 , 9.34530086384 , 0.530157744884 , 0.485311865807 , 1.06864881516 , 0.0299365110695 , 0.0242538712919 , 0.0335953235626 , 0.0400335974991 , 0.0426714234054 , 0.0726908221841 , 251660754 , 0
1605412506504820641 , 1465 , 0 , 160 , 126 , 0 , 87 , 180 , 2130 , 378185580 , 33554432 , 18205 , 15990 , 3 , 53 , 40.0067918599 , 116.328207755 , 52.0611706404 , -9.69999980927 , 1.68070357871 , 0.25401569518 , 0.037953835547 , -0.95547551763 , 1.76146728361 , 9.29366801103 , 0.530157744884 , 0.485311865807 , 1.06864881516 , 0.0299365110695 , 0.0242538712919 , 0.0335953235626 , 0.0400335974991 , 0.0426714234054 , 0.0726908221841 , 251660754 , 0
1605412506542466610 , 1465 , 0 , 160 , 126 , 0 , 87 , 180 , 2130 , 378185600 , 33554432 , 18205 , 15990 , 3 , 53 , 40.0067921594 , 116.328207811 , 52.0614648759 , -9.69999980927 , 1.68770194363 , 0.254430524329 , 0.0345391162469 , -0.956277082514 , 1.75100867121 , 9.24439749841 , 0.530157744884 , 0.485311865807 , 1.06864881516 , 0.0299365110695 , 0.0242538712919 , 0.0335953235626 , 0.0400335974991 , 0.0426714234054 , 0.0726908221841 , 251660754 , 0
1605412506584341999 , 1465 , 0 , 160 , 126 , 0 , 87 , 180 , 2130 , 378185620 , 33554432 , 18205 , 15990 , 3 , 53 , 40.0067924604 , 116.328207867 , 52.0618221527 , -9.69999980927 , 1.68855193245 , 0.245938879255 , 0.0310741085122 , -0.954097180221 , 1.74307504864 , 9.194846818 , 0.530157744884 , 0.485311865807 , 1.06864881516 , 0.0299365110695 , 0.0242538712919 , 0.0335953235626 , 0.0400335974991 , 0.0426714234054 , 0.0726908221841 , 251660754 , 0
1605412506623745260 , 1465 , 0 , 160 , 126 , 0 , 87 , 180 , 2130 , 378185640 , 33554432 , 18205 , 15990 , 3 , 53 , 40.0067927608 , 116.328207924 , 52.0619481057 , -9.69999980927 , 1.69145776508 , 0.256489496748 , 0.026468536727 , -0.95132677469 , 1.73584345395 , 9.14320109713 , 0.530157744884 , 0.485311865807 , 1.06864881516 , 0.0299365110695 , 0.0242538712919 , 0.0335953235626 , 0.0400335974991 , 0.0426714234054 , 0.0726908221841 , 251660754 , 0
1605412506662086793 , 1465 , 0 , 160 , 126 , 0 , 87 , 180 , 2130 , 378185660 , 33554432 , 18205 , 15990 , 3 , 53 , 40.0067930631 , 116.32820798 , 52.0622832887 , -9.69999980927 , 1.69559493167 , 0.249628493567 , 0.0323234233695 , -0.947962447814 , 1.73029566294 , 9.09065807692 , 0.530157744884 , 0.485311865807 , 1.06864881516 , 0.0299365110695 , 0.0242538712919 , 0.0335953235626 , 0.0400335974991 , 0.0426714234054 , 0.0726908221841 , 251660754 , 0
1605412506704078596 , 1465 , 0 , 160 , 126 , 0 , 87 , 180 , 2130 , 378185680 , 33554432 , 18205 , 15990 , 3 , 53 , 40.0067933646 , 116.328208038 , 52.0623100502 , -9.69999980927 , 1.69566461701 , 0.26293318425 , 0.0240546348004 , -0.937901207335 , 1.72683289447 , 9.03269764562 , 0.530157744884 , 0.485311865807 , 1.06864881516 , 0.0299365110695 , 0.0242538712919 , 0.0335953235626 , 0.0400335974991 , 0.0426714234054 , 0.0726908221841 , 251660754 , 0
1605412506745711820 , 1465 , 0 , 160 , 126 , 0 , 87 , 180 , 2130 , 378185700 , 33554432 , 18205 , 15990 , 3 , 53 , 40.0067936681 , 116.328208097 , 52.0624847803 , -9.69999980927 , 1.70289273883 , 0.259143946869 , 0.0218843830393 , -0.932750558776 , 1.71982778137 , 8.97328876068 , 0.530157744884 , 0.485311865807 , 1.06864881516 , 0.0299365110695 , 0.0242538712919 , 0.0335953235626 , 0.0400335974991 , 0.0426714234054 , 0.0726908221841 , 251660754 , 0
1605412506784030080 , 1465 , 0 , 160 , 126 , 0 , 87 , 180 , 2130 , 378185720 , 33554432 , 18205 , 15990 , 3 , 53 , 40.0067939713 , 116.328208155 , 52.0624649767 , -9.69999980927 , 1.70622189949 , 0.257996208375 , 0.0215841009709 , -0.926411336399 , 1.71197195597 , 8.90907684932 , 0.530157744884 , 0.485311865807 , 1.06864881516 , 0.0299365110695 , 0.0242538712919 , 0.0335953235626 , 0.0400335974991 , 0.0426714234054 , 0.0726908221841 , 251660754 , 0
1605412506824600100 , 1465 , 0 , 160 , 126 , 0 , 87 , 180 , 2130 , 378185740 , 33554432 , 18205 , 15990 , 3 , 53 , 40.0067942766 , 116.328208214 , 52.0625724429 , -9.69999980927 , 1.71285129545 , 0.265328506342 , 0.0185180936273 , -0.923569769284 , 1.702304787 , 8.84500733708 , 0.530157744884 , 0.485311865807 , 1.06864881516 , 0.0299365110695 , 0.0242538712919 , 0.0335953235626 , 0.0400335974991 , 0.0426714234054 , 0.0726908221841 , 251660754 , 0
1605412506864868298 , 1465 , 0 , 160 , 126 , 0 , 87 , 180 , 2130 , 378185760 , 33554432 , 18205 , 15990 , 3 , 53 , 40.006794581 , 116.328208272 , 52.0624574712 , -9.69999980927 , 1.71165798352 , 0.256533797096 , 0.0158042226222 , -0.917211599483 , 1.6968311996 , 8.77842091042 , 0.530157744884 , 0.485311865807 , 1.06864881516 , 0.0299365110695 , 0.0242538712919 , 0.0335953235626 , 0.0400335974991 , 0.0426714234054 , 0.0726908221841 , 251660754 , 0
1605412506902015049 , 1465 , 0 , 160 , 126 , 0 , 87 , 180 , 2130 , 378185780 , 33554432 , 18205 , 15990 , 3 , 53 , 40.0067948875 , 116.328208332 , 52.0623965878 , -9.69999980927 , 1.71826169061 , 0.263800328745 , 0.00975496663769 , -0.915044628238 , 1.69035813723 , 8.71108661877 , 0.530157744884 , 0.485311865807 , 1.06864881516 , 0.0299365110695 , 0.0242538712919 , 0.0335953235626 , 0.0400335974991 , 0.0426714234054 , 0.0726908221841 , 251660754 , 0
1605412506945525862 , 1465 , 0 , 160 , 126 , 0 , 87 , 180 , 2130 , 378185800 , 33554432 , 18205 , 15990 , 3 , 53 , 40.006795194 , 116.328208388 , 52.062265967 , -9.69999980927 , 1.72364582358 , 0.253667548394 , 0.0148612077097 , -0.913829470619 , 1.68307776102 , 8.64265157833 , 0.530157744884 , 0.485311865807 , 1.06864881516 , 0.0299365110695 , 0.0242538712919 , 0.0335953235626 , 0.0400335974991 , 0.0426714234054 , 0.0726908221841 , 251660754 , 0
1605412506981951106 , 1465 , 0 , 160 , 126 , 0 , 87 , 180 , 2130 , 378185820 , 33554432 , 18205 , 15990 , 3 , 53 , 40.0067955009 , 116.328208446 , 52.0621451624 , -9.69999980927 , 1.7176330513 , 0.252850799092 , 0.00643939348553 , -0.915546230799 , 1.67602245894 , 8.57426037966 , 0.530157804489 , 0.485311865807 , 1.06864881516 , 0.0299365110695 , 0.0242538712919 , 0.0335953235626 , 0.0400335974991 , 0.0426714234054 , 0.0726908221841 , 251660754 , 0
1605412507024126031 , 1465 , 0 , 160 , 126 , 0 , 87 , 180 , 2130 , 378185840 , 33554432 , 18205 , 15990 , 3 , 53 , 40.0067958069 , 116.328208502 , 52.0619458891 , -9.69999980927 , 1.72010972877 , 0.251127391848 , 0.0109499948401 , -0.916434799744 , 1.66897004785 , 8.50757310534 , 0.530157804489 , 0.485311865807 , 1.06864881516 , 0.0299365110695 , 0.0242538712919 , 0.0335953235626 , 0.0400335974991 , 0.0426714234054 , 0.0726908221841 , 251660754 , 0
1605412507061753375 , 1465 , 0 , 160 , 126 , 0 , 87 , 180 , 2130 , 378185860 , 33554432 , 18205 , 15990 , 3 , 53 , 40.0067961146 , 116.328208559 , 52.061940914 , -9.69999980927 , 1.7236028213 , 0.255350594574 , 0.0167997270695 , -0.908191840936 , 1.6671719303 , 8.44349309527 , 0.530157804489 , 0.485311865807 , 1.06864881516 , 0.0299365110695 , 0.0242538712919 , 0.0335953235626 , 0.0400335974991 , 0.0426714234054 , 0.0726908221841 , 251660754 , 0
1605412507105095259 , 1465 , 0 , 160 , 126 , 0 , 87 , 180 , 2130 , 378185880 , 33554432 , 18205 , 15990 , 3 , 53 , 40.0067964208 , 116.328208615 , 52.0618738262 , -9.69999980927 , 1.71896224275 , 0.254396475325 , 0.0190247117042 , -0.891607308555 , 1.66196860548 , 8.38586198573 , 0.530157804489 , 0.485311865807 , 1.06864881516 , 0.0299365110695 , 0.0242538712919 , 0.0335953235626 , 0.0400335974991 , 0.0426714234054 , 0.0726908221841 , 251660754 , 0
