time, .header.id, .header.msg_type, .header.port_addr, .header.length, .header.sequence, .header.idle_time, .header.time_status, .header.gps_week, .header.gps_week_seconds, .header.receiver_status, .header.reserved, .header.software_version, .ins_status, .position_type, .latitude, .longitude, .altitude, .undulation, .north_velocity, .east_velocity, .up_velocity, .roll, .pitch, .azimuth, .latitude_std, .longitude_std, .altitude_std, .north_velocity_std, .east_velocity_std, .up_velocity_std, .roll_std, .pitch_std, .azimuth_std, .extended_status, .seconds_since_update
1.63715E+18,1465,0,160,126,0,76,180,2183,270001420,33554432,18205,15990,3,56,40.00690177,116.3280129,50.29499137,-9.699999809,0.013163173,0.226100448,0.00343091,-1.218968271,1.598604993,88.70782655,0.039627396,0.039284352,0.038247544,0.026395602,0.026275946,0.017819026,0.042444471,0.042480934,0.21293281,251920449,0
1.63715E+18,1465,0,160,126,0,76,180,2183,270001440,33554432,18205,15990,3,56,40.00690177,116.3280129,50.29501746,-9.699999809,0.00891256,0.242859547,-0.003662976,-1.222581744,1.599357695,88.71178996,0.039627396,0.039284352,0.038247544,0.026395602,0.026275946,0.017819026,0.042444471,0.042480934,0.21293281,251920449,0
1.63715E+18,1465,0,160,126,0,76,180,2183,270001460,33554432,18205,15990,3,56,40.00690177,116.328013,50.29508636,-9.699999809,0.014405436,0.25656821,0.002016827,-1.223738717,1.607271699,88.7112366,0.039627396,0.039284352,0.038247544,0.026395602,0.026275946,0.017819026,0.042444471,0.042480934,0.21293281,251920449,0
1.63715E+18,1465,0,160,126,0,76,180,2183,270001480,33554432,18205,15990,3,56,40.00690177,116.328013,50.29502183,-9.699999809,0.00154412,0.274989546,-0.008913063,-1.228253739,1.612306913,88.71291571,0.039627396,0.039284352,0.038247544,0.026395602,0.026275946,0.017819026,0.042444471,0.042480934,0.21293281,251920449,0
1.63715E+18,1465,0,160,126,0,76,180,2183,270001500,33554432,18205,15990,3,56,40.00690177,116.3280131,50.29508623,-9.699999809,0.011538711,0.290926884,0.000299581,-1.230271617,1.619118017,88.7122173,0.039627396,0.039284352,0.038247544,0.026395602,0.026275946,0.017819026,0.042444471,0.042480934,0.21293281,251920449,0
1.63715E+18,1465,0,160,126,0,76,180,2183,270001520,33554432,18205,15990,3,56,40.00690176,116.3280132,50.29499101,-9.699999809,0.00250825,0.308552469,-0.009307876,-1.232823926,1.626718337,88.71118336,0.039627396,0.039284352,0.038247544,0.026395602,0.026275946,0.017819026,0.042444471,0.042480934,0.21293281,251920449,0
1.63715E+18,1465,0,160,126,0,76,180,2183,270001540,33554432,18205,15990,3,56,40.00690176,116.3280132,50.29506852,-9.699999809,0.006228102,0.325645502,-0.001101089,-1.236120135,1.632983332,88.71188209,0.039627396,0.039284352,0.038247544,0.026395602,0.026275946,0.017819026,0.042444471,0.042480934,0.21293281,251920449,0
1.63715E+18,1465,0,160,126,0,76,180,2183,270001560,33554432,18205,15990,3,56,40.00690176,116.3280133,50.2950584,-9.699999809,0.008811158,0.339635616,-0.0024582,-1.239241425,1.638919918,88.71087141,0.039627396,0.039284352,0.038247544,0.026395602,0.026275946,0.017819026,0.042444471,0.042480934,0.21293281,251920449,0
1.63715E+18,1465,0,160,126,0,76,180,2183,270001580,33554432,18205,15990,3,56,40.00690176,116.3280134,50.29521315,-9.699999809,0.004721794,0.356613547,0.004259172,-1.242681269,1.641086705,88.71118683,0.039627396,0.039284352,0.038247544,0.026395602,0.026275946,0.017819026,0.042444471,0.042480934,0.21293281,251920449,0
1.63715E+18,1465,0,160,126,0,76,180,2183,270001600,33554432,18205,15990,3,56,40.00690176,116.3280135,50.29540059,-9.699999809,0.010755831,0.373967064,0.009107581,-1.248669064,1.639690102,88.71100306,0.039627396,0.039284352,0.038247544,0.026395602,0.026275946,0.017819026,0.042444471,0.042480934,0.21293281,251920449,0
1.63715E+18,1465,0,160,126,0,76,180,2183,270001620,33554432,18205,15990,3,56,40.00690176,116.3280136,50.29571215,-9.699999809,0.010073818,0.386176925,0.013604139,-1.252771809,1.635291416,88.71107427,0.039627396,0.039284352,0.038247544,0.026395602,0.026275946,0.017819026,0.042444471,0.042480934,0.21293281,251920449,0
1.63715E+18,1465,0,160,126,0,76,180,2183,270001640,33554432,18205,15990,3,56,40.00690176,116.3280137,50.29606304,-9.699999809,0.006652276,0.402338992,0.01650277,-1.258477671,1.628004848,88.71168952,0.039627396,0.039284352,0.038247544,0.026395602,0.026275946,0.017819026,0.042444471,0.042480934,0.21293281,251920449,0
1.63715E+18,1465,0,160,126,0,76,180,2183,270001660,33554432,18205,15990,3,56,40.00690176,116.3280138,50.296497,-9.699999809,0.013079785,0.414994278,0.01909141,-1.265024476,1.617540694,88.71180486,0.039627396,0.039284352,0.038247544,0.026395602,0.026275946,0.017819026,0.042444471,0.042480934,0.21293281,251920449,0
1.63715E+18,1465,0,160,126,0,76,180,2183,270001680,33554432,18205,15990,3,56,40.00690176,116.3280139,50.29692566,-9.699999809,0.006345322,0.426467638,0.019798747,-1.270752716,1.608193889,88.71138655,0.039627396,0.039284352,0.038247544,0.026395602,0.026275946,0.017819026,0.042444471,0.042480934,0.21293281,251920449,0
1.63715E+18,1465,0,160,126,0,76,180,2183,270001700,33554432,18205,15990,3,56,40.00690176,116.328014,50.29742446,-9.699999809,0.009021605,0.440612229,0.02081259,-1.277888751,1.595078466,88.71122648,0.039627396,0.039284352,0.038247544,0.026395602,0.026275946,0.017819026,0.042444471,0.042480934,0.21293281,251920449,0
1.63715E+18,1465,0,160,126,0,76,180,2183,270001720,33554432,18205,15990,3,56,40.00690177,116.3280141,50.29790011,-9.699999809,0.012050496,0.454278019,0.022072192,-1.284599075,1.584479109,88.71047209,0.039627396,0.039284352,0.038247544,0.026395602,0.026275946,0.017819026,0.042444471,0.042480934,0.21293281,251920449,0
1.63715E+18,1465,0,160,126,0,76,180,2183,270001740,33554432,18205,15990,3,56,40.00690176,116.3280142,50.29840868,-9.699999809,0.00689776,0.465841641,0.02083146,-1.291727993,1.573165853,88.70923848,0.039627396,0.039284352,0.038247544,0.026395602,0.026275946,0.017819026,0.042444471,0.042480934,0.21293281,251920449,0
1.63715E+18,1465,0,160,126,0,76,180,2183,270001760,33554432,18205,15990,3,56,40.00690177,116.3280143,50.29891622,-9.699999809,0.012034595,0.478683632,0.023247256,-1.300597729,1.561754002,88.70762192,0.039627396,0.039284352,0.038247544,0.026395602,0.026275946,0.017819026,0.042444471,0.042480934,0.21293281,251920449,0
1.63715E+18,1465,0,160,126,0,76,180,2183,270001780,33554432,18205,15990,3,56,40.00690177,116.3280144,50.29939663,-9.699999809,0.00797498,0.490755931,0.020419928,-1.307599897,1.554234396,88.70404164,0.039627396,0.039284352,0.038247544,0.026395602,0.026275946,0.017819026,0.042444471,0.042480934,0.21293281,251920449,0
1.63715E+18,1465,0,160,126,0,76,180,2183,270001800,33554432,18205,15990,3,56,40.00690177,116.3280145,50.2998441,-9.699999809,0.005171398,0.503946051,0.019168194,-1.315703165,1.546835063,88.70207719,0.039627396,0.039284352,0.038247544,0.026395602,0.026275946,0.017819026,0.042444471,0.042480934,0.21293281,251920449,0
1.63715E+18,1465,0,160,126,0,76,180,2183,270001820,33554432,18205,15990,3,56,40.00690176,116.3280146,50.30027561,-9.699999809,0.009073251,0.51706334,0.017549303,-1.321852555,1.541074021,88.69808489,0.039627396,0.039284352,0.038247544,0.026395602,0.026275946,0.017819026,0.042444471,0.042480934,0.21293281,251920449,0
1.63715E+18,1465,0,160,126,0,76,180,2183,270001840,33554432,18205,15990,3,56,40.00690176,116.3280148,50.30060669,-9.699999809,0.000771176,0.530564532,0.012525445,-1.327767923,1.535466217,88.69512359,0.039627396,0.039284352,0.038247544,0.026395602,0.026275946,0.017819026,0.042444471,0.042480934,0.21293281,251920449,0
1.63715E+18,1465,0,160,126,0,76,180,2183,270001860,33554432,18205,15990,3,56,40.00690176,116.3280149,50.30097663,-9.699999809,0.00667091,0.54466117,0.012579767,-1.33576584,1.530505108,88.69272555,0.039627396,0.039284352,0.038247544,0.026395602,0.026275946,0.017819026,0.042444471,0.042480934,0.21293281,251920449,0
1.63715E+18,1465,0,160,126,0,76,180,2183,270001880,33554432,18205,15990,3,56,40.00690176,116.328015,50.30126162,-9.699999809,0.007542149,0.557047476,0.011448919,-1.343660059,1.526311002,88.68907179,0.039627396,0.039284352,0.038247544,0.026395602,0.026275946,0.017819026,0.042444471,0.042480934,0.21293281,251920449,0
1.63715E+18,1465,0,160,126,0,76,180,2183,270001900,33554432,18205,15990,3,56,40.00690176,116.3280151,50.30156113,-9.699999809,0.002864247,0.573842179,0.009717589,-1.351967225,1.519628458,88.68754542,0.039627396,0.039284352,0.038247544,0.026395602,0.026275946,0.017819026,0.042444471,0.042480934,0.21293281,251920449,0
1.63715E+18,1465,0,160,126,0,76,180,2183,270001920,33554432,18205,15990,3,56,40.00690176,116.3280153,50.3018341,-9.699999809,0.012030672,0.587132601,0.01153428,-1.36054283,1.514925362,88.68537638,0.039627396,0.039284352,0.038247544,0.026395602,0.026275946,0.017819026,0.042444471,0.042480934,0.21293281,251920449,0
1.63715E+18,1465,0,160,126,0,76,180,2183,270001940,33554432,18205,15990,3,56,40.00690176,116.3280154,50.30204904,-9.699999809,0.004695363,0.60090904,0.007077943,-1.366857394,1.509982581,88.68425714,0.039627396,0.039284352,0.038247544,0.026395602,0.026275946,0.017819026,0.042444471,0.042480934,0.21293281,251920449,0
1.63715E+18,1465,0,160,126,0,76,180,2183,270001960,33554432,18205,15990,3,56,40.00690176,116.3280156,50.30225416,-9.699999809,0.005794668,0.615995936,0.006834848,-1.372211711,1.503326963,88.68552133,0.039627396,0.039284352,0.038247544,0.026395602,0.026275946,0.017819026,0.042444471,0.042480934,0.21293281,251920449,0
1.63715E+18,1465,0,160,126,0,76,180,2183,270001980,33554432,18205,15990,3,56,40.00690176,116.3280157,50.30240733,-9.699999809,0.006679552,0.6288809,0.004748279,-1.374800855,1.501358407,88.68466777,0.039627396,0.039284352,0.038247544,0.026395602,0.026275946,0.017819026,0.042444471,0.042480934,0.21293281,251920449,0
1.63715E+18,1465,0,160,126,0,76,180,2183,270002000,33554432,18205,15990,3,56,40.00690176,116.3280158,50.3025091,-9.699999809,-0.000137891,0.644797487,0.001110277,-1.378421059,1.497742416,88.68553418,0.039627396,0.039284352,0.038247544,0.026395602,0.026275946,0.017819026,0.042444471,0.042480934,0.21293281,251920449,0
1.63715E+18,1465,0,160,126,0,76,180,2183,270002020,33554432,18205,15990,3,56,40.00690176,116.328016,50.30259573,-9.699999809,0.00743459,0.657736931,0.000242019,-1.383375113,1.496326456,88.68650644,0.06252031,0.062038448,0.053726032,0.034264661,0.034039214,0.021711934,0.043305416,0.043343604,0.213267371,251920449,0
1.63715E+18,1465,0,160,126,0,76,180,2183,270002040,33554432,18205,15990,3,56,40.00690176,116.3280162,50.30259956,-9.699999809,0.005077536,0.672082331,-0.004984819,-1.390828958,1.49616967,88.68618753,0.039526738,0.039186195,0.038217261,0.025693247,0.025479114,0.017812265,0.039334252,0.039368089,0.213183388,251666497,0
1.63715E+18,1465,0,160,126,0,76,180,2183,270002060,33554432,18205,15990,3,56,40.00690176,116.3280163,50.30263758,-9.699999809,0.003305221,0.686803025,-0.005542272,-1.401375506,1.495751209,88.68728432,0.039526738,0.039186195,0.038217261,0.025693247,0.025479114,0.017812265,0.039334252,0.039368089,0.213183388,251666497,0
1.63715E+18,1465,0,160,126,0,76,180,2183,270002080,33554432,18205,15990,3,56,40.00690176,116.3280165,50.3026298,-9.699999809,0.007026097,0.700085313,-0.00387047,-1.409432222,1.497905125,88.68730155,0.039526738,0.039186195,0.038217261,0.025693247,0.025479114,0.017812265,0.039334252,0.039368089,0.213183388,251666497,0
1.63715E+18,1465,0,160,126,0,76,180,2183,270002100,33554432,18205,15990,3,56,40.00690176,116.3280166,50.30265138,-9.699999809,-0.001891866,0.718418925,-0.004479039,-1.414900552,1.49695914,88.68922504,0.039526738,0.039186195,0.038217261,0.025693247,0.025479114,0.017812265,0.039334252,0.039368089,0.213183388,251666497,0
1.63715E+18,1465,0,160,126,0,76,180,2183,270002120,33554432,18205,15990,3,56,40.00690176,116.3280168,50.3026802,-9.699999809,0.00504931,0.73170597,-0.001803386,-1.419376293,1.495023113,88.69251454,0.039526738,0.039186195,0.038217261,0.025693247,0.025479114,0.017812265,0.039334252,0.039368089,0.213183388,251666497,0
1.63715E+18,1465,0,160,126,0,76,180,2183,270002140,33554432,18205,15990,3,56,40.00690176,116.328017,50.30267772,-9.699999809,0.00069245,0.745709154,-0.003973574,-1.419061372,1.495929213,88.69568221,0.039526738,0.039186195,0.038217261,0.025693247,0.025479114,0.017812265,0.039334252,0.039368089,0.213183388,251666497,0
1.63715E+18,1465,0,160,126,0,76,180,2183,270002160,33554432,18205,15990,3,56,40.00690176,116.3280172,50.30265554,-9.699999809,-0.002082539,0.761148494,-0.005738938,-1.420747119,1.493476294,88.70075823,0.039526738,0.039186195,0.038217261,0.025693247,0.025479114,0.017812265,0.039334252,0.039368089,0.213183388,251666497,0
1.63715E+18,1465,0,160,126,0,76,180,2183,270002180,33554432,18205,15990,3,56,40.00690176,116.3280173,50.30264458,-9.699999809,0.007631404,0.7740932,-0.004852674,-1.423467644,1.494025808,88.70422776,0.039526738,0.039186195,0.038217261,0.025693247,0.025479114,0.017812265,0.039334252,0.039368089,0.213183388,251666497,0
1.63715E+18,1465,0,160,126,0,76,180,2183,270002200,33554432,18205,15990,3,56,40.00690175,116.3280175,50.30261583,-9.699999809,-0.002252497,0.789833921,-0.004936832,-1.427993077,1.494380989,88.70897403,0.039526738,0.039186195,0.038217261,0.025693247,0.025479114,0.017812265,0.039334252,0.039368089,0.213183388,251666497,0
1.63715E+18,1465,0,160,126,0,76,180,2183,270002220,33554432,18205,15990,3,56,40.00690175,116.3280177,50.3027007,-9.699999809,0.002785466,0.808579663,-0.000551099,-1.433111023,1.491422998,88.71526131,0.039526738,0.039186195,0.038217261,0.025693247,0.025479114,0.017812265,0.039334252,0.039368089,0.213183388,251666497,0
1.63715E+18,1465,0,160,126,0,76,180,2183,270002240,33554432,18205,15990,3,56,40.00690175,116.3280179,50.30275839,-9.699999809,0.001827328,0.823976441,0.000451886,-1.437016138,1.491029138,88.72133739,0.039526738,0.039186195,0.038217261,0.025693247,0.025479114,0.017812265,0.039334252,0.039368089,0.213183388,251666497,0
1.63715E+18,1465,0,160,126,0,76,180,2183,270002260,33554432,18205,15990,3,56,40.00690175,116.3280181,50.30286857,-9.699999809,-0.002011756,0.837563758,-0.000105038,-1.441058521,1.48888501,88.72969119,0.039526738,0.039186195,0.038217261,0.025693247,0.025479114,0.017812265,0.039334252,0.039368089,0.213183388,251666497,0
1.63715E+18,1465,0,160,126,0,76,180,2183,270002280,33554432,18205,15990,3,56,40.00690175,116.3280183,50.30296957,-9.699999809,0.004061535,0.854639735,0.002009658,-1.444258535,1.485473092,88.73725907,0.039526738,0.039186195,0.038217261,0.025693247,0.025479114,0.017812265,0.039334252,0.039368089,0.213183388,251666497,0
1.63715E+18,1465,0,160,126,0,76,180,2183,270002300,33554432,18205,15990,3,56,40.00690175,116.3280185,50.30310512,-9.699999809,0.001213635,0.868051815,0.002933089,-1.44742459,1.48438294,88.7459889,0.039526738,0.039186195,0.038217261,0.025693247,0.025479114,0.017812265,0.039334252,0.039368089,0.213183388,251666497,0
1.63715E+18,1465,0,160,126,0,76,180,2183,270002320,33554432,18205,15990,3,56,40.00690175,116.3280187,50.3032532,-9.699999809,0.000127152,0.884525249,0.00437065,-1.452061725,1.482703343,88.75576555,0.039526738,0.039186195,0.038217261,0.025693247,0.025479114,0.017812265,0.039334252,0.039368089,0.213183388,251666497,0
1.63715E+18,1465,0,160,126,0,76,180,2183,270002340,33554432,18205,15990,3,56,40.00690175,116.3280189,50.30344036,-9.699999809,-0.00351864,0.895156849,0.00614576,-1.451832226,1.479331318,88.76500712,0.039526738,0.039186195,0.038217261,0.025693247,0.025479114,0.017812265,0.039334252,0.039368089,0.213183388,251666497,0
1.63715E+18,1465,0,160,126,0,76,180,2183,270002360,33554432,18205,15990,3,56,40.00690174,116.3280191,50.30360706,-9.699999809,-0.018773115,0.904131756,0.004844874,-1.445946539,1.478363963,88.77233813,0.039526738,0.039186195,0.038217261,0.025693247,0.025479114,0.017812265,0.039334252,0.039368089,0.213183388,251666497,0
1.63715E+18,1465,0,160,126,0,76,180,2183,270002380,33554432,18205,15990,3,56,40.00690174,116.3280193,50.30386278,-9.699999809,-0.016896756,0.920637531,0.008677041,-1.437331529,1.478159069,88.77747391,0.039526738,0.039186195,0.038217261,0.025693247,0.025479114,0.017812265,0.039334252,0.039368089,0.213183388,251666497,0
1.63715E+18,1465,0,160,126,0,76,180,2183,270002400,33554432,18205,15990,3,56,40.00690174,116.3280195,50.30412126,-9.699999809,-0.021133793,0.929902813,0.010415383,-1.426992432,1.476098752,88.78076645,0.039526738,0.039186195,0.038217261,0.025693247,0.025479114,0.017812265,0.039334252,0.039368089,0.213183388,251666497,0
1.63715E+18,1465,0,160,126,0,76,180,2183,270002420,33554432,18205,15990,3,56,40.00690173,116.3280198,50.3044066,-9.699999809,-0.024901405,0.940959873,0.009489126,-1.420287018,1.475760503,88.78187809,0.039526738,0.039186195,0.038217261,0.025693247,0.025479114,0.017812265,0.039334252,0.039368089,0.213183388,251666497,0
1.63715E+18,1465,0,160,126,0,76,180,2183,270002440,33554432,18205,15990,3,56,40.00690173,116.32802,50.30471414,-9.699999809,-0.017237908,0.952776998,0.012893082,-1.41346775,1.475108453,88.78277172,0.039526738,0.039186195,0.038217261,0.025693247,0.025479114,0.017812265,0.039334252,0.039368089,0.213183388,251666497,0
1.63715E+18,1465,0,160,126,0,76,180,2183,270002460,33554432,18205,15990,3,56,40.00690172,116.3280202,50.30499216,-9.699999809,-0.021645194,0.965163352,0.009640993,-1.407600563,1.476943704,88.78360386,0.039526738,0.039186195,0.038217261,0.025693247,0.025479114,0.017812265,0.039334252,0.039368089,0.213183388,251666497,0
1.63715E+18,1465,0,160,126,0,76,180,2183,270002480,33554432,18205,15990,3,56,40.00690172,116.3280204,50.30525835,-9.699999809,-0.015227168,0.98183095,0.00953841,-1.40556198,1.475259181,88.78776591,0.039526738,0.039186195,0.038217261,0.025693247,0.025479114,0.017812265,0.039334252,0.039368089,0.213183388,251666497,0
1.63715E+18,1465,0,160,126,0,76,180,2183,270002500,33554432,18205,15990,3,56,40.00690171,116.3280207,50.30552475,-9.699999809,-0.013207935,0.992977934,0.008839555,-1.403926783,1.473951025,88.79137833,0.039526738,0.039186195,0.038217261,0.025693247,0.025479114,0.017812265,0.039334252,0.039368089,0.213183388,251666497,0
1.63715E+18,1465,0,160,126,0,76,180,2183,270002520,33554432,18205,15990,3,56,40.00690171,116.3280209,50.30572398,-9.699999809,-0.013796493,1.007519791,0.00553489,-1.403010342,1.473426779,88.79868787,0.039526738,0.039186195,0.038217261,0.025693247,0.025479114,0.017812265,0.039334252,0.039368089,0.213183388,251666497,0
1.63715E+18,1465,0,160,126,0,76,180,2183,270002540,33554432,18205,15990,3,56,40.00690171,116.3280211,50.30594085,-9.699999809,-0.008096811,1.018488674,0.005527363,-1.403150748,1.472034046,88.81092942,0.039526738,0.039186195,0.038217261,0.025693247,0.025479114,0.017812265,0.039334252,0.039368089,0.213183388,251666497,0
1.63715E+18,1465,0,160,126,0,76,180,2183,270002560,33554432,18205,15990,3,56,40.0069017,116.3280214,50.30608621,-9.699999809,-0.012519347,1.027280321,0.003512233,-1.400189681,1.471449699,88.82160017,0.039526738,0.039186195,0.038217261,0.025693247,0.025479114,0.017812265,0.039334252,0.039368089,0.213183388,251666497,0
1.63715E+18,1465,0,160,126,0,76,180,2183,270002580,33554432,18205,15990,3,56,40.0069017,116.3280216,50.3062638,-9.699999809,-0.01952376,1.03594354,0.003137349,-1.395670901,1.470680839,88.83764099,0.039526738,0.039186195,0.038217261,0.025693247,0.025479114,0.017812265,0.039334252,0.039368089,0.213183388,251666497,0
1.63715E+18,1465,0,160,126,0,76,180,2183,270002600,33554432,18205,15990,3,56,40.0069017,116.3280219,50.30643028,-9.699999809,-0.017896301,1.044785317,0.00577953,-1.385727397,1.470100315,88.85416268,0.039526738,0.039186195,0.038217261,0.025693247,0.025479114,0.017812265,0.039334252,0.039368089,0.213183388,251666497,0
1.63715E+18,1465,0,160,126,0,76,180,2183,270002620,33554432,18205,15990,3,56,40.00690169,116.3280221,50.30665943,-9.699999809,-0.029718252,1.055750805,0.007212207,-1.370955487,1.470829132,88.87511369,0.039526738,0.039186195,0.038217261,0.025693247,0.025479114,0.017812265,0.039334252,0.039368089,0.213183388,251666497,0
1.63715E+18,1465,0,160,126,0,76,180,2183,270002640,33554432,18205,15990,3,56,40.00690169,116.3280224,50.30686599,-9.699999809,-0.028113108,1.064328313,0.007066301,-1.355469087,1.470136603,88.89762153,0.039526738,0.039186195,0.038217261,0.025693247,0.025479114,0.017812265,0.039334252,0.039368089,0.213183388,251666497,0
1.63715E+18,1465,0,160,126,0,76,180,2183,270002660,33554432,18205,15990,3,56,40.00690168,116.3280226,50.3070854,-9.699999809,-0.029898294,1.074369279,0.007308102,-1.339422263,1.47288584,88.92161397,0.039526738,0.039186195,0.038217261,0.025693247,0.025479114,0.017812265,0.039334252,0.039368089,0.213183388,251666497,0
1.63715E+18,1465,0,160,126,0,76,180,2183,270002680,33554432,18205,15990,3,56,40.00690167,116.3280229,50.30727332,-9.699999809,-0.036510247,1.085233767,0.005766733,-1.325427993,1.473565463,88.94881041,0.039526738,0.039186195,0.038217261,0.025693247,0.025479114,0.017812265,0.039334252,0.039368089,0.213183388,251666497,0
1.63715E+18,1465,0,160,126,0,76,180,2183,270002700,33554432,18205,15990,3,56,40.00690166,116.3280231,50.30753903,-9.699999809,-0.034415231,1.098315743,0.010289402,-1.31167619,1.476857763,88.97470409,0.039526738,0.039186195,0.038217261,0.025693247,0.025479114,0.017812265,0.039334252,0.039368089,0.213183388,251666497,0
1.63715E+18,1465,0,160,126,0,76,180,2183,270002720,33554432,18205,15990,3,56,40.00690166,116.3280234,50.30776101,-9.699999809,-0.0476761,1.109886005,0.007720394,-1.293820481,1.478148875,89.00201785,0.039526738,0.039186195,0.038217261,0.025693247,0.025479114,0.017812265,0.039334252,0.039368089,0.213183388,251666497,0
1.63715E+18,1465,0,160,126,0,76,180,2183,270002740,33554432,18205,15990,3,56,40.00690165,116.3280236,50.30796163,-9.699999809,-0.051947301,1.117398336,0.004050455,-1.273103744,1.480996821,89.0303161,0.039526738,0.039186195,0.038217261,0.025693247,0.025479114,0.017812265,0.039334252,0.039368089,0.213183388,251666497,0
1.63715E+18,1465,0,160,126,0,76,180,2183,270002760,33554432,18205,15990,3,56,40.00690164,116.3280239,50.3080614,-9.699999809,-0.055415033,1.125303901,0.000629603,-1.247393406,1.489640089,89.05759942,0.039526738,0.039186195,0.038217261,0.025693247,0.025479114,0.017812265,0.039334252,0.039368089,0.213183388,251666497,0
1.63715E+18,1465,0,160,126,0,76,180,2183,270002780,33554432,18205,15990,3,56,40.00690162,116.3280242,50.30813811,-9.699999809,-0.061322845,1.137400373,-0.002152565,-1.218788696,1.497906245,89.08610031,0.039526738,0.039186195,0.038217261,0.025693247,0.025479114,0.017812265,0.039334252,0.039368089,0.213183388,251666497,0
1.63715E+18,1465,0,160,126,0,76,180,2183,270002800,33554432,18205,15990,3,56,40.00690161,116.3280244,50.30817169,-9.699999809,-0.048341846,1.147543565,-0.001822951,-1.194824923,1.506653898,89.11399896,0.039526738,0.039186195,0.038217261,0.025693247,0.025479114,0.017812265,0.039334252,0.039368089,0.213183388,251666497,0
1.63715E+18,1465,0,160,126,0,76,180,2183,270002820,33554432,18205,15990,3,56,40.0069016,116.3280247,50.30816317,-9.699999809,-0.054022175,1.157765794,-0.00522782,-1.172623762,1.518720394,89.14237864,0.039526738,0.039186195,0.038217261,0.025693247,0.025479114,0.017812265,0.039334252,0.039368089,0.213183388,251666497,0
1.63715E+18,1465,0,160,126,0,76,180,2183,270002840,33554432,18205,15990,3,56,40.00690159,116.328025,50.30814966,-9.699999809,-0.050463122,1.169927038,-0.003873927,-1.15411667,1.529677658,89.17113747,0.039526738,0.039186195,0.038217261,0.025693247,0.025479114,0.017812265,0.039334252,0.039368089,0.213183388,251666497,0
1.63715E+18,1465,0,160,126,0,76,180,2183,270002860,33554432,18205,15990,3,56,40.00690158,116.3280252,50.3081755,-9.699999809,-0.043622737,1.181752812,-0.001221839,-1.138754523,1.53863962,89.19538633,0.039526738,0.039186195,0.038217261,0.025693247,0.025479114,0.017812265,0.039334252,0.039368089,0.213183388,251666497,0
1.63715E+18,1465,0,160,126,0,76,180,2183,270002880,33554432,18205,15990,3,56,40.00690157,116.3280255,50.30819649,-9.699999809,-0.051134574,1.195193814,-0.001551801,-1.124395197,1.54417659,89.2221515,0.039526738,0.039186195,0.038217261,0.025693247,0.025479114,0.017812265,0.039334252,0.039368089,0.213183388,251666497,0
1.63715E+18,1465,0,160,126,0,76,180,2183,270002900,33554432,18205,15990,3,56,40.00690157,116.3280258,50.30827857,-9.699999809,-0.035160684,1.207346385,0.000657543,-1.116131705,1.54937224,89.24753849,0.039526738,0.039186195,0.038217261,0.025693247,0.025479114,0.017812265,0.039334252,0.039368089,0.213183388,251666497,0
1.63715E+18,1465,0,160,126,0,76,180,2183,270002920,33554432,18205,15990,3,56,40.00690156,116.3280261,50.30830852,-9.699999809,-0.038176491,1.21770979,-0.00152794,-1.108503666,1.553496175,89.27225685,0.039526738,0.039186195,0.038217261,0.025693247,0.025479114,0.017812265,0.039334252,0.039368089,0.213183388,251666497,0
1.63715E+18,1465,0,160,126,0,76,180,2183,270002940,33554432,18205,15990,3,56,40.00690155,116.3280264,50.30842289,-9.699999809,-0.030017626,1.233201817,0.000908925,-1.104845332,1.556102198,89.30116969,0.039526738,0.039186195,0.038217261,0.025693247,0.025479114,0.017812265,0.039334252,0.039368089,0.213183388,251666497,0
1.63715E+18,1465,0,160,126,0,76,180,2183,270002960,33554432,18205,15990,3,56,40.00690155,116.3280267,50.30849996,-9.699999809,-0.018449057,1.241943344,0.001704532,-1.100252937,1.557571819,89.32862705,0.039526738,0.039186195,0.038217261,0.025693247,0.025479114,0.017812265,0.039334252,0.039368089,0.213183388,251666497,0
1.63715E+18,1465,0,160,126,0,76,180,2183,270002980,33554432,18205,15990,3,56,40.00690154,116.3280269,50.30859436,-9.699999809,-0.024172325,1.253799264,0.000355414,-1.100815685,1.55864345,89.36000525,0.039526738,0.039186195,0.038217261,0.025693247,0.025479114,0.017812265,0.039334252,0.039368089,0.213183388,251666497,0
1.63715E+18,1465,0,160,126,0,76,180,2183,270003000,33554432,18205,15990,3,56,40.00690154,116.3280272,50.30872042,-9.699999809,-0.006322455,1.267434467,0.004963441,-1.102517229,1.557939029,89.39111267,0.039526738,0.039186195,0.038217261,0.025693247,0.025479114,0.017812265,0.039334252,0.039368089,0.213183388,251666497,0
1.63715E+18,1465,0,160,126,0,76,180,2183,270003020,33554432,18205,15990,3,56,40.00690154,116.3280275,50.30884853,-9.699999809,-0.009573025,1.276684729,0.003722319,-1.110966275,1.556248691,89.42315534,0.061862662,0.061364815,0.053687103,0.033322267,0.032933269,0.021710439,0.043953586,0.043987244,0.214438125,251666497,0
1.63715E+18,1465,0,160,126,0,76,180,2183,270003040,33554432,18205,15990,3,56,40.00690153,116.3280278,50.30897767,-9.699999809,-0.007525067,1.288454416,0.006776139,-1.121123998,1.552149059,89.45757305,0.039379574,0.039037012,0.038342837,0.025147434,0.024792433,0.017843129,0.040767148,0.040819291,0.213989377,251666497,0
1.63715E+18,1465,0,160,126,0,76,180,2183,270003060,33554432,18205,15990,3,56,40.00690153,116.3280281,50.30905448,-9.699999809,-0.005068848,1.298015271,0.007301636,-1.131724392,1.548379401,89.49006998,0.039379574,0.039037012,0.038342837,0.025147434,0.024792433,0.017843129,0.040767148,0.040819291,0.213989377,251666497,0
1.63715E+18,1465,0,160,126,0,70,180,2183,270003080,33554432,18205,15990,3,56,40.00690152,116.3280284,50.30915118,-9.699999809,-0.015508161,1.308528612,0.006050747,-1.143342126,1.54289342,89.52544542,0.039379574,0.039037012,0.038342837,0.025147434,0.024792433,0.017843129,0.040767148,0.040819291,0.213989377,251666497,0
1.63715E+18,1465,0,160,126,0,70,180,2183,270003100,33554432,18205,15990,3,56,40.00690152,116.3280287,50.30926294,-9.699999809,-0.00618299,1.317607514,0.008426799,-1.155837867,1.538568447,89.56061924,0.039379574,0.039037012,0.038342837,0.025147434,0.024792433,0.017843129,0.040767148,0.040819291,0.213989377,251666497,0
1.63715E+18,1465,0,160,126,0,70,180,2183,270003120,33554432,18205,15990,3,56,40.00690151,116.3280291,50.30931377,-9.699999809,-0.01962113,1.327605776,0.003008973,-1.166639349,1.535545244,89.59529628,0.039379574,0.039037012,0.038342837,0.025147434,0.024792433,0.017843129,0.040767148,0.040819291,0.213989377,251666497,0
1.63715E+18,1465,0,160,126,0,70,180,2183,270003140,33554432,18205,15990,3,56,40.00690151,116.3280294,50.30939994,-9.699999809,-0.019618826,1.338283135,0.00460149,-1.17633783,1.530792232,89.63325212,0.039379574,0.039037012,0.038342837,0.025147434,0.024792433,0.017843129,0.040767148,0.040819291,0.213989377,251666497,0
1.63715E+18,1465,0,160,126,0,70,180,2183,270003160,33554432,18205,15990,3,56,40.0069015,116.3280297,50.30942474,-9.699999809,-0.022486026,1.345087786,0.002132774,-1.181979433,1.529621343,89.66877581,0.039379574,0.039037012,0.038342837,0.025147434,0.024792433,0.017843129,0.040767148,0.040819291,0.213989377,251666497,0
1.63715E+18,1465,0,160,126,0,70,180,2183,270003180,33554432,18205,15990,3,56,40.00690149,116.32803,50.30941583,-9.699999809,-0.032631082,1.354502578,4.65E-05,-1.188791885,1.528468823,89.7061456,0.039379574,0.039037012,0.038342837,0.025147434,0.024792433,0.017843129,0.040767148,0.040819291,0.213989377,251666497,0
1.63715E+18,1465,0,160,126,0,70,180,2183,270003200,33554432,18205,15990,3,56,40.00690149,116.3280303,50.30938757,-9.699999809,-0.02972117,1.365915729,-0.000569048,-1.194000144,1.528337188,89.74115722,0.039379574,0.039037012,0.038342837,0.025147434,0.024792433,0.017843129,0.040767148,0.040819291,0.213989377,251666497,0
1.63715E+18,1465,0,160,126,0,70,180,2183,270003220,33554432,18205,15990,3,56,40.00690148,116.3280306,50.30928562,-9.699999809,-0.042505083,1.375194369,-0.00425808,-1.194577204,1.529158793,89.77632644,0.039379574,0.039037012,0.038342837,0.025147434,0.024792433,0.017843129,0.040767148,0.040819291,0.213989377,251666497,0
1.63715E+18,1465,0,160,126,0,70,180,2183,270003240,33554432,18205,15990,3,56,40.00690147,116.3280309,50.30918153,-9.699999809,-0.043551006,1.386085199,-0.004746609,-1.196209442,1.531301748,89.81218306,0.039379574,0.039037012,0.038342837,0.025147434,0.024792433,0.017843129,0.040767148,0.040819291,0.213989377,251666497,0
1.63715E+18,1465,0,160,126,0,70,180,2183,270003260,33554432,18205,15990,3,56,40.00690145,116.3280313,50.30900919,-9.699999809,-0.049449773,1.398395732,-0.006001766,-1.19093377,1.533095079,89.84644032,0.039379574,0.039037012,0.038342837,0.025147434,0.024792433,0.017843129,0.040767148,0.040819291,0.213989377,251666497,0
1.63715E+18,1465,0,160,126,0,70,180,2183,270003280,33554432,18205,15990,3,56,40.00690144,116.3280316,50.30886046,-9.699999809,-0.056523489,1.408839435,-0.006091966,-1.188534263,1.531957606,89.88399854,0.039379574,0.039037012,0.038342837,0.025147434,0.024792433,0.017843129,0.040767148,0.040819291,0.213989377,251666497,0
1.63715E+18,1465,0,160,126,0,70,180,2183,270003300,33554432,18205,15990,3,56,40.00690143,116.3280319,50.30872669,-9.699999809,-0.050906595,1.420419846,-0.003522472,-1.182727472,1.531238397,89.92236971,0.039379574,0.039037012,0.038342837,0.025147434,0.024792433,0.017843129,0.040767148,0.040819291,0.213989377,251666497,0
1.63715E+18,1465,0,160,126,0,70,180,2183,270003320,33554432,18205,15990,3,56,40.00690142,116.3280323,50.30856816,-9.699999809,-0.059076302,1.433021195,-0.006974047,-1.177960633,1.527527178,89.96336384,0.039379574,0.039037012,0.038342837,0.025147434,0.024792433,0.017843129,0.040767148,0.040819291,0.213989377,251666497,0
1.63715E+18,1465,0,160,126,0,70,180,2183,270003340,33554432,18205,15990,3,56,40.0069014,116.3280326,50.30855565,-9.699999809,-0.049066394,1.442481746,0.001746907,-1.178804843,1.521864398,90.00916343,0.039379574,0.039037012,0.038342837,0.025147434,0.024792433,0.017843129,0.040767148,0.040819291,0.213989377,251666497,0
1.63715E+18,1465,0,160,126,0,70,180,2183,270003360,33554432,18205,15990,3,56,40.00690139,116.3280329,50.30854598,-9.699999809,-0.05185431,1.450202744,0.00246793,-1.175966732,1.514744394,90.05467148,0.039379574,0.039037012,0.038342837,0.025147434,0.024792433,0.017843129,0.040767148,0.040819291,0.213989377,251666497,0
1.63715E+18,1465,0,160,126,0,70,180,2183,270003380,33554432,18205,15990,3,56,40.00690138,116.3280333,50.30864522,-9.699999809,-0.053655128,1.46346442,0.007617912,-1.176729668,1.507237576,90.10516326,0.039379574,0.039037012,0.038342837,0.025147434,0.024792433,0.017843129,0.040767148,0.040819291,0.213989377,251666497,0
1.63715E+18,1465,0,160,126,0,70,180,2183,270003400,33554432,18205,15990,3,56,40.00690137,116.3280336,50.30881168,-9.699999809,-0.046146322,1.47093498,0.012340161,-1.176366112,1.497457398,90.15487256,0.039379574,0.039037012,0.038342837,0.025147434,0.024792433,0.017843129,0.040767148,0.040819291,0.213989377,251666497,0
1.63715E+18,1465,0,160,126,0,70,180,2183,270003420,33554432,18205,15990,3,56,40.00690136,116.328034,50.30905613,-9.699999809,-0.060086786,1.481285499,0.015229997,-1.17016693,1.486202541,90.20884858,0.039379574,0.039037012,0.038342837,0.025147434,0.024792433,0.017843129,0.040767148,0.040819291,0.213989377,251666497,0
1.63715E+18,1465,0,160,126,0,70,180,2183,270003440,33554432,18205,15990,3,56,40.00690135,116.3280343,50.30939191,-9.699999809,-0.049795982,1.487748703,0.019365242,-1.167429725,1.471432949,90.2638017,0.039379574,0.039037012,0.038342837,0.025147434,0.024792433,0.017843129,0.040767148,0.040819291,0.213989377,251666497,0
1.63715E+18,1465,0,160,126,0,70,180,2183,270003460,33554432,18205,15990,3,56,40.00690133,116.3280347,50.30968057,-9.699999809,-0.0533737,1.501447213,0.018539281,-1.16350528,1.46085361,90.31971891,0.039379574,0.039037012,0.038342837,0.025147434,0.024792433,0.017843129,0.040767148,0.040819291,0.213989377,251666497,0
1.63715E+18,1465,0,160,126,0,70,180,2183,270003480,33554432,18205,15990,3,56,40.00690132,116.328035,50.31003167,-9.699999809,-0.056644054,1.508404484,0.018836217,-1.1618011,1.444484952,90.38064016,0.039379574,0.039037012,0.038342837,0.025147434,0.024792433,0.017843129,0.040767148,0.040819291,0.213989377,251666497,0
1.63715E+18,1465,0,160,126,0,70,180,2183,270003500,33554432,18205,15990,3,56,40.00690131,116.3280354,50.31027193,-9.699999809,-0.054283818,1.511921416,0.014953685,-1.159938581,1.436006244,90.4381926,0.039379574,0.039037012,0.038342837,0.025147434,0.024792433,0.017843129,0.040767148,0.040819291,0.213989377,251666497,0
1.63715E+18,1465,0,160,126,0,70,180,2183,270003520,33554432,18205,15990,3,56,40.00690129,116.3280357,50.3105374,-9.699999809,-0.068208327,1.525198731,0.013809355,-1.157633266,1.425654066,90.49853858,0.039379574,0.039037012,0.038342837,0.025147434,0.024792433,0.017843129,0.040767148,0.040819291,0.213989377,251666497,0
1.63715E+18,1465,0,160,126,0,70,180,2183,270003540,33554432,18205,15990,3,56,40.00690128,116.3280361,50.31073699,-9.699999809,-0.060590911,1.523645175,0.010145867,-1.158975458,1.416790598,90.55944668,0.039379574,0.039037012,0.038342837,0.025147434,0.024792433,0.017843129,0.040767148,0.040819291,0.213989377,251666497,0
1.63715E+18,1465,0,160,126,0,70,180,2183,270003560,33554432,18205,15990,3,56,40.00690127,116.3280364,50.31087652,-9.699999809,-0.073360806,1.531486344,0.007288537,-1.159360368,1.414323804,90.61879575,0.039379574,0.039037012,0.038342837,0.025147434,0.024792433,0.017843129,0.040767148,0.040819291,0.213989377,251666497,0
1.63715E+18,1465,0,160,126,0,70,180,2183,270003580,33554432,18205,15990,3,56,40.00690125,116.3280368,50.31098789,-9.699999809,-0.072258349,1.535926127,0.004578338,-1.161024625,1.408450307,90.68331642,0.039379574,0.039037012,0.038342837,0.025147434,0.024792433,0.017843129,0.040767148,0.040819291,0.213989377,251666497,0
1.63715E+18,1465,0,160,126,0,70,180,2183,270003600,33554432,18205,15990,3,56,40.00690124,116.3280371,50.31102812,-9.699999809,-0.068911599,1.541058832,0.002200669,-1.162827665,1.409953949,90.74571652,0.039379574,0.039037012,0.038342837,0.025147434,0.024792433,0.017843129,0.040767148,0.040819291,0.213989377,251666497,0
1.63715E+18,1465,0,160,126,0,70,180,2183,270003620,33554432,18205,15990,3,56,40.00690122,116.3280375,50.3110249,-9.699999809,-0.080007451,1.548880669,-0.000697946,-1.164742966,1.410705018,90.81422255,0.039379574,0.039037012,0.038342837,0.025147434,0.024792433,0.017843129,0.040767148,0.040819291,0.213989377,251666497,0
1.63715E+18,1465,0,160,126,0,70,180,2183,270003640,33554432,18205,15990,3,56,40.0069012,116.3280379,50.31102164,-9.699999809,-0.071524594,1.553705341,0.000283132,-1.166453176,1.411752471,90.88252862,0.039379574,0.039037012,0.038342837,0.025147434,0.024792433,0.017843129,0.040767148,0.040819291,0.213989377,251666497,0
1.63715E+18,1465,0,160,126,0,70,180,2183,270003660,33554432,18205,15990,3,56,40.00690119,116.3280382,50.31092271,-9.699999809,-0.079962044,1.561824156,-0.003367869,-1.170017441,1.416206663,90.95347746,0.039379574,0.039037012,0.038342837,0.025147434,0.024792433,0.017843129,0.040767148,0.040819291,0.213989377,251666497,0
1.63715E+18,1465,0,160,126,0,70,180,2183,270003680,33554432,18205,15990,3,56,40.00690117,116.3280386,50.31086738,-9.699999809,-0.082113304,1.569320852,-0.001604785,-1.172269403,1.417895579,91.02792552,0.039379574,0.039037012,0.038342837,0.025147434,0.024792433,0.017843129,0.040767148,0.040819291,0.213989377,251666497,0
1.63715E+18,1465,0,160,126,0,70,180,2183,270003700,33554432,18205,15990,3,56,40.00690115,116.328039,50.31076991,-9.699999809,-0.080030657,1.576559525,-0.001169515,-1.172552492,1.422261086,91.10208248,0.039379574,0.039037012,0.038342837,0.025147434,0.024792433,0.017843129,0.040767148,0.040819291,0.213989377,251666497,0
1.63715E+18,1465,0,160,126,0,70,180,2183,270003720,33554432,18205,15990,3,56,40.00690114,116.3280393,50.31065486,-9.699999809,-0.093144199,1.584651564,-0.005959979,-1.174508957,1.424378042,91.18094184,0.039379574,0.039037012,0.038342837,0.025147434,0.024792433,0.017843129,0.040767148,0.040819291,0.213989377,251666497,0
1.63715E+18,1465,0,160,126,0,70,180,2183,270003740,33554432,18205,15990,3,56,40.00690112,116.3280397,50.31065981,-9.699999809,-0.093152141,1.594349383,0.00459603,-1.168839003,1.425720245,91.26058849,0.039379574,0.039037012,0.038342837,0.025147434,0.024792433,0.017843129,0.040767148,0.040819291,0.213989377,251666497,0
1.63715E+18,1465,0,160,126,0,70,180,2183,270003760,33554432,18205,15990,3,56,40.0069011,116.3280401,50.31073533,-9.699999809,-0.107028038,1.59661304,0.006810846,-1.16181956,1.422893915,91.33919459,0.039379574,0.039037012,0.038342837,0.025147434,0.024792433,0.017843129,0.040767148,0.040819291,0.213989377,251666497,0
1.63715E+18,1465,0,160,126,0,70,180,2183,270003780,33554432,18205,15990,3,56,40.00690108,116.3280404,50.3108659,-9.699999809,-0.107552047,1.609383602,0.010789287,-1.154692374,1.420124287,91.42060226,0.039379574,0.039037012,0.038342837,0.025147434,0.024792433,0.017843129,0.040767148,0.040819291,0.213989377,251666497,0
1.63715E+18,1465,0,160,126,0,70,180,2183,270003800,33554432,18205,15990,3,56,40.00690105,116.3280408,50.31111408,-9.699999809,-0.10854125,1.615266897,0.016644451,-1.141393367,1.415251571,91.50163166,0.039379574,0.039037012,0.038342837,0.025147434,0.024792433,0.017843129,0.040767148,0.040819291,0.213989377,251666497,0
1.63715E+18,1465,0,160,126,0,70,180,2183,270003820,33554432,18205,15990,3,56,40.00690103,116.3280412,50.31138097,-9.699999809,-0.118200237,1.618831616,0.01606129,-1.132416675,1.409390183,91.58470271,0.039379574,0.039037012,0.038342837,0.025147434,0.024792433,0.017843129,0.040767148,0.040819291,0.213989377,251666497,0
1.63715E+18,1465,0,160,126,0,70,180,2183,270003840,33554432,18205,15990,3,56,40.00690101,116.3280416,50.31171591,-9.699999809,-0.110407977,1.630797977,0.018562283,-1.122963522,1.40471999,91.66670706,0.039379574,0.039037012,0.038342837,0.025147434,0.024792433,0.017843129,0.040767148,0.040819291,0.213989377,251666497,0
1.63715E+18,1465,0,160,126,0,70,180,2183,270003860,33554432,18205,15990,3,56,40.00690099,116.328042,50.31200387,-9.699999809,-0.12054877,1.631970332,0.01562649,-1.1123053,1.399853066,91.74995461,0.039379574,0.039037012,0.038342837,0.025147434,0.024792433,0.017843129,0.040767148,0.040819291,0.213989377,251666497,0
1.63715E+18,1465,0,160,126,0,70,180,2183,270003880,33554432,18205,15990,3,56,40.00690096,116.3280423,50.31234954,-9.699999809,-0.11982731,1.641823436,0.018554369,-1.107296259,1.397087131,91.83280436,0.039379574,0.039037012,0.038342837,0.025147434,0.024792433,0.017843129,0.040767148,0.040819291,0.213989377,251666497,0
1.63715E+18,1465,0,160,126,0,70,180,2183,270003900,33554432,18205,15990,3,56,40.00690094,116.3280427,50.31262966,-9.699999809,-0.130096415,1.645577379,0.017128402,-1.096974472,1.393252182,91.91260144,0.039379574,0.039037012,0.038342837,0.025147434,0.024792433,0.017843129,0.040767148,0.040819291,0.213989377,251666497,0
1.63715E+18,1465,0,160,126,0,70,180,2183,270003920,33554432,18205,15990,3,56,40.00690091,116.3280431,50.31289941,-9.699999809,-0.144604242,1.651511634,0.013695598,-1.082506812,1.391937556,91.99536827,0.039379574,0.039037012,0.038342837,0.025147434,0.024792433,0.017843129,0.040767148,0.040819291,0.213989377,251666497,0
1.63715E+18,1465,0,160,126,0,70,180,2183,270003940,33554432,18205,15990,3,56,40.00690088,116.3280435,50.31319222,-9.699999809,-0.142124873,1.662485682,0.016472145,-1.065461486,1.387890838,92.07521267,0.039379574,0.039037012,0.038342837,0.025147434,0.024792433,0.017843129,0.040767148,0.040819291,0.213989377,251666497,0
1.63715E+18,1465,0,160,126,0,70,180,2183,270003960,33554432,18205,15990,3,56,40.00690085,116.3280439,50.31337118,-9.699999809,-0.156750836,1.667735795,0.007487858,-1.047296778,1.382294073,92.15759427,0.039379574,0.039037012,0.038342837,0.025147434,0.024792433,0.017843129,0.040767148,0.040819291,0.213989377,251666497,0
1.63715E+18,1465,0,160,126,0,70,180,2183,270003980,33554432,18205,15990,3,56,40.00690082,116.3280443,50.31358669,-9.699999809,-0.147444889,1.673698668,0.011037048,-1.034108444,1.379651015,92.24093543,0.039379574,0.039037012,0.038342837,0.025147434,0.024792433,0.017843129,0.040767148,0.040819291,0.213989377,251666497,0
1.63715E+18,1465,0,160,126,0,70,180,2183,270004000,33554432,18205,15990,3,56,40.00690079,116.3280447,50.31368641,-9.699999809,-0.154186975,1.681032188,0.004087371,-1.020583215,1.376424959,92.32344742,0.039379574,0.039037012,0.038342837,0.025147434,0.024792433,0.017843129,0.040767148,0.040819291,0.213989377,251666497,0
1.63715E+18,1465,0,160,126,0,70,180,2183,270004020,33554432,18205,15990,3,56,40.00690077,116.3280451,50.31375753,-9.699999809,-0.15396459,1.688188591,0.003399422,-1.013405701,1.373459104,92.40732737,0.039379574,0.039037012,0.038342837,0.025147434,0.024792433,0.017843129,0.040767148,0.040819291,0.213989377,251666497,0
1.63715E+18,1465,0,160,126,0,70,180,2183,270004040,33554432,18205,15990,3,56,40.00690074,116.3280454,50.31372667,-9.699999809,-0.142792506,1.689836137,0.00476394,-1.010410901,1.370851907,92.49054658,0.039208293,0.038853835,0.038475629,0.024889227,0.02453848,0.017858978,0.042459194,0.042548783,0.214625165,251666497,0
1.63715E+18,1465,0,160,126,0,67,180,2183,270004060,33554432,18205,15990,3,56,40.0069007,116.3280458,50.31349597,-9.699999809,-0.15198008,1.696768343,-0.001177321,-1.011643019,1.37113785,92.57596555,0.039208293,0.038853835,0.038475629,0.024889227,0.02453848,0.017858978,0.042459194,0.042548783,0.214625165,251666497,0
1.63715E+18,1465,0,160,126,0,67,180,2183,270004080,33554432,18205,15990,3,56,40.00690067,116.3280462,50.31330205,-9.699999809,-0.139358074,1.699682811,-0.002857003,-1.013635924,1.372487483,92.66428944,0.039208293,0.038853835,0.038475629,0.024889227,0.02453848,0.017858978,0.042459194,0.042548783,0.214625165,251666497,0
1.63715E+18,1465,0,160,126,0,67,180,2183,270004100,33554432,18205,15990,3,56,40.00690064,116.3280466,50.31295343,-9.699999809,-0.139531517,1.70872959,-0.005562942,-1.017053948,1.38041233,92.75611428,0.039208293,0.038853835,0.038475629,0.024889227,0.02453848,0.017858978,0.042459194,0.042548783,0.214625165,251666497,0
1.63715E+18,1465,0,160,126,0,67,180,2183,270004120,33554432,18205,15990,3,56,40.00690062,116.328047,50.31263897,-9.699999809,-0.135176268,1.717703547,-0.009405621,-1.02632959,1.383125656,92.85146053,0.039208293,0.038853835,0.038475629,0.024889227,0.02453848,0.017858978,0.042459194,0.042548783,0.214625165,251666497,0
1.63715E+18,1465,0,160,126,0,67,180,2183,270004140,33554432,18205,15990,3,56,40.00690059,116.3280474,50.31230925,-9.699999809,-0.130983141,1.716337545,-0.003504015,-1.031676297,1.39000338,92.95222798,0.039208293,0.038853835,0.038475629,0.024889227,0.02453848,0.017858978,0.042459194,0.042548783,0.214625165,251666497,0
1.63715E+18,1465,0,160,126,0,67,180,2183,270004160,33554432,18205,15990,3,56,40.00690056,116.3280478,50.3120992,-9.699999809,-0.140131811,1.725051685,-0.001093711,-1.036251503,1.396091596,93.05391396,0.039208293,0.038853835,0.038475629,0.024889227,0.02453848,0.017858978,0.042459194,0.042548783,0.214625165,251666497,0
1.63715E+18,1465,0,160,126,0,67,180,2183,270004180,33554432,18205,15990,3,56,40.00690053,116.3280482,50.31187084,-9.699999809,-0.124229619,1.733842935,0.000626672,-1.049446625,1.396958168,93.16140828,0.039208293,0.038853835,0.038475629,0.024889227,0.02453848,0.017858978,0.042459194,0.042548783,0.214625165,251666497,0
1.63715E+18,1465,0,160,126,0,67,180,2183,270004200,33554432,18205,15990,3,56,40.00690051,116.3280486,50.31175207,-9.699999809,-0.12250646,1.740501144,0.003738703,-1.062634661,1.398576781,93.27084336,0.039208293,0.038853835,0.038475629,0.024889227,0.02453848,0.017858978,0.042459194,0.042548783,0.214625165,251666497,0
1.63715E+18,1465,0,160,126,0,67,180,2183,270004220,33554432,18205,15990,3,56,40.00690048,116.328049,50.31170436,-9.699999809,-0.128733286,1.752870763,0.011220745,-1.078565249,1.394548364,93.3870034,0.039208293,0.038853835,0.038475629,0.024889227,0.02453848,0.017858978,0.042459194,0.042548783,0.214625165,251666497,0
1.63715E+18,1465,0,160,126,0,67,180,2183,270004240,33554432,18205,15990,3,56,40.00690045,116.3280495,50.31178923,-9.699999809,-0.12015278,1.755020254,0.014137215,-1.099783004,1.385617016,93.5018883,0.039208293,0.038853835,0.038475629,0.024889227,0.02453848,0.017858978,0.042459194,0.042548783,0.214625165,251666497,0
1.63715E+18,1465,0,160,126,0,67,180,2183,270004260,33554432,18205,15990,3,56,40.00690042,116.3280499,50.31185035,-9.699999809,-0.12965239,1.758668348,0.016572593,-1.125819176,1.379503458,93.61826262,0.039208293,0.038853835,0.038475629,0.024889227,0.02453848,0.017858978,0.042459194,0.042548783,0.214625165,251666497,0
1.63715E+18,1465,0,160,126,0,67,180,2183,270004280,33554432,18205,15990,3,56,40.0069004,116.3280503,50.31209591,-9.699999809,-0.136923993,1.768169898,0.02239891,-1.154225383,1.366012645,93.73524178,0.039208293,0.038853835,0.038475629,0.024889227,0.02453848,0.017858978,0.042459194,0.042548783,0.214625165,251666497,0
1.63715E+18,1465,0,160,126,0,67,180,2183,270004300,33554432,18205,15990,3,56,40.00690037,116.3280507,50.31236288,-9.699999809,-0.151687127,1.769592766,0.028085006,-1.176882619,1.352257481,93.84909252,0.039208293,0.038853835,0.038475629,0.024889227,0.02453848,0.017858978,0.042459194,0.042548783,0.214625165,251666497,0
1.63715E+18,1465,0,160,126,0,67,180,2183,270004320,33554432,18205,15990,3,56,40.00690033,116.3280511,50.31279256,-9.699999809,-0.178020964,1.77679515,0.031065492,-1.195955465,1.339115813,93.96495763,0.039208293,0.038853835,0.038475629,0.024889227,0.02453848,0.017858978,0.042459194,0.042548783,0.214625165,251666497,0
1.63715E+18,1465,0,160,126,0,67,180,2183,270004340,33554432,18205,15990,3,56,40.0069003,116.3280515,50.31321553,-9.699999809,-0.183527869,1.775377024,0.032362246,-1.212003057,1.325147571,94.0752705,0.039208293,0.038853835,0.038475629,0.024889227,0.02453848,0.017858978,0.042459194,0.042548783,0.214625165,251666497,0
1.63715E+18,1465,0,160,126,0,67,180,2183,270004360,33554432,18205,15990,3,56,40.00690026,116.3280519,50.31363757,-9.699999809,-0.214442321,1.778064786,0.0275334,-1.223450362,1.31525795,94.18310302,0.039208293,0.038853835,0.038475629,0.024889227,0.02453848,0.017858978,0.042459194,0.042548783,0.214625165,251666497,0
1.63715E+18,1465,0,160,126,0,67,180,2183,270004380,33554432,18205,15990,3,56,40.00690021,116.3280523,50.31399441,-9.699999809,-0.221285545,1.778438834,0.025491192,-1.227313134,1.306057301,94.29263321,0.039208293,0.038853835,0.038475629,0.024889227,0.02453848,0.017858978,0.042459194,0.042548783,0.214625165,251666497,0
1.63715E+18,1465,0,160,126,0,67,180,2183,270004400,33554432,18205,15990,3,56,40.00690017,116.3280528,50.31430139,-9.699999809,-0.237738552,1.771728903,0.020913494,-1.222697751,1.30552808,94.40100357,0.039208293,0.038853835,0.038475629,0.024889227,0.02453848,0.017858978,0.042459194,0.042548783,0.214625165,251666497,0
1.63715E+18,1465,0,160,126,0,67,180,2183,270004420,33554432,18205,15990,3,56,40.00690012,116.3280532,50.31451823,-9.699999809,-0.258763355,1.774683505,0.019473574,-1.203705443,1.308731372,94.51589313,0.039208293,0.038853835,0.038475629,0.024889227,0.02453848,0.017858978,0.042459194,0.042548783,0.214625165,251666497,0
1.63715E+18,1465,0,160,126,0,67,180,2183,270004440,33554432,18205,15990,3,56,40.00690007,116.3280536,50.31471611,-9.699999809,-0.255805277,1.771552992,0.015392278,-1.178441086,1.310632375,94.63065715,0.039208293,0.038853835,0.038475629,0.024889227,0.02453848,0.017858978,0.042459194,0.042548783,0.214625165,251666497,0
1.63715E+18,1465,0,160,126,0,67,180,2183,270004460,33554432,18205,15990,3,56,40.00690002,116.328054,50.31475124,-9.699999809,-0.27232974,1.771525449,0.011859892,-1.149448177,1.320640007,94.75381251,0.039208293,0.038853835,0.038475629,0.024889227,0.02453848,0.017858978,0.042459194,0.042548783,0.214625165,251666497,0
1.63715E+18,1465,0,160,126,0,67,180,2183,270004480,33554432,18205,15990,3,56,40.00689997,116.3280544,50.31479077,-9.699999809,-0.272263898,1.773227881,0.00660645,-1.116263291,1.329061422,94.88223573,0.039208293,0.038853835,0.038475629,0.024889227,0.02453848,0.017858978,0.042459194,0.042548783,0.214625165,251666497,0
1.63715E+18,1465,0,160,126,0,67,180,2183,270004500,33554432,18205,15990,3,56,40.00689991,116.3280548,50.31470384,-9.699999809,-0.275177622,1.772873837,0.006230423,-1.081465019,1.345293662,95.01423312,0.039208293,0.038853835,0.038475629,0.024889227,0.02453848,0.017858978,0.042459194,0.042548783,0.214625165,251666497,0
1.63715E+18,1465,0,160,126,0,67,180,2183,270004520,33554432,18205,15990,3,56,40.00689986,116.3280552,50.31464729,-9.699999809,-0.283775132,1.778708525,0.002813212,-1.04998707,1.356877123,95.15079723,0.039208293,0.038853835,0.038475629,0.024889227,0.02453848,0.017858978,0.042459194,0.042548783,0.214625165,251666497,0
1.63715E+18,1465,0,160,126,0,67,180,2183,270004540,33554432,18205,15990,3,56,40.00689981,116.3280557,50.31449472,-9.699999809,-0.278256648,1.778890346,0.001395166,-1.021556698,1.36523002,95.29089222,0.039208293,0.038853835,0.038475629,0.024889227,0.02453848,0.017858978,0.042459194,0.042548783,0.214625165,251666497,0
1.63715E+18,1465,0,160,126,0,67,180,2183,270004560,33554432,18205,15990,3,56,40.00689975,116.3280561,50.31434495,-9.699999809,-0.287822039,1.784324429,-0.001079457,-0.996479629,1.379450141,95.43272117,0.039208293,0.038853835,0.038475629,0.024889227,0.02453848,0.017858978,0.042459194,0.042548783,0.214625165,251666497,0
1.63715E+18,1465,0,160,126,0,67,180,2183,270004580,33554432,18205,15990,3,56,40.0068997,116.3280565,50.31415076,-9.699999809,-0.282055122,1.791817077,-0.001982725,-0.977097032,1.385307415,95.57908658,0.039208293,0.038853835,0.038475629,0.024889227,0.02453848,0.017858978,0.042459194,0.042548783,0.214625165,251666497,0
1.63715E+18,1465,0,160,126,0,67,180,2183,270004600,33554432,18205,15990,3,56,40.00689964,116.3280569,50.31393495,-9.699999809,-0.281422076,1.796056393,-0.005021872,-0.957823905,1.393225261,95.72312401,0.039208293,0.038853835,0.038475629,0.024889227,0.02453848,0.017858978,0.042459194,0.042548783,0.214625165,251666497,0
1.63715E+18,1465,0,160,126,0,67,180,2183,270004620,33554432,18205,15990,3,56,40.00689959,116.3280573,50.31365093,-9.699999809,-0.284854975,1.804108471,-0.006992349,-0.948904971,1.396720583,95.87073542,0.039208293,0.038853835,0.038475629,0.024889227,0.02453848,0.017858978,0.042459194,0.042548783,0.214625165,251666497,0
1.63715E+18,1465,0,160,126,0,67,180,2183,270004640,33554432,18205,15990,3,56,40.00689953,116.3280577,50.3133886,-9.699999809,-0.279414662,1.809199882,-0.006540743,-0.938422221,1.400370177,96.01486702,0.039208293,0.038853835,0.038475629,0.024889227,0.02453848,0.017858978,0.042459194,0.042548783,0.214625165,251666497,0
1.63715E+18,1465,0,160,126,0,67,180,2183,270004660,33554432,18205,15990,3,56,40.00689948,116.3280582,50.31298617,-9.699999809,-0.286559573,1.814873301,-0.010994088,-0.928643098,1.404567581,96.15754409,0.039208293,0.038853835,0.038475629,0.024889227,0.02453848,0.017858978,0.042459194,0.042548783,0.214625165,251666497,0
1.63715E+18,1465,0,160,126,0,67,180,2183,270004680,33554432,18205,15990,3,56,40.00689943,116.3280586,50.31264106,-9.699999809,-0.284402735,1.819531775,-0.011069169,-0.92218929,1.404799301,96.30014403,0.039208293,0.038853835,0.038475629,0.024889227,0.02453848,0.017858978,0.042459194,0.042548783,0.214625165,251666497,0
1.63715E+18,1465,0,160,126,0,67,180,2183,270004700,33554432,18205,15990,3,56,40.00689937,116.328059,50.31223334,-9.699999809,-0.285272253,1.828822893,-0.009662028,-0.914293464,1.405997486,96.43989345,0.039208293,0.038853835,0.038475629,0.024889227,0.02453848,0.017858978,0.042459194,0.042548783,0.214625165,251666497,0
1.63715E+18,1465,0,160,126,0,67,180,2183,270004720,33554432,18205,15990,3,56,40.00689932,116.3280594,50.3118961,-9.699999809,-0.282975725,1.830783614,-0.010224948,-0.913236937,1.403363194,96.58195399,0.039208293,0.038853835,0.038475629,0.024889227,0.02453848,0.017858978,0.042459194,0.042548783,0.214625165,251666497,0
1.63715E+18,1465,0,160,126,0,67,180,2183,270004740,33554432,18205,15990,3,56,40.00689926,116.3280599,50.31160791,-9.699999809,-0.277788842,1.832416724,-0.002746928,-0.919662409,1.403867719,96.72223065,0.039208293,0.038853835,0.038475629,0.024889227,0.02453848,0.017858978,0.042459194,0.042548783,0.214625165,251666497,0
1.63715E+18,1465,0,160,126,0,67,180,2183,270004760,33554432,18205,15990,3,56,40.00689921,116.3280603,50.31137655,-9.699999809,-0.280691673,1.838077387,-0.004378905,-0.930457007,1.403531968,96.86294968,0.039208293,0.038853835,0.038475629,0.024889227,0.02453848,0.017858978,0.042459194,0.042548783,0.214625165,251666497,0
1.63715E+18,1465,0,160,126,0,67,180,2183,270004780,33554432,18205,15990,3,56,40.00689915,116.3280607,50.31119511,-9.699999809,-0.273258336,1.839128023,0.000759967,-0.952621466,1.400396404,97.00638526,0.039208293,0.038853835,0.038475629,0.024889227,0.02453848,0.017858978,0.042459194,0.042548783,0.214625165,251666497,0
1.63715E+18,1465,0,160,126,0,67,180,2183,270004800,33554432,18205,15990,3,56,40.0068991,116.3280612,50.31107796,-9.699999809,-0.272736595,1.838497667,0.001604058,-0.976625273,1.40106792,97.14946455,0.039208293,0.038853835,0.038475629,0.024889227,0.02453848,0.017858978,0.042459194,0.042548783,0.214625165,251666497,0
1.63715E+18,1465,0,160,126,0,67,180,2183,270004820,33554432,18205,15990,3,56,40.00689905,116.3280616,50.31090268,-9.699999809,-0.272363469,1.836721967,-0.000577526,-1.007251999,1.403449759,97.29969756,0.039208293,0.038853835,0.038475629,0.024889227,0.02453848,0.017858978,0.042459194,0.042548783,0.214625165,251666497,0
1.63715E+18,1465,0,160,126,0,67,180,2183,270004840,33554432,18205,15990,3,56,40.006899,116.328062,50.31081531,-9.699999809,-0.262030019,1.839534024,0.00288921,-1.040807254,1.410151233,97.44829945,0.039208293,0.038853835,0.038475629,0.024889227,0.02453848,0.017858978,0.042459194,0.042548783,0.214625165,251666497,0
1.63715E+18,1465,0,160,126,0,67,180,2183,270004860,33554432,18205,15990,3,56,40.00689895,116.3280624,50.31063094,-9.699999809,-0.26949112,1.839848638,-0.000337254,-1.079273906,1.415976634,97.60286074,0.039208293,0.038853835,0.038475629,0.024889227,0.02453848,0.017858978,0.042459194,0.042548783,0.214625165,251666497,0
1.63715E+18,1465,0,160,126,0,67,180,2183,270004880,33554432,18205,15990,3,56,40.0068989,116.3280629,50.31050341,-9.699999809,-0.261196437,1.839779475,-0.000698237,-1.120121848,1.42418004,97.75923322,0.039208293,0.038853835,0.038475629,0.024889227,0.02453848,0.017858978,0.042459194,0.042548783,0.214625165,251666497,0
1.63715E+18,1465,0,160,126,0,67,180,2183,270004900,33554432,18205,15990,3,56,40.00689884,116.3280633,50.31031323,-9.699999809,-0.26974441,1.844881706,0.000746496,-1.161014125,1.435841524,97.91596214,0.039208293,0.038853835,0.038475629,0.024889227,0.02453848,0.017858978,0.042459194,0.042548783,0.214625165,251666497,0
1.63715E+18,1465,0,160,126,0,67,180,2183,270004920,33554432,18205,15990,3,56,40.00689879,116.3280637,50.31019293,-9.699999809,-0.273654409,1.847613169,-0.000382174,-1.204986855,1.443773599,98.07533259,0.039208293,0.038853835,0.038475629,0.024889227,0.02453848,0.017858978,0.042459194,0.042548783,0.214625165,251666497,0
1.63715E+18,1465,0,160,126,0,67,180,2183,270004940,33554432,18205,15990,3,56,40.00689874,116.3280642,50.30995191,-9.699999809,-0.273593214,1.848961221,-0.003646591,-1.250913747,1.451913545,98.23279919,0.039208293,0.038853835,0.038475629,0.024889227,0.02453848,0.017858978,0.042459194,0.042548783,0.214625165,251666497,0
1.63715E+18,1465,0,160,126,0,67,180,2183,270004960,33554432,18205,15990,3,56,40.00689869,116.3280646,50.3097573,-9.699999809,-0.293621392,1.851544724,-0.00372232,-1.288908468,1.459935202,98.39357062,0.039208293,0.038853835,0.038475629,0.024889227,0.02453848,0.017858978,0.042459194,0.042548783,0.214625165,251666497,0
1.63715E+18,1465,0,160,126,0,67,180,2183,270004980,33554432,18205,15990,3,56,40.00689863,116.328065,50.30955878,-9.699999809,-0.301517596,1.852576911,-0.001787597,-1.325749251,1.46521611,98.55456498,0.039208293,0.038853835,0.038475629,0.024889227,0.02453848,0.017858978,0.042459194,0.042548783,0.214625165,251666497,0
1.63715E+18,1465,0,160,126,0,67,180,2183,270005000,33554432,18205,15990,3,56,40.00689857,116.3280655,50.30940149,-9.699999809,-0.328108634,1.852751005,-0.001233975,-1.356566135,1.47025988,98.71262712,0.039208293,0.038853835,0.038475629,0.024889227,0.02453848,0.017858978,0.042459194,0.042548783,0.214625165,251666497,0
1.63715E+18,1465,0,160,126,0,67,180,2183,270005020,33554432,18205,15990,3,56,40.00689851,116.3280659,50.30922027,-9.699999809,-0.343698429,1.856437613,-0.001301409,-1.376381943,1.467750783,98.87332101,0.060780831,0.060127534,0.054088514,0.032456536,0.032156993,0.021739708,0.046663102,0.046766654,0.216660962,251666497,0
1.63715E+18,1465,0,160,126,0,67,180,2183,270005040,33554432,18205,15990,3,56,40.00689844,116.3280663,50.3091735,-9.699999809,-0.355215158,1.853194351,0.003837613,-1.393600659,1.467788736,99.03179283,0.039114412,0.038727399,0.038617942,0.024930142,0.024724668,0.017872233,0.044092551,0.044274997,0.215658307,251666497,0
1.63715E+18,1465,0,160,126,0,67,180,2183,270005060,33554432,18205,15990,3,56,40.00689837,116.3280668,50.30909789,-9.699999809,-0.379745252,1.849671973,-0.001087698,-1.403262426,1.465092365,99.19460212,0.039114412,0.038727399,0.038617942,0.024930142,0.024724668,0.017872233,0.044092551,0.044274997,0.215658307,251666497,0
1.63715E+18,1465,0,160,126,0,72,180,2183,270005080,33554432,18205,15990,3,56,40.0068983,116.3280672,50.3091186,-9.699999809,-0.385815043,1.853998167,0.004494465,-1.410398832,1.460257288,99.35823032,0.039114412,0.038727399,0.038617942,0.024930142,0.024724668,0.017872233,0.044092551,0.044274997,0.215658307,251666497,0
1.63715E+18,1465,0,160,126,0,72,180,2183,270005100,33554432,18205,15990,3,56,40.00689823,116.3280676,50.30904718,-9.699999809,-0.406744152,1.850404697,-0.001642023,-1.408740889,1.45330707,99.52659231,0.039114412,0.038727399,0.038617942,0.024930142,0.024724668,0.017872233,0.044092551,0.044274997,0.215658307,251666497,0
1.63715E+18,1465,0,160,126,0,72,180,2183,270005120,33554432,18205,15990,3,56,40.00689815,116.328068,50.30899354,-9.699999809,-0.420950066,1.850018989,-0.001203196,-1.404825148,1.449613939,99.69818039,0.039114412,0.038727399,0.038617942,0.024930142,0.024724668,0.017872233,0.044092551,0.044274997,0.215658307,251666497,0
