time, .header.id, .header.msg_type, .header.port_addr, .header.length, .header.sequence, .header.idle_time, .header.time_status, .header.gps_week, .header.gps_week_seconds, .header.receiver_status, .header.reserved, .header.software_version, .ins_status, .position_type, .latitude, .longitude, .altitude, .undulation, .north_velocity, .east_velocity, .up_velocity, .roll, .pitch, .azimuth, .latitude_std, .longitude_std, .altitude_std, .north_velocity_std, .east_velocity_std, .up_velocity_std, .roll_std, .pitch_std, .azimuth_std, .extended_status, .seconds_since_update
1637149564074620894, 1465, 0, 160, 126, 0, 76, 180, 2183, 270001400, 33554432, 18205, 15990, 3, 56, 40.0069017662, 116.328012813, 50.294906537, -9.69999980927, 0.0170045035043, 0.210972473249, -0.000484651253095, -1.2164285006, 1.593254738, 88.7075308269, 0.0396273955703, 0.0392843522131, 0.0382475443184, 0.0263956021518, 0.0262759458274, 0.0178190264851, 0.0424444712698, 0.0424809344113, 0.212932810187, 251920449, 0
1637149564090705573, 1465, 0, 160, 126, 0, 76, 180, 2183, 270001420, 33554432, 18205, 15990, 3, 56, 40.0069017657, 116.328012863, 50.294991374, -9.69999980927, 0.0131631726246, 0.226100447662, 0.00343090972716, -1.21896827137, 1.59860499342, 88.7078265535, 0.0396273955703, 0.0392843522131, 0.0382475443184, 0.0263956021518, 0.0262759458274, 0.0178190264851, 0.0424444712698, 0.0424809344113, 0.212932810187, 251920449, 0
1637149564109478809, 1465, 0, 160, 126, 0, 76, 180, 2183, 270001440, 33554432, 18205, 15990, 3, 56, 40.0069017662, 116.328012917, 50.2950174585, -9.69999980927, 0.00891256033723, 0.242859546931, -0.00366297566917, -1.22258174426, 1.59935769506, 88.7117899595, 0.0396273955703, 0.0392843522131, 0.0382475443184, 0.0263956021518, 0.0262759458274, 0.0178190264851, 0.0424444712698, 0.0424809344113, 0.212932810187, 251920449, 0
1637149564130803359, 1465, 0, 160, 126, 0, 76, 180, 2183, 270001460, 33554432, 18205, 15990, 3, 56, 40.0069017661, 116.328012975, 50.2950863587, -9.69999980927, 0.0144054361654, 0.256568209623, 0.0020168272258, -1.22373871714, 1.60727169883, 88.7112366026, 0.0396273955703, 0.0392843522131, 0.0382475443184, 0.0263956021518, 0.0262759458274, 0.0178190264851, 0.0424444712698, 0.0424809344113, 0.212932810187, 251920449, 0
1637149564149363287, 1465, 0, 160, 126, 0, 76, 180, 2183, 270001480, 33554432, 18205, 15990, 3, 56, 40.0069017655, 116.328013037, 50.2950218329, -9.69999980927, 0.00154412046351, 0.27498954626, -0.00891306322122, -1.22825373905, 1.61230691306, 88.7129157089, 0.0396273955703, 0.0392843522131, 0.0382475443184, 0.0263956021518, 0.0262759458274, 0.0178190264851, 0.0424444712698, 0.0424809344113, 0.212932810187, 251920449, 0
1637149564172775813, 1465, 0, 160, 126, 0, 76, 180, 2183, 270001500, 33554432, 18205, 15990, 3, 56, 40.0069017655, 116.328013102, 50.2950862292, -9.69999980927, 0.0115387107505, 0.290926884187, 0.000299580735648, -1.23027161687, 1.61911801737, 88.7122173006, 0.0396273955703, 0.0392843522131, 0.0382475443184, 0.0263956021518, 0.0262759458274, 0.0178190264851, 0.0424444712698, 0.0424809344113, 0.212932810187, 251920449, 0
1637149564191116605, 1465, 0, 160, 126, 0, 76, 180, 2183, 270001520, 33554432, 18205, 15990, 3, 56, 40.0069017648, 116.328013172, 50.294991008, -9.69999980927, 0.00250824962953, 0.308552469447, -0.00930787576656, -1.23282392627, 1.62671833684, 88.7111833643, 0.0396273955703, 0.0392843522131, 0.0382475443184, 0.0263956021518, 0.0262759458274, 0.0178190264851, 0.0424444712698, 0.0424809344113, 0.212932810187, 251920449, 0
1637149564208888381, 1465, 0, 160, 126, 0, 76, 180, 2183, 270001540, 33554432, 18205, 15990, 3, 56, 40.0069017646, 116.328013245, 50.2950685155, -9.69999980927, 0.00622810159701, 0.325645501926, -0.00110108921647, -1.2361201345, 1.63298333223, 88.7118820942, 0.0396273955703, 0.0392843522131, 0.0382475443184, 0.0263956021518, 0.0262759458274, 0.0178190264851, 0.0424444712698, 0.0424809344113, 0.212932810187, 251920449, 0
1637149564229466335, 1465, 0, 160, 126, 0, 76, 180, 2183, 270001560, 33554432, 18205, 15990, 3, 56, 40.0069017646, 116.328013322, 50.2950584041, -9.69999980927, 0.00881115845829, 0.339635615576, -0.00245820019642, -1.23924142484, 1.63891991782, 88.7108714064, 0.0396273955703, 0.0392843522131, 0.0382475443184, 0.0263956021518, 0.0262759458274, 0.0178190264851, 0.0424444712698, 0.0424809344113, 0.212932810187, 251920449, 0
1637149564250386293, 1465, 0, 160, 126, 0, 76, 180, 2183, 270001580, 33554432, 18205, 15990, 3, 56, 40.0069017639, 116.328013403, 50.2952131452, -9.69999980927, 0.00472179359006, 0.356613547108, 0.00425917154448, -1.24268126936, 1.6410867049, 88.7111868278, 0.0396273955703, 0.0392843522131, 0.0382475443184, 0.0263956021518, 0.0262759458274, 0.0178190264851, 0.0424444712698, 0.0424809344113, 0.212932810187, 251920449, 0
1637149564270643494, 1465, 0, 160, 126, 0, 76, 180, 2183, 270001600, 33554432, 18205, 15990, 3, 56, 40.0069017643, 116.328013488, 50.2954005878, -9.69999980927, 0.0107558307701, 0.373967063836, 0.00910758100625, -1.24866906352, 1.63969010233, 88.711003056, 0.0396273955703, 0.0392843522131, 0.0382475443184, 0.0263956021518, 0.0262759458274, 0.0178190264851, 0.0424444712698, 0.0424809344113, 0.212932810187, 251920449, 0
1637149564289109655, 1465, 0, 160, 126, 0, 76, 180, 2183, 270001620, 33554432, 18205, 15990, 3, 56, 40.0069017639, 116.328013576, 50.2957121534, -9.69999980927, 0.0100738183109, 0.386176925056, 0.0136041393108, -1.25277180872, 1.63529141558, 88.7110742677, 0.0396273955703, 0.0392843522131, 0.0382475443184, 0.0263956021518, 0.0262759458274, 0.0178190264851, 0.0424444712698, 0.0424809344113, 0.212932810187, 251920449, 0
1637149564311047068, 1465, 0, 160, 126, 0, 76, 180, 2183, 270001640, 33554432, 18205, 15990, 3, 56, 40.006901764, 116.328013668, 50.2960630357, -9.69999980927, 0.00665227605752, 0.402338991949, 0.0165027703501, -1.25847767109, 1.62800484798, 88.7116895248, 0.0396273955703, 0.0392843522131, 0.0382475443184, 0.0263956021518, 0.0262759458274, 0.0178190264851, 0.0424444712698, 0.0424809344113, 0.212932810187, 251920449, 0
1637149564328849192, 1465, 0, 160, 126, 0, 76, 180, 2183, 270001660, 33554432, 18205, 15990, 3, 56, 40.0069017643, 116.328013763, 50.2964969995, -9.69999980927, 0.0130797845539, 0.414994278162, 0.0190914096045, -1.26502447554, 1.61754069387, 88.7118048572, 0.0396273955703, 0.0392843522131, 0.0382475443184, 0.0263956021518, 0.0262759458274, 0.0178190264851, 0.0424444712698, 0.0424809344113, 0.212932810187, 251920449, 0
1637149564349863825, 1465, 0, 160, 126, 0, 76, 180, 2183, 270001680, 33554432, 18205, 15990, 3, 56, 40.0069017643, 116.328013861, 50.2969256649, -9.69999980927, 0.00634532206109, 0.426467638217, 0.0197987470008, -1.27075271642, 1.60819388867, 88.7113865491, 0.0396273955703, 0.0392843522131, 0.0382475443184, 0.0263956021518, 0.0262759458274, 0.0178190264851, 0.0424444712698, 0.0424809344113, 0.212932810187, 251920449, 0
1637149564370613528, 1465, 0, 160, 126, 0, 76, 180, 2183, 270001700, 33554432, 18205, 15990, 3, 56, 40.0069017645, 116.328013962, 50.2974244552, -9.69999980927, 0.00902160483792, 0.440612228583, 0.0208125895938, -1.2778887509, 1.59507846636, 88.7112264823, 0.0396273955703, 0.0392843522131, 0.0382475443184, 0.0263956021518, 0.0262759458274, 0.0178190264851, 0.0424444712698, 0.0424809344113, 0.212932810187, 251920449, 0
1637149564389570430, 1465, 0, 160, 126, 0, 76, 180, 2183, 270001720, 33554432, 18205, 15990, 3, 56, 40.0069017652, 116.328014066, 50.2979001077, -9.69999980927, 0.0120504960067, 0.454278018866, 0.0220721917791, -1.28459907492, 1.58447910857, 88.7104720941, 0.0396273955703, 0.0392843522131, 0.0382475443184, 0.0263956021518, 0.0262759458274, 0.0178190264851, 0.0424444712698, 0.0424809344113, 0.212932810187, 251920449, 0
1637149564409874714, 1465, 0, 160, 126, 0, 76, 180, 2183, 270001740, 33554432, 18205, 15990, 3, 56, 40.0069017649, 116.328014173, 50.2984086806, -9.69999980927, 0.0068977601318, 0.46584164122, 0.0208314604851, -1.29172799274, 1.57316585288, 88.7092384778, 0.0396273955703, 0.0392843522131, 0.0382475443184, 0.0263956021518, 0.0262759458274, 0.0178190264851, 0.0424444712698, 0.0424809344113, 0.212932810187, 251920449, 0
1637149564431863404, 1465, 0, 160, 126, 0, 76, 180, 2183, 270001760, 33554432, 18205, 15990, 3, 56, 40.0069017657, 116.328014283, 50.298916216, -9.69999980927, 0.0120345947988, 0.478683631867, 0.0232472558637, -1.30059772898, 1.56175400198, 88.7076219209, 0.0396273955703, 0.0392843522131, 0.0382475443184, 0.0263956021518, 0.0262759458274, 0.0178190264851, 0.0424444712698, 0.0424809344113, 0.212932810187, 251920449, 0
1637149564449200679, 1465, 0, 160, 126, 0, 76, 180, 2183, 270001780, 33554432, 18205, 15990, 3, 56, 40.0069017651, 116.328014396, 50.2993966257, -9.69999980927, 0.00797497989678, 0.490755931022, 0.0204199280759, -1.30759989705, 1.55423439553, 88.704041641, 0.0396273955703, 0.0392843522131, 0.0382475443184, 0.0263956021518, 0.0262759458274, 0.0178190264851, 0.0424444712698, 0.0424809344113, 0.212932810187, 251920449, 0
1637149564470074223, 1465, 0, 160, 126, 0, 76, 180, 2183, 270001800, 33554432, 18205, 15990, 3, 56, 40.0069017651, 116.328014512, 50.2998440983, -9.69999980927, 0.00517139847976, 0.503946050729, 0.0191681936221, -1.31570316478, 1.54683506346, 88.7020771901, 0.0396273955703, 0.0392843522131, 0.0382475443184, 0.0263956021518, 0.0262759458274, 0.0178190264851, 0.0424444712698, 0.0424809344113, 0.212932810187, 251920449, 0
1637149564490228594, 1465, 0, 160, 126, 0, 76, 180, 2183, 270001820, 33554432, 18205, 15990, 3, 56, 40.0069017648, 116.328014631, 50.3002756061, -9.69999980927, 0.00907325081451, 0.517063340358, 0.017549303045, -1.32185255496, 1.54107402096, 88.6980848855, 0.0396273955703, 0.0392843522131, 0.0382475443184, 0.0263956021518, 0.0262759458274, 0.0178190264851, 0.0424444712698, 0.0424809344113, 0.212932810187, 251920449, 0
1637149564509584522, 1465, 0, 160, 126, 0, 76, 180, 2183, 270001840, 33554432, 18205, 15990, 3, 56, 40.0069017641, 116.328014753, 50.3006066931, -9.69999980927, 0.000771176006341, 0.530564531744, 0.0125254449648, -1.32776792325, 1.53546621726, 88.6951235947, 0.0396273955703, 0.0392843522131, 0.0382475443184, 0.0263956021518, 0.0262759458274, 0.0178190264851, 0.0424444712698, 0.0424809344113, 0.212932810187, 251920449, 0
1637149564529548974, 1465, 0, 160, 126, 0, 76, 180, 2183, 270001860, 33554432, 18205, 15990, 3, 56, 40.0069017638, 116.328014878, 50.300976634, -9.69999980927, 0.00667090989645, 0.544661170021, 0.0125797673228, -1.33576583964, 1.53050510816, 88.6927255501, 0.0396273955703, 0.0392843522131, 0.0382475443184, 0.0263956021518, 0.0262759458274, 0.0178190264851, 0.0424444712698, 0.0424809344113, 0.212932810187, 251920449, 0
1637149564550957124, 1465, 0, 160, 126, 0, 76, 180, 2183, 270001880, 33554432, 18205, 15990, 3, 56, 40.0069017638, 116.328015007, 50.3012616169, -9.69999980927, 0.00754214888618, 0.557047476354, 0.0114489192925, -1.34366005905, 1.52631100153, 88.6890717917, 0.0396273955703, 0.0392843522131, 0.0382475443184, 0.0263956021518, 0.0262759458274, 0.0178190264851, 0.0424444712698, 0.0424809344113, 0.212932810187, 251920449, 0
1637149564570395158, 1465, 0, 160, 126, 0, 76, 180, 2183, 270001900, 33554432, 18205, 15990, 3, 56, 40.0069017631, 116.328015139, 50.3015611349, -9.69999980927, 0.00286424748849, 0.573842179285, 0.00971758915312, -1.3519672247, 1.51962845779, 88.6875454158, 0.0396273955703, 0.0392843522131, 0.0382475443184, 0.0263956021518, 0.0262759458274, 0.0178190264851, 0.0424444712698, 0.0424809344113, 0.212932810187, 251920449, 0
1637149564590057442, 1465, 0, 160, 126, 0, 76, 180, 2183, 270001920, 33554432, 18205, 15990, 3, 56, 40.0069017637, 116.328015274, 50.3018340953, -9.69999980927, 0.0120306724302, 0.587132601194, 0.0115342804465, -1.36054283, 1.5149253619, 88.6853763753, 0.0396273955703, 0.0392843522131, 0.0382475443184, 0.0263956021518, 0.0262759458274, 0.0178190264851, 0.0424444712698, 0.0424809344113, 0.212932810187, 251920449, 0
1637149564610759259, 1465, 0, 160, 126, 0, 76, 180, 2183, 270001940, 33554432, 18205, 15990, 3, 56, 40.0069017627, 116.328015413, 50.3020490389, -9.69999980927, 0.00469536327311, 0.600909039842, 0.00707794299322, -1.36685739376, 1.50998258067, 88.6842571357, 0.0396273955703, 0.0392843522131, 0.0382475443184, 0.0263956021518, 0.0262759458274, 0.0178190264851, 0.0424444712698, 0.0424809344113, 0.212932810187, 251920449, 0
1637149564629522074, 1465, 0, 160, 126, 0, 76, 180, 2183, 270001960, 33554432, 18205, 15990, 3, 56, 40.0069017628, 116.328015555, 50.3022541627, -9.69999980927, 0.0057946678251, 0.615995935777, 0.00683484827175, -1.37221171106, 1.50332696261, 88.6855213288, 0.0396273955703, 0.0392843522131, 0.0382475443184, 0.0263956021518, 0.0262759458274, 0.0178190264851, 0.0424444712698, 0.0424809344113, 0.212932810187, 251920449, 0
1637149564649198755, 1465, 0, 160, 126, 0, 76, 180, 2183, 270001980, 33554432, 18205, 15990, 3, 56, 40.0069017619, 116.3280157, 50.3024073318, -9.69999980927, 0.0066795522274, 0.628880900156, 0.00474827905944, -1.37480085488, 1.50135840695, 88.6846677715, 0.0396273955703, 0.0392843522131, 0.0382475443184, 0.0263956021518, 0.0262759458274, 0.0178190264851, 0.0424444712698, 0.0424809344113, 0.212932810187, 251920449, 0
1637149564675222533, 1465, 0, 160, 126, 0, 76, 180, 2183, 270002000, 33554432, 18205, 15990, 3, 56, 40.0069017611, 116.328015848, 50.3025090965, -9.69999980927, -0.000137890897942, 0.644797486908, 0.00111027706639, -1.37842105911, 1.49774241623, 88.6855341791, 0.0396273955703, 0.0392843522131, 0.0382475443184, 0.0263956021518, 0.0262759458274, 0.0178190264851, 0.0424444712698, 0.0424809344113, 0.212932810187, 251920449, 0
1637149564692068179, 1465, 0, 160, 126, 0, 76, 180, 2183, 270002020, 33554432, 18205, 15990, 3, 56, 40.0069017608, 116.328016, 50.3025957318, -9.69999980927, 0.00743459021042, 0.657736930609, 0.000242019018005, -1.38337511264, 1.49632645595, 88.6865064376, 0.0625203102827, 0.0620384477079, 0.0537260323763, 0.0342646613717, 0.0340392142534, 0.0217119343579, 0.0433054156601, 0.043343603611, 0.213267371058, 251920449, 0
1637149564710002109, 1465, 0, 160, 126, 0, 76, 180, 2183, 270002040, 33554432, 18205, 15990, 3, 56, 40.0069017603, 116.328016155, 50.3025995567, -9.69999980927, 0.00507753592386, 0.672082331342, -0.00498481888077, -1.39082895828, 1.49616967036, 88.6861875261, 0.0395267382264, 0.0391861945391, 0.0382172614336, 0.0256932470948, 0.0254791136831, 0.0178122650832, 0.0393342524767, 0.0393680892885, 0.213183388114, 251666497, 0
1637149564730799423, 1465, 0, 160, 126, 0, 76, 180, 2183, 270002060, 33554432, 18205, 15990, 3, 56, 40.0069017602, 116.328016314, 50.3026375752, -9.69999980927, 0.00330522141439, 0.686803024827, -0.00554227195466, -1.4013755057, 1.49575120883, 88.6872843246, 0.0395267382264, 0.0391861945391, 0.0382172614336, 0.0256932470948, 0.0254791136831, 0.0178122650832, 0.0393342524767, 0.0393680892885, 0.213183388114, 251666497, 0
1637149564749714834, 1465, 0, 160, 126, 0, 76, 180, 2183, 270002080, 33554432, 18205, 15990, 3, 56, 40.0069017603, 116.328016475, 50.3026297996, -9.69999980927, 0.00702609683328, 0.700085313421, -0.00387047015116, -1.40943222207, 1.49790512545, 88.687301553, 0.0395267382264, 0.0391861945391, 0.0382172614336, 0.0256932470948, 0.0254791136831, 0.0178122650832, 0.0393342524767, 0.0393680892885, 0.213183388114, 251666497, 0
1637149564770207323, 1465, 0, 160, 126, 0, 76, 180, 2183, 270002100, 33554432, 18205, 15990, 3, 56, 40.0069017591, 116.328016641, 50.3026513774, -9.69999980927, -0.0018918663439, 0.718418925318, -0.0044790386156, -1.41490055172, 1.49695913991, 88.6892250444, 0.0395267382264, 0.0391861945391, 0.0382172614336, 0.0256932470948, 0.0254791136831, 0.0178122650832, 0.0393342524767, 0.0393680892885, 0.213183388114, 251666497, 0
1637149564791140175, 1465, 0, 160, 126, 0, 76, 180, 2183, 270002120, 33554432, 18205, 15990, 3, 56, 40.0069017589, 116.32801681, 50.3026802009, -9.69999980927, 0.00504931024289, 0.731705969829, -0.00180338557157, -1.41937629292, 1.49502311277, 88.6925145373, 0.0395267382264, 0.0391861945391, 0.0382172614336, 0.0256932470948, 0.0254791136831, 0.0178122650832, 0.0393342524767, 0.0393680892885, 0.213183388114, 251666497, 0
1637149564809743706, 1465, 0, 160, 126, 0, 76, 180, 2183, 270002140, 33554432, 18205, 15990, 3, 56, 40.0069017573, 116.328016982, 50.3026777171, -9.69999980927, 0.000692450377144, 0.745709154339, -0.00397357380358, -1.41906137224, 1.49592921349, 88.6956822147, 0.0395267382264, 0.0391861945391, 0.0382172614336, 0.0256932470948, 0.0254791136831, 0.0178122650832, 0.0393342524767, 0.0393680892885, 0.213183388114, 251666497, 0
1637149564831793706, 1465, 0, 160, 126, 0, 76, 180, 2183, 270002160, 33554432, 18205, 15990, 3, 56, 40.0069017562, 116.328017158, 50.3026555358, -9.69999980927, -0.00208253888188, 0.761148493559, -0.00573893789578, -1.42074711891, 1.49347629407, 88.700758231, 0.0395267382264, 0.0391861945391, 0.0382172614336, 0.0256932470948, 0.0254791136831, 0.0178122650832, 0.0393342524767, 0.0393680892885, 0.213183388114, 251666497, 0
1637149564851411650, 1465, 0, 160, 126, 0, 76, 180, 2183, 270002180, 33554432, 18205, 15990, 3, 56, 40.0069017557, 116.328017337, 50.3026445769, -9.69999980927, 0.0076314037117, 0.774093199796, -0.00485267431959, -1.42346764394, 1.49402580814, 88.7042277622, 0.0395267382264, 0.0391861945391, 0.0382172614336, 0.0256932470948, 0.0254791136831, 0.0178122650832, 0.0393342524767, 0.0393680892885, 0.213183388114, 251666497, 0
1637149564870525187, 1465, 0, 160, 126, 0, 76, 180, 2183, 270002200, 33554432, 18205, 15990, 3, 56, 40.0069017546, 116.32801752, 50.3026158288, -9.69999980927, -0.00225249725659, 0.789833921483, -0.00493683197091, -1.42799307691, 1.49438098898, 88.7089740314, 0.0395267382264, 0.0391861945391, 0.0382172614336, 0.0256932470948, 0.0254791136831, 0.0178122650832, 0.0393342524767, 0.0393680892885, 0.213183388114, 251666497, 0
1637149564890145187, 1465, 0, 160, 126, 0, 76, 180, 2183, 270002220, 33554432, 18205, 15990, 3, 56, 40.0069017541, 116.328017707, 50.3027006956, -9.69999980927, 0.00278546591998, 0.808579663098, -0.000551098805065, -1.43311102295, 1.49142299769, 88.715261314, 0.0395267382264, 0.0391861945391, 0.0382172614336, 0.0256932470948, 0.0254791136831, 0.0178122650832, 0.0393342524767, 0.0393680892885, 0.213183388114, 251666497, 0
1637149564912037224, 1465, 0, 160, 126, 0, 76, 180, 2183, 270002240, 33554432, 18205, 15990, 3, 56, 40.0069017534, 116.328017897, 50.3027583947, -9.69999980927, 0.00182732756094, 0.823976440612, 0.000451885855476, -1.43701613764, 1.49102913774, 88.7213373943, 0.0395267382264, 0.0391861945391, 0.0382172614336, 0.0256932470948, 0.0254791136831, 0.0178122650832, 0.0393342524767, 0.0393680892885, 0.213183388114, 251666497, 0
1637149564929616784, 1465, 0, 160, 126, 0, 76, 180, 2183, 270002260, 33554432, 18205, 15990, 3, 56, 40.0069017522, 116.328018091, 50.3028685739, -9.69999980927, -0.00201175558695, 0.837563757526, -0.000105037600139, -1.44105852079, 1.48888500977, 88.729691186, 0.0395267382264, 0.0391861945391, 0.0382172614336, 0.0256932470948, 0.0254791136831, 0.0178122650832, 0.0393342524767, 0.0393680892885, 0.213183388114, 251666497, 0
1637149564949897066, 1465, 0, 160, 126, 0, 76, 180, 2183, 270002280, 33554432, 18205, 15990, 3, 56, 40.0069017518, 116.328018289, 50.3029695675, -9.69999980927, 0.0040615349894, 0.854639734668, 0.00200965794094, -1.44425853458, 1.48547309243, 88.7372590677, 0.0395267382264, 0.0391861945391, 0.0382172614336, 0.0256932470948, 0.0254791136831, 0.0178122650832, 0.0393342524767, 0.0393680892885, 0.213183388114, 251666497, 0
1637149564969854057, 1465, 0, 160, 126, 0, 76, 180, 2183, 270002300, 33554432, 18205, 15990, 3, 56, 40.0069017506, 116.32801849, 50.3031051159, -9.69999980927, 0.00121363488744, 0.868051815102, 0.00293308920012, -1.4474245898, 1.48438293994, 88.7459888965, 0.0395267382264, 0.0391861945391, 0.0382172614336, 0.0256932470948, 0.0254791136831, 0.0178122650832, 0.0393342524767, 0.0393680892885, 0.213183388114, 251666497, 0
1637149564989789258, 1465, 0, 160, 126, 0, 76, 180, 2183, 270002320, 33554432, 18205, 15990, 3, 56, 40.0069017499, 116.328018694, 50.3032532008, -9.69999980927, 0.000127151835462, 0.884525249325, 0.00437064957989, -1.4520617248, 1.48270334337, 88.7557655497, 0.0395267382264, 0.0391861945391, 0.0382172614336, 0.0256932470948, 0.0254791136831, 0.0178122650832, 0.0393342524767, 0.0393680892885, 0.213183388114, 251666497, 0
1637149565009405006, 1465, 0, 160, 126, 0, 76, 180, 2183, 270002340, 33554432, 18205, 15990, 3, 56, 40.0069017482, 116.328018902, 50.3034403566, -9.69999980927, -0.00351864031417, 0.895156848893, 0.00614575974184, -1.45183222561, 1.47933131784, 88.7650071221, 0.0395267382264, 0.0391861945391, 0.0382172614336, 0.0256932470948, 0.0254791136831, 0.0178122650832, 0.0393342524767, 0.0393680892885, 0.213183388114, 251666497, 0
1637149565032257128, 1465, 0, 160, 126, 0, 76, 180, 2183, 270002360, 33554432, 18205, 15990, 3, 56, 40.0069017448, 116.328019112, 50.3036070559, -9.69999980927, -0.0187731153279, 0.904131755819, 0.00484487444736, -1.44594653874, 1.47836396342, 88.7723381265, 0.0395267382264, 0.0391861945391, 0.0382172614336, 0.0256932470948, 0.0254791136831, 0.0178122650832, 0.0393342524767, 0.0393680892885, 0.213183388114, 251666497, 0
1637149565049070515, 1465, 0, 160, 126, 0, 76, 180, 2183, 270002380, 33554432, 18205, 15990, 3, 56, 40.0069017412, 116.328019325, 50.3038627822, -9.69999980927, -0.0168967561556, 0.920637530999, 0.00867704103206, -1.43733152944, 1.47815906895, 88.7774739076, 0.0395267382264, 0.0391861945391, 0.0382172614336, 0.0256932470948, 0.0254791136831, 0.0178122650832, 0.0393342524767, 0.0393680892885, 0.213183388114, 251666497, 0
1637149565070920353, 1465, 0, 160, 126, 0, 76, 180, 2183, 270002400, 33554432, 18205, 15990, 3, 56, 40.0069017368, 116.328019541, 50.3041212615, -9.69999980927, -0.0211337927655, 0.929902813384, 0.0104153829177, -1.42699243164, 1.47609875166, 88.7807664464, 0.0395267382264, 0.0391861945391, 0.0382172614336, 0.0256932470948, 0.0254791136831, 0.0178122650832, 0.0393342524767, 0.0393680892885, 0.213183388114, 251666497, 0
1637149565090242089, 1465, 0, 160, 126, 0, 76, 180, 2183, 270002420, 33554432, 18205, 15990, 3, 56, 40.0069017317, 116.32801976, 50.3044065973, -9.69999980927, -0.0249014047373, 0.940959872953, 0.00948912640895, -1.42028701818, 1.47576050333, 88.7818780909, 0.0395267382264, 0.0391861945391, 0.0382172614336, 0.0256932470948, 0.0254791136831, 0.0178122650832, 0.0393342524767, 0.0393680892885, 0.213183388114, 251666497, 0
1637149565109976084, 1465, 0, 160, 126, 0, 76, 180, 2183, 270002440, 33554432, 18205, 15990, 3, 56, 40.0069017275, 116.328019981, 50.3047141386, -9.69999980927, -0.0172379075702, 0.952776998124, 0.0128930822128, -1.41346774985, 1.47510845326, 88.7827717203, 0.0395267382264, 0.0391861945391, 0.0382172614336, 0.0256932470948, 0.0254791136831, 0.0178122650832, 0.0393342524767, 0.0393680892885, 0.213183388114, 251666497, 0
1637149565130932788, 1465, 0, 160, 126, 0, 76, 180, 2183, 270002460, 33554432, 18205, 15990, 3, 56, 40.0069017221, 116.328020205, 50.3049921636, -9.69999980927, -0.0216451940039, 0.965163351534, 0.00964099300398, -1.40760056317, 1.47694370445, 88.7836038616, 0.0395267382264, 0.0391861945391, 0.0382172614336, 0.0256932470948, 0.0254791136831, 0.0178122650832, 0.0393342524767, 0.0393680892885, 0.213183388114, 251666497, 0
1637149565150946631, 1465, 0, 160, 126, 0, 76, 180, 2183, 270002480, 33554432, 18205, 15990, 3, 56, 40.0069017183, 116.328020433, 50.3052583477, -9.69999980927, -0.0152271675022, 0.981830949913, 0.00953840972946, -1.40556198025, 1.47525918052, 88.7877659131, 0.0395267382264, 0.0391861945391, 0.0382172614336, 0.0256932470948, 0.0254791136831, 0.0178122650832, 0.0393342524767, 0.0393680892885, 0.213183388114, 251666497, 0
1637149565170686973, 1465, 0, 160, 126, 0, 76, 180, 2183, 270002500, 33554432, 18205, 15990, 3, 56, 40.006901714, 116.328020663, 50.3055247478, -9.69999980927, -0.0132079347358, 0.992977933734, 0.00883955548235, -1.40392678319, 1.4739510245, 88.7913783336, 0.0395267382264, 0.0391861945391, 0.0382172614336, 0.0256932470948, 0.0254791136831, 0.0178122650832, 0.0393342524767, 0.0393680892885, 0.213183388114, 251666497, 0
1637149565191023387, 1465, 0, 160, 126, 0, 76, 180, 2183, 270002520, 33554432, 18205, 15990, 3, 56, 40.0069017106, 116.328020897, 50.3057239801, -9.69999980927, -0.013796493251, 1.00751979112, 0.00553488967608, -1.40301034229, 1.47342677943, 88.7986878675, 0.0395267382264, 0.0391861945391, 0.0382172614336, 0.0256932470948, 0.0254791136831, 0.0178122650832, 0.0393342524767, 0.0393680892885, 0.213183388114, 251666497, 0
1637149565210102787, 1465, 0, 160, 126, 0, 76, 180, 2183, 270002540, 33554432, 18205, 15990, 3, 56, 40.006901708, 116.328021133, 50.305940846, -9.69999980927, -0.00809681062771, 1.01848867367, 0.0055273625089, -1.40315074827, 1.47203404589, 88.8109294174, 0.0395267382264, 0.0391861945391, 0.0382172614336, 0.0256932470948, 0.0254791136831, 0.0178122650832, 0.0393342524767, 0.0393680892885, 0.213183388114, 251666497, 0
1637149565230977948, 1465, 0, 160, 126, 0, 76, 180, 2183, 270002560, 33554432, 18205, 15990, 3, 56, 40.0069017049, 116.328021372, 50.3060862133, -9.69999980927, -0.0125193473131, 1.02728032053, 0.00351223259596, -1.40018968111, 1.47144969934, 88.8216001709, 0.0395267382264, 0.0391861945391, 0.0382172614336, 0.0256932470948, 0.0254791136831, 0.0178122650832, 0.0393342524767, 0.0393680892885, 0.213183388114, 251666497, 0
1637149565250585633, 1465, 0, 160, 126, 0, 76, 180, 2183, 270002580, 33554432, 18205, 15990, 3, 56, 40.0069017011, 116.328021614, 50.3062638044, -9.69999980927, -0.0195237597121, 1.03594354047, 0.00313734914315, -1.39567090145, 1.47068083899, 88.8376409949, 0.0395267382264, 0.0391861945391, 0.0382172614336, 0.0256932470948, 0.0254791136831, 0.0178122650832, 0.0393342524767, 0.0393680892885, 0.213183388114, 251666497, 0
1637149565269958765, 1465, 0, 160, 126, 0, 76, 180, 2183, 270002600, 33554432, 18205, 15990, 3, 56, 40.0069016972, 116.328021857, 50.3064302793, -9.69999980927, -0.0178963005376, 1.0447853168, 0.00577952999467, -1.38572739724, 1.47010031522, 88.8541626816, 0.0395267382264, 0.0391861945391, 0.0382172614336, 0.0256932470948, 0.0254791136831, 0.0178122650832, 0.0393342524767, 0.0393680892885, 0.213183388114, 251666497, 0
1637149565289383087, 1465, 0, 160, 126, 0, 76, 180, 2183, 270002620, 33554432, 18205, 15990, 3, 56, 40.0069016912, 116.328022102, 50.3066594349, -9.69999980927, -0.029718252392, 1.05575080517, 0.00721220718098, -1.3709554866, 1.47082913246, 88.8751136938, 0.0395267382264, 0.0391861945391, 0.0382172614336, 0.0256932470948, 0.0254791136831, 0.0178122650832, 0.0393342524767, 0.0393680892885, 0.213183388114, 251666497, 0
1637149565312210852, 1465, 0, 160, 126, 0, 76, 180, 2183, 270002640, 33554432, 18205, 15990, 3, 56, 40.0069016856, 116.32802235, 50.3068659883, -9.69999980927, -0.0281131075464, 1.06432831284, 0.00706630075165, -1.35546908735, 1.47013660281, 88.8976215271, 0.0395267382264, 0.0391861945391, 0.0382172614336, 0.0256932470948, 0.0254791136831, 0.0178122650832, 0.0393342524767, 0.0393680892885, 0.213183388114, 251666497, 0
1637149565329090649, 1465, 0, 160, 126, 0, 76, 180, 2183, 270002660, 33554432, 18205, 15990, 3, 56, 40.0069016788, 116.3280226, 50.3070854023, -9.69999980927, -0.0298982938104, 1.07436927948, 0.00730810185297, -1.33942226267, 1.47288583987, 88.9216139731, 0.0395267382264, 0.0391861945391, 0.0382172614336, 0.0256932470948, 0.0254791136831, 0.0178122650832, 0.0393342524767, 0.0393680892885, 0.213183388114, 251666497, 0
1637149565350087240, 1465, 0, 160, 126, 0, 76, 180, 2183, 270002680, 33554432, 18205, 15990, 3, 56, 40.0069016718, 116.328022852, 50.3072733181, -9.69999980927, -0.0365102471022, 1.08523376711, 0.00576673287059, -1.3254279928, 1.47356546299, 88.948810412, 0.0395267382264, 0.0391861945391, 0.0382172614336, 0.0256932470948, 0.0254791136831, 0.0178122650832, 0.0393342524767, 0.0393680892885, 0.213183388114, 251666497, 0
1637149565370909737, 1465, 0, 160, 126, 0, 76, 180, 2183, 270002700, 33554432, 18205, 15990, 3, 56, 40.0069016647, 116.328023108, 50.3075390346, -9.69999980927, -0.0344152313032, 1.09831574316, 0.0102894021746, -1.31167618957, 1.4768577631, 88.9747040933, 0.0395267382264, 0.0391861945391, 0.0382172614336, 0.0256932470948, 0.0254791136831, 0.0178122650832, 0.0393342524767, 0.0393680892885, 0.213183388114, 251666497, 0
1637149565390051315, 1465, 0, 160, 126, 0, 76, 180, 2183, 270002720, 33554432, 18205, 15990, 3, 56, 40.0069016559, 116.328023366, 50.3077610144, -9.69999980927, -0.0476761001199, 1.10988600464, 0.00772039398331, -1.29382048069, 1.47814887513, 89.0020178544, 0.0395267382264, 0.0391861945391, 0.0382172614336, 0.0256932470948, 0.0254791136831, 0.0178122650832, 0.0393342524767, 0.0393680892885, 0.213183388114, 251666497, 0
1637149565409903933, 1465, 0, 160, 126, 0, 76, 180, 2183, 270002740, 33554432, 18205, 15990, 3, 56, 40.0069016467, 116.328023626, 50.307961626, -9.69999980927, -0.0519473012153, 1.11739833605, 0.00405045478166, -1.2731037443, 1.48099682118, 89.0303160976, 0.0395267382264, 0.0391861945391, 0.0382172614336, 0.0256932470948, 0.0254791136831, 0.0178122650832, 0.0393342524767, 0.0393680892885, 0.213183388114, 251666497, 0
1637149565430354285, 1465, 0, 160, 126, 0, 76, 180, 2183, 270002760, 33554432, 18205, 15990, 3, 56, 40.0069016363, 116.328023888, 50.3080614004, -9.69999980927, -0.0554150326069, 1.12530390111, 0.000629603105566, -1.24739340572, 1.48964008898, 89.0575994159, 0.0395267382264, 0.0391861945391, 0.0382172614336, 0.0256932470948, 0.0254791136831, 0.0178122650832, 0.0393342524767, 0.0393680892885, 0.213183388114, 251666497, 0
1637149565449960929, 1465, 0, 160, 126, 0, 76, 180, 2183, 270002780, 33554432, 18205, 15990, 3, 56, 40.0069016247, 116.328024153, 50.3081381116, -9.69999980927, -0.0613228446438, 1.13740037326, -0.00215256499601, -1.21878869564, 1.49790624458, 89.0861003064, 0.0395267382264, 0.0391861945391, 0.0382172614336, 0.0256932470948, 0.0254791136831, 0.0178122650832, 0.0393342524767, 0.0393680892885, 0.213183388114, 251666497, 0
1637149565473858870, 1465, 0, 160, 126, 0, 76, 180, 2183, 270002800, 33554432, 18205, 15990, 3, 56, 40.0069016148, 116.32802442, 50.3081716923, -9.69999980927, -0.0483418457875, 1.14754356484, -0.00182295060132, -1.19482492312, 1.50665389785, 89.1139989571, 0.0395267382264, 0.0391861945391, 0.0382172614336, 0.0256932470948, 0.0254791136831, 0.0178122650832, 0.0393342524767, 0.0393680892885, 0.213183388114, 251666497, 0
1637149565489575607, 1465, 0, 160, 126, 0, 76, 180, 2183, 270002820, 33554432, 18205, 15990, 3, 56, 40.0069016035, 116.328024689, 50.3081631707, -9.69999980927, -0.0540221745498, 1.15776579445, -0.0052278200171, -1.17262376203, 1.51872039383, 89.1423786356, 0.0395267382264, 0.0391861945391, 0.0382172614336, 0.0256932470948, 0.0254791136831, 0.0178122650832, 0.0393342524767, 0.0393680892885, 0.213183388114, 251666497, 0
1637149565510466716, 1465, 0, 160, 126, 0, 76, 180, 2183, 270002840, 33554432, 18205, 15990, 3, 56, 40.0069015936, 116.328024961, 50.30814966, -9.69999980927, -0.0504631216109, 1.16992703779, -0.00387392705435, -1.15411667011, 1.52967765762, 89.1711374729, 0.0395267382264, 0.0391861945391, 0.0382172614336, 0.0256932470948, 0.0254791136831, 0.0178122650832, 0.0393342524767, 0.0393680892885, 0.213183388114, 251666497, 0
1637149565528978869, 1465, 0, 160, 126, 0, 76, 180, 2183, 270002860, 33554432, 18205, 15990, 3, 56, 40.0069015837, 116.328025236, 50.3081754986, -9.69999980927, -0.0436227367997, 1.18175281199, -0.00122183928214, -1.13875452334, 1.53863962042, 89.1953863311, 0.0395267382264, 0.0391861945391, 0.0382172614336, 0.0256932470948, 0.0254791136831, 0.0178122650832, 0.0393342524767, 0.0393680892885, 0.213183388114, 251666497, 0
1637149565550642018, 1465, 0, 160, 126, 0, 76, 180, 2183, 270002880, 33554432, 18205, 15990, 3, 56, 40.006901574, 116.328025514, 50.3081964944, -9.69999980927, -0.0511345744936, 1.19519381369, -0.00155180067783, -1.12439519737, 1.54417658964, 89.2221514956, 0.0395267382264, 0.0391861945391, 0.0382172614336, 0.0256932470948, 0.0254791136831, 0.0178122650832, 0.0393342524767, 0.0393680892885, 0.213183388114, 251666497, 0
1637149565571201334, 1465, 0, 160, 126, 0, 76, 180, 2183, 270002900, 33554432, 18205, 15990, 3, 56, 40.0069015661, 116.328025795, 50.3082785737, -9.69999980927, -0.0351606841677, 1.20734638521, 0.000657543453192, -1.11613170457, 1.5493722399, 89.2475384933, 0.0395267382264, 0.0391861945391, 0.0382172614336, 0.0256932470948, 0.0254791136831, 0.0178122650832, 0.0393342524767, 0.0393680892885, 0.213183388114, 251666497, 0
1637149565590435155, 1465, 0, 160, 126, 0, 76, 180, 2183, 270002920, 33554432, 18205, 15990, 3, 56, 40.0069015582, 116.328026079, 50.3083085222, -9.69999980927, -0.0381764906811, 1.21770979046, -0.00152793963217, -1.10850366618, 1.55349617475, 89.2722568474, 0.0395267382264, 0.0391861945391, 0.0382172614336, 0.0256932470948, 0.0254791136831, 0.0178122650832, 0.0393342524767, 0.0393680892885, 0.213183388114, 251666497, 0
1637149565610947831, 1465, 0, 160, 126, 0, 76, 180, 2183, 270002940, 33554432, 18205, 15990, 3, 56, 40.0069015521, 116.328026365, 50.3084228924, -9.69999980927, -0.0300176260447, 1.23320181711, 0.000908925429736, -1.10484533231, 1.55610219808, 89.3011696914, 0.0395267382264, 0.0391861945391, 0.0382172614336, 0.0256932470948, 0.0254791136831, 0.0178122650832, 0.0393342524767, 0.0393680892885, 0.213183388114, 251666497, 0
1637149565629604267, 1465, 0, 160, 126, 0, 76, 180, 2183, 270002960, 33554432, 18205, 15990, 3, 56, 40.0069015471, 116.328026655, 50.3084999649, -9.69999980927, -0.0184490568948, 1.24194334435, 0.00170453178879, -1.10025293691, 1.55757181931, 89.3286270466, 0.0395267382264, 0.0391861945391, 0.0382172614336, 0.0256932470948, 0.0254791136831, 0.0178122650832, 0.0393342524767, 0.0393680892885, 0.213183388114, 251666497, 0
1637149565649330252, 1465, 0, 160, 126, 0, 76, 180, 2183, 270002980, 33554432, 18205, 15990, 3, 56, 40.0069015419, 116.328026946, 50.3085943628, -9.69999980927, -0.0241723248467, 1.25379926427, 0.000355414218483, -1.10081568473, 1.55864344964, 89.3600052549, 0.0395267382264, 0.0391861945391, 0.0382172614336, 0.0256932470948, 0.0254791136831, 0.0178122650832, 0.0393342524767, 0.0393680892885, 0.213183388114, 251666497, 0
1637149565676650615, 1465, 0, 160, 126, 0, 76, 180, 2183, 270003000, 33554432, 18205, 15990, 3, 56, 40.0069015392, 116.328027241, 50.3087204164, -9.69999980927, -0.00632245457582, 1.26743446715, 0.00496344137015, -1.10251722921, 1.55793902896, 89.3911126683, 0.0395267382264, 0.0391861945391, 0.0382172614336, 0.0256932470948, 0.0254791136831, 0.0178122650832, 0.0393342524767, 0.0393680892885, 0.213183388114, 251666497, 0
1637149565691471110, 1465, 0, 160, 126, 0, 76, 180, 2183, 270003020, 33554432, 18205, 15990, 3, 56, 40.0069015357, 116.328027539, 50.3088485273, -9.69999980927, -0.0095730251569, 1.27668472853, 0.00372231881492, -1.11096627536, 1.55624869129, 89.4231553409, 0.0618626624346, 0.0613648146391, 0.0536871030927, 0.0333222672343, 0.0329332686961, 0.0217104386538, 0.0439535863698, 0.0439872443676, 0.214438125491, 251666497, 0
1637149565709655020, 1465, 0, 160, 126, 0, 76, 180, 2183, 270003040, 33554432, 18205, 15990, 3, 56, 40.0069015323, 116.328027838, 50.3089776738, -9.69999980927, -0.00752506722153, 1.28845441553, 0.00677613932895, -1.12112399761, 1.55214905884, 89.4575730483, 0.0393795743585, 0.0390370115638, 0.0383428372443, 0.025147434324, 0.024792432785, 0.0178431291133, 0.0407671481371, 0.0408192910254, 0.213989377022, 251666497, 0
1637149565730549827, 1465, 0, 160, 126, 0, 76, 180, 2183, 270003060, 33554432, 18205, 15990, 3, 56, 40.0069015273, 116.328028138, 50.3090544781, -9.69999980927, -0.00506884844829, 1.29801527101, 0.00730163550276, -1.13172439215, 1.54837940074, 89.4900699791, 0.0393795743585, 0.0390370115638, 0.0383428372443, 0.025147434324, 0.024792432785, 0.0178431291133, 0.0407671481371, 0.0408192910254, 0.213989377022, 251666497, 0
1637149565750067858, 1465, 0, 160, 126, 0, 70, 180, 2183, 270003080, 33554432, 18205, 15990, 3, 56, 40.0069015226, 116.328028442, 50.3091511764, -9.69999980927, -0.0155081607394, 1.30852861202, 0.00605074715135, -1.1433421261, 1.54289341964, 89.5254454233, 0.0393795743585, 0.0390370115638, 0.0383428372443, 0.025147434324, 0.024792432785, 0.0178431291133, 0.0407671481371, 0.0408192910254, 0.213989377022, 251666497, 0
1637149565770254439, 1465, 0, 160, 126, 0, 70, 180, 2183, 270003100, 33554432, 18205, 15990, 3, 56, 40.0069015182, 116.328028747, 50.3092629369, -9.69999980927, -0.0061829901517, 1.31760751404, 0.00842679855464, -1.15583786667, 1.53856844686, 89.5606192442, 0.0393795743585, 0.0390370115638, 0.0383428372443, 0.025147434324, 0.024792432785, 0.0178431291133, 0.0407671481371, 0.0408192910254, 0.213989377022, 251666497, 0
1637149565791085734, 1465, 0, 160, 126, 0, 70, 180, 2183, 270003120, 33554432, 18205, 15990, 3, 56, 40.0069015127, 116.328029055, 50.3093137657, -9.69999980927, -0.0196211298664, 1.32760577562, 0.00300897304776, -1.16663934888, 1.53554524447, 89.595296275, 0.0393795743585, 0.0390370115638, 0.0383428372443, 0.025147434324, 0.024792432785, 0.0178431291133, 0.0407671481371, 0.0408192910254, 0.213989377022, 251666497, 0
1637149565809343371, 1465, 0, 160, 126, 0, 70, 180, 2183, 270003140, 33554432, 18205, 15990, 3, 56, 40.0069015071, 116.328029365, 50.3093999354, -9.69999980927, -0.0196188258305, 1.33828313455, 0.00460148967855, -1.17633782987, 1.5307922319, 89.6332521153, 0.0393795743585, 0.0390370115638, 0.0383428372443, 0.025147434324, 0.024792432785, 0.0178431291133, 0.0407671481371, 0.0408192910254, 0.213989377022, 251666497, 0
1637149565831397234, 1465, 0, 160, 126, 0, 70, 180, 2183, 270003160, 33554432, 18205, 15990, 3, 56, 40.0069015009, 116.328029677, 50.3094247449, -9.69999980927, -0.0224860255248, 1.34508778636, 0.00213277396513, -1.18197943343, 1.52962134333, 89.6687758062, 0.0393795743585, 0.0390370115638, 0.0383428372443, 0.025147434324, 0.024792432785, 0.0178431291133, 0.0407671481371, 0.0408192910254, 0.213989377022, 251666497, 0
1637149565851355623, 1465, 0, 160, 126, 0, 70, 180, 2183, 270003180, 33554432, 18205, 15990, 3, 56, 40.006901493, 116.328029991, 50.309415834, -9.69999980927, -0.0326310824511, 1.35450257774, 4.64801590375e-05, -1.18879188465, 1.52846882349, 89.7061456009, 0.0393795743585, 0.0390370115638, 0.0383428372443, 0.025147434324, 0.024792432785, 0.0178431291133, 0.0407671481371, 0.0408192910254, 0.213989377022, 251666497, 0
1637149565869998271, 1465, 0, 160, 126, 0, 70, 180, 2183, 270003200, 33554432, 18205, 15990, 3, 56, 40.0069014855, 116.328030308, 50.3093875684, -9.69999980927, -0.0297211703883, 1.36591572903, -0.000569048049649, -1.19400014402, 1.52833718829, 89.7411572244, 0.0393795743585, 0.0390370115638, 0.0383428372443, 0.025147434324, 0.024792432785, 0.0178431291133, 0.0407671481371, 0.0408192910254, 0.213989377022, 251666497, 0
1637149565889688079, 1465, 0, 160, 126, 0, 70, 180, 2183, 270003220, 33554432, 18205, 15990, 3, 56, 40.0069014751, 116.328030627, 50.3092856249, -9.69999980927, -0.042505083362, 1.37519436874, -0.00425808032953, -1.19457720417, 1.52915879294, 89.7763264435, 0.0393795743585, 0.0390370115638, 0.0383428372443, 0.025147434324, 0.024792432785, 0.0178431291133, 0.0407671481371, 0.0408192910254, 0.213989377022, 251666497, 0
1637149565911000548, 1465, 0, 160, 126, 0, 70, 180, 2183, 270003240, 33554432, 18205, 15990, 3, 56, 40.0069014655, 116.328030949, 50.3091815319, -9.69999980927, -0.0435510059095, 1.38608519884, -0.00474660865104, -1.19620944169, 1.53130174825, 89.8121830598, 0.0393795743585, 0.0390370115638, 0.0383428372443, 0.025147434324, 0.024792432785, 0.0178431291133, 0.0407671481371, 0.0408192910254, 0.213989377022, 251666497, 0
1637149565929428579, 1465, 0, 160, 126, 0, 70, 180, 2183, 270003260, 33554432, 18205, 15990, 3, 56, 40.0069014531, 116.328031273, 50.309009186, -9.69999980927, -0.0494497734241, 1.39839573176, -0.0060017656178, -1.19093376961, 1.53309507944, 89.8464403212, 0.0393795743585, 0.0390370115638, 0.0383428372443, 0.025147434324, 0.024792432785, 0.0178431291133, 0.0407671481371, 0.0408192910254, 0.213989377022, 251666497, 0
1637149565950002932, 1465, 0, 160, 126, 0, 70, 180, 2183, 270003280, 33554432, 18205, 15990, 3, 56, 40.0069014412, 116.3280316, 50.3088604556, -9.69999980927, -0.0565234888286, 1.40883943523, -0.00609196616612, -1.1885342625, 1.53195760597, 89.8839985411, 0.0393795743585, 0.0390370115638, 0.0383428372443, 0.025147434324, 0.024792432785, 0.0178431291133, 0.0407671481371, 0.0408192910254, 0.213989377022, 251666497, 0
1637149565970064011, 1465, 0, 160, 126, 0, 70, 180, 2183, 270003300, 33554432, 18205, 15990, 3, 56, 40.0069014286, 116.328031929, 50.308726687, -9.69999980927, -0.0509065950326, 1.42041984583, -0.00352247177942, -1.18272747214, 1.53123839713, 89.9223697118, 0.0393795743585, 0.0390370115638, 0.0383428372443, 0.025147434324, 0.024792432785, 0.0178431291133, 0.0407671481371, 0.0408192910254, 0.213989377022, 251666497, 0
1637149565989425514, 1465, 0, 160, 126, 0, 70, 180, 2183, 270003320, 33554432, 18205, 15990, 3, 56, 40.006901416, 116.328032262, 50.3085681582, -9.69999980927, -0.0590763018859, 1.43302119459, -0.00697404704784, -1.17796063289, 1.52752717801, 89.9633638425, 0.0393795743585, 0.0390370115638, 0.0383428372443, 0.025147434324, 0.024792432785, 0.0178431291133, 0.0407671481371, 0.0408192910254, 0.213989377022, 251666497, 0
1637149566009979844, 1465, 0, 160, 126, 0, 70, 180, 2183, 270003340, 33554432, 18205, 15990, 3, 56, 40.0069014045, 116.328032596, 50.3085556459, -9.69999980927, -0.0490663936689, 1.44248174583, 0.00174690726066, -1.1788048434, 1.52186439779, 90.0091634342, 0.0393795743585, 0.0390370115638, 0.0383428372443, 0.025147434324, 0.024792432785, 0.0178431291133, 0.0407671481371, 0.0408192910254, 0.213989377022, 251666497, 0
1637149566030620350, 1465, 0, 160, 126, 0, 70, 180, 2183, 270003360, 33554432, 18205, 15990, 3, 56, 40.0069013928, 116.328032933, 50.3085459834, -9.69999980927, -0.0518543096703, 1.45020274406, 0.00246792964769, -1.17596673243, 1.51474439427, 90.0546714834, 0.0393795743585, 0.0390370115638, 0.0383428372443, 0.025147434324, 0.024792432785, 0.0178431291133, 0.0407671481371, 0.0408192910254, 0.213989377022, 251666497, 0
1637149566049549065, 1465, 0, 160, 126, 0, 70, 180, 2183, 270003380, 33554432, 18205, 15990, 3, 56, 40.006901381, 116.328033273, 50.3086452177, -9.69999980927, -0.053655128295, 1.46346442048, 0.00761791208591, -1.17672966809, 1.50723757551, 90.1051632632, 0.0393795743585, 0.0390370115638, 0.0383428372443, 0.025147434324, 0.024792432785, 0.0178431291133, 0.0407671481371, 0.0408192910254, 0.213989377022, 251666497, 0
1637149566070299539, 1465, 0, 160, 126, 0, 70, 180, 2183, 270003400, 33554432, 18205, 15990, 3, 56, 40.0069013701, 116.328033615, 50.3088116776, -9.69999980927, -0.0461463215244, 1.47093498022, 0.0123401605915, -1.17636611193, 1.49745739792, 90.1548725643, 0.0393795743585, 0.0390370115638, 0.0383428372443, 0.025147434324, 0.024792432785, 0.0178431291133, 0.0407671481371, 0.0408192910254, 0.213989377022, 251666497, 0
1637149566091218023, 1465, 0, 160, 126, 0, 70, 180, 2183, 270003420, 33554432, 18205, 15990, 3, 56, 40.0069013569, 116.328033958, 50.309056134, -9.69999980927, -0.0600867860357, 1.48128549901, 0.0152299965781, -1.17016692968, 1.48620254079, 90.2088485785, 0.0393795743585, 0.0390370115638, 0.0383428372443, 0.025147434324, 0.024792432785, 0.0178431291133, 0.0407671481371, 0.0408192910254, 0.213989377022, 251666497, 0
1637149566109800403, 1465, 0, 160, 126, 0, 70, 180, 2183, 270003440, 33554432, 18205, 15990, 3, 56, 40.0069013456, 116.328034304, 50.3093919102, -9.69999980927, -0.0497959817048, 1.48774870289, 0.0193652423656, -1.16742972482, 1.47143294889, 90.2638017005, 0.0393795743585, 0.0390370115638, 0.0383428372443, 0.025147434324, 0.024792432785, 0.0178431291133, 0.0407671481371, 0.0408192910254, 0.213989377022, 251666497, 0
1637149566129275037, 1465, 0, 160, 126, 0, 70, 180, 2183, 270003460, 33554432, 18205, 15990, 3, 56, 40.0069013326, 116.328034653, 50.3096805746, -9.69999980927, -0.0533736999653, 1.50144721256, 0.0185392807775, -1.16350527995, 1.46085360987, 90.3197189139, 0.0393795743585, 0.0390370115638, 0.0383428372443, 0.025147434324, 0.024792432785, 0.0178431291133, 0.0407671481371, 0.0408192910254, 0.213989377022, 251666497, 0
1637149566150687980, 1465, 0, 160, 126, 0, 70, 180, 2183, 270003480, 33554432, 18205, 15990, 3, 56, 40.0069013206, 116.328035004, 50.3100316664, -9.69999980927, -0.0566440541915, 1.50840448443, 0.0188362165226, -1.1618011003, 1.44448495162, 90.380640158, 0.0393795743585, 0.0390370115638, 0.0383428372443, 0.025147434324, 0.024792432785, 0.0178431291133, 0.0407671481371, 0.0408192910254, 0.213989377022, 251666497, 0
1637149566171346308, 1465, 0, 160, 126, 0, 70, 180, 2183, 270003500, 33554432, 18205, 15990, 3, 56, 40.0069013074, 116.328035354, 50.3102719318, -9.69999980927, -0.0542838178032, 1.51192141587, 0.0149536848063, -1.15993858076, 1.43600624383, 90.4381926006, 0.0393795743585, 0.0390370115638, 0.0383428372443, 0.025147434324, 0.024792432785, 0.0178431291133, 0.0407671481371, 0.0408192910254, 0.213989377022, 251666497, 0
1637149566190962224, 1465, 0, 160, 126, 0, 70, 180, 2183, 270003520, 33554432, 18205, 15990, 3, 56, 40.0069012938, 116.328035709, 50.3105373969, -9.69999980927, -0.0682083272827, 1.52519873148, 0.0138093548524, -1.1576332659, 1.42565406601, 90.4985385806, 0.0393795743585, 0.0390370115638, 0.0383428372443, 0.025147434324, 0.024792432785, 0.0178431291133, 0.0407671481371, 0.0408192910254, 0.213989377022, 251666497, 0
1637149566210284781, 1465, 0, 160, 126, 0, 70, 180, 2183, 270003540, 33554432, 18205, 15990, 3, 56, 40.0069012803, 116.328036063, 50.3107369868, -9.69999980927, -0.0605909111089, 1.52364517492, 0.0101458665193, -1.15897545763, 1.41679059828, 90.5594466779, 0.0393795743585, 0.0390370115638, 0.0383428372443, 0.025147434324, 0.024792432785, 0.0178431291133, 0.0407671481371, 0.0408192910254, 0.213989377022, 251666497, 0
1637149566229692972, 1465, 0, 160, 126, 0, 70, 180, 2183, 270003560, 33554432, 18205, 15990, 3, 56, 40.0069012656, 116.32803642, 50.3108765213, -9.69999980927, -0.0733608060568, 1.53148634374, 0.00728853657427, -1.15936036828, 1.41432380353, 90.618795749, 0.0393795743585, 0.0390370115638, 0.0383428372443, 0.025147434324, 0.024792432785, 0.0178431291133, 0.0407671481371, 0.0408192910254, 0.213989377022, 251666497, 0
1637149566249550252, 1465, 0, 160, 126, 0, 70, 180, 2183, 270003580, 33554432, 18205, 15990, 3, 56, 40.0069012507, 116.328036777, 50.3109878935, -9.69999980927, -0.0722583488211, 1.5359261265, 0.00457833764745, -1.16102462546, 1.40845030675, 90.6833164172, 0.0393795743585, 0.0390370115638, 0.0383428372443, 0.025147434324, 0.024792432785, 0.0178431291133, 0.0407671481371, 0.0408192910254, 0.213989377022, 251666497, 0
1637149566270659572, 1465, 0, 160, 126, 0, 70, 180, 2183, 270003600, 33554432, 18205, 15990, 3, 56, 40.0069012361, 116.328037136, 50.3110281229, -9.69999980927, -0.0689115990127, 1.54105883179, 0.00220066896399, -1.16282766466, 1.40995394883, 90.7457165194, 0.0393795743585, 0.0390370115638, 0.0383428372443, 0.025147434324, 0.024792432785, 0.0178431291133, 0.0407671481371, 0.0408192910254, 0.213989377022, 251666497, 0
1637149566289441084, 1465, 0, 160, 126, 0, 70, 180, 2183, 270003620, 33554432, 18205, 15990, 3, 56, 40.0069012198, 116.328037496, 50.3110248959, -9.69999980927, -0.0800074509293, 1.54888066871, -0.000697945885922, -1.16474296573, 1.41070501835, 90.8142225528, 0.0393795743585, 0.0390370115638, 0.0383428372443, 0.025147434324, 0.024792432785, 0.0178431291133, 0.0407671481371, 0.0408192910254, 0.213989377022, 251666497, 0
1637149566310753884, 1465, 0, 160, 126, 0, 70, 180, 2183, 270003640, 33554432, 18205, 15990, 3, 56, 40.0069012048, 116.328037858, 50.3110216362, -9.69999980927, -0.0715245943628, 1.55370534145, 0.000283131763352, -1.16645317618, 1.41175247119, 90.8825286244, 0.0393795743585, 0.0390370115638, 0.0383428372443, 0.025147434324, 0.024792432785, 0.0178431291133, 0.0407671481371, 0.0408192910254, 0.213989377022, 251666497, 0
1637149566330959961, 1465, 0, 160, 126, 0, 70, 180, 2183, 270003660, 33554432, 18205, 15990, 3, 56, 40.0069011876, 116.328038221, 50.3109227112, -9.69999980927, -0.0799620438084, 1.56182415572, -0.0033678692192, -1.17001744117, 1.41620666334, 90.9534774637, 0.0393795743585, 0.0390370115638, 0.0383428372443, 0.025147434324, 0.024792432785, 0.0178431291133, 0.0407671481371, 0.0408192910254, 0.213989377022, 251666497, 0
1637149566349917693, 1465, 0, 160, 126, 0, 70, 180, 2183, 270003680, 33554432, 18205, 15990, 3, 56, 40.0069011714, 116.328038586, 50.3108673804, -9.69999980927, -0.0821133038581, 1.56932085215, -0.00160478490726, -1.17226940294, 1.41789557884, 91.0279255241, 0.0393795743585, 0.0390370115638, 0.0383428372443, 0.025147434324, 0.024792432785, 0.0178431291133, 0.0407671481371, 0.0408192910254, 0.213989377022, 251666497, 0
1637149566370270024, 1465, 0, 160, 126, 0, 70, 180, 2183, 270003700, 33554432, 18205, 15990, 3, 56, 40.0069011537, 116.328038953, 50.3107699137, -9.69999980927, -0.0800306569296, 1.5765595249, -0.00116951460512, -1.17255249243, 1.42226108635, 91.1020824751, 0.0393795743585, 0.0390370115638, 0.0383428372443, 0.025147434324, 0.024792432785, 0.0178431291133, 0.0407671481371, 0.0408192910254, 0.213989377022, 251666497, 0
1637149566391142039, 1465, 0, 160, 126, 0, 70, 180, 2183, 270003720, 33554432, 18205, 15990, 3, 56, 40.0069011358, 116.328039322, 50.3106548563, -9.69999980927, -0.0931441991196, 1.58465156385, -0.00595997897155, -1.17450895676, 1.42437804195, 91.1809418408, 0.0393795743585, 0.0390370115638, 0.0383428372443, 0.025147434324, 0.024792432785, 0.0178431291133, 0.0407671481371, 0.0408192910254, 0.213989377022, 251666497, 0
1637149566409915129, 1465, 0, 160, 126, 0, 70, 180, 2183, 270003740, 33554432, 18205, 15990, 3, 56, 40.0069011168, 116.328039692, 50.3106598128, -9.69999980927, -0.0931521407555, 1.59434938264, 0.00459602977952, -1.16883900275, 1.42572024531, 91.260588493, 0.0393795743585, 0.0390370115638, 0.0383428372443, 0.025147434324, 0.024792432785, 0.0178431291133, 0.0407671481371, 0.0408192910254, 0.213989377022, 251666497, 0
1637149566430310224, 1465, 0, 160, 126, 0, 70, 180, 2183, 270003760, 33554432, 18205, 15990, 3, 56, 40.0069010964, 116.328040064, 50.3107353272, -9.69999980927, -0.107028038266, 1.59661304012, 0.00681084584247, -1.16181955983, 1.42289391494, 91.3391945941, 0.0393795743585, 0.0390370115638, 0.0383428372443, 0.025147434324, 0.024792432785, 0.0178431291133, 0.0407671481371, 0.0408192910254, 0.213989377022, 251666497, 0
1637149566448966589, 1465, 0, 160, 126, 0, 70, 180, 2183, 270003780, 33554432, 18205, 15990, 3, 56, 40.0069010756, 116.328040438, 50.3108658995, -9.69999980927, -0.107552046541, 1.6093836015, 0.0107892868065, -1.15469237434, 1.42012428714, 91.4206022588, 0.0393795743585, 0.0390370115638, 0.0383428372443, 0.025147434324, 0.024792432785, 0.0178431291133, 0.0407671481371, 0.0408192910254, 0.213989377022, 251666497, 0
1637149566470325389, 1465, 0, 160, 126, 0, 70, 180, 2183, 270003800, 33554432, 18205, 15990, 3, 56, 40.0069010544, 116.328040814, 50.311114083, -9.69999980927, -0.108541250148, 1.61526689743, 0.0166444506782, -1.14139336743, 1.41525157061, 91.5016316552, 0.0393795743585, 0.0390370115638, 0.0383428372443, 0.025147434324, 0.024792432785, 0.0178431291133, 0.0407671481371, 0.0408192910254, 0.213989377022, 251666497, 0
1637149566490058543, 1465, 0, 160, 126, 0, 70, 180, 2183, 270003820, 33554432, 18205, 15990, 3, 56, 40.0069010316, 116.328041191, 50.3113809703, -9.69999980927, -0.118200237441, 1.61883161626, 0.0160612897764, -1.1324166752, 1.40939018336, 91.5847027145, 0.0393795743585, 0.0390370115638, 0.0383428372443, 0.025147434324, 0.024792432785, 0.0178431291133, 0.0407671481371, 0.0408192910254, 0.213989377022, 251666497, 0
1637149566510374699, 1465, 0, 160, 126, 0, 70, 180, 2183, 270003840, 33554432, 18205, 15990, 3, 56, 40.0069010098, 116.328041571, 50.311715913, -9.69999980927, -0.110407977429, 1.63079797742, 0.0185622829541, -1.12296352155, 1.40471999004, 91.6667070632, 0.0393795743585, 0.0390370115638, 0.0383428372443, 0.025147434324, 0.024792432785, 0.0178431291133, 0.0407671481371, 0.0408192910254, 0.213989377022, 251666497, 0
1637149566529767444, 1465, 0, 160, 126, 0, 70, 180, 2183, 270003860, 33554432, 18205, 15990, 3, 56, 40.0069009855, 116.32804195, 50.3120038658, -9.69999980927, -0.120548769738, 1.63197033195, 0.0156264895264, -1.11230530031, 1.39985306647, 91.7499546103, 0.0393795743585, 0.0390370115638, 0.0383428372443, 0.025147434324, 0.024792432785, 0.0178431291133, 0.0407671481371, 0.0408192910254, 0.213989377022, 251666497, 0
1637149566551219518, 1465, 0, 160, 126, 0, 70, 180, 2183, 270003880, 33554432, 18205, 15990, 3, 56, 40.0069009626, 116.328042333, 50.3123495439, -9.69999980927, -0.119827309785, 1.64182343556, 0.0185543689312, -1.10729625929, 1.39708713092, 91.8328043648, 0.0393795743585, 0.0390370115638, 0.0383428372443, 0.025147434324, 0.024792432785, 0.0178431291133, 0.0407671481371, 0.0408192910254, 0.213989377022, 251666497, 0
1637149566571264704, 1465, 0, 160, 126, 0, 70, 180, 2183, 270003900, 33554432, 18205, 15990, 3, 56, 40.0069009363, 116.328042716, 50.3126296569, -9.69999980927, -0.130096415452, 1.64557737889, 0.0171284015482, -1.09697447203, 1.39325218209, 91.9126014352, 0.0393795743585, 0.0390370115638, 0.0383428372443, 0.025147434324, 0.024792432785, 0.0178431291133, 0.0407671481371, 0.0408192910254, 0.213989377022, 251666497, 0
1637149566589484123, 1465, 0, 160, 126, 0, 70, 180, 2183, 270003920, 33554432, 18205, 15990, 3, 56, 40.0069009097, 116.328043101, 50.3128994135, -9.69999980927, -0.144604241681, 1.65151163433, 0.0136955978544, -1.0825068118, 1.39193755614, 91.995368268, 0.0393795743585, 0.0390370115638, 0.0383428372443, 0.025147434324, 0.024792432785, 0.0178431291133, 0.0407671481371, 0.0408192910254, 0.213989377022, 251666497, 0
1637149566611424332, 1465, 0, 160, 126, 0, 70, 180, 2183, 270003940, 33554432, 18205, 15990, 3, 56, 40.0069008818, 116.328043488, 50.3131922176, -9.69999980927, -0.142124873077, 1.66248568232, 0.0164721452768, -1.06546148592, 1.38789083828, 92.07521267, 0.0393795743585, 0.0390370115638, 0.0383428372443, 0.025147434324, 0.024792432785, 0.0178431291133, 0.0407671481371, 0.0408192910254, 0.213989377022, 251666497, 0
1637149566630067792, 1465, 0, 160, 126, 0, 70, 180, 2183, 270003960, 33554432, 18205, 15990, 3, 56, 40.0069008526, 116.328043876, 50.3133711824, -9.69999980927, -0.156750835931, 1.6677357954, 0.00748785777058, -1.04729677834, 1.38229407301, 92.1575942668, 0.0393795743585, 0.0390370115638, 0.0383428372443, 0.025147434324, 0.024792432785, 0.0178431291133, 0.0407671481371, 0.0408192910254, 0.213989377022, 251666497, 0
1637149566649427023, 1465, 0, 160, 126, 0, 70, 180, 2183, 270003980, 33554432, 18205, 15990, 3, 56, 40.0069008241, 116.328044266, 50.3135866905, -9.69999980927, -0.147444889033, 1.67369866766, 0.0110370475521, -1.03410844379, 1.37965101496, 92.2409354301, 0.0393795743585, 0.0390370115638, 0.0383428372443, 0.025147434324, 0.024792432785, 0.0178431291133, 0.0407671481371, 0.0408192910254, 0.213989377022, 251666497, 0
1637149566674941964, 1465, 0, 160, 126, 0, 70, 180, 2183, 270004000, 33554432, 18205, 15990, 3, 56, 40.0069007949, 116.328044657, 50.3136864081, -9.69999980927, -0.1541869753, 1.68103218844, 0.00408737054518, -1.02058321469, 1.37642495853, 92.323447418, 0.0393795743585, 0.0390370115638, 0.0383428372443, 0.025147434324, 0.024792432785, 0.0178431291133, 0.0407671481371, 0.0408192910254, 0.213989377022, 251666497, 0
1637149566689528090, 1465, 0, 160, 126, 0, 70, 180, 2183, 270004020, 33554432, 18205, 15990, 3, 56, 40.0069007654, 116.32804505, 50.3137575295, -9.69999980927, -0.153964590213, 1.688188591, 0.00339942227004, -1.01340570124, 1.37345910391, 92.40732737, 0.0393795743585, 0.0390370115638, 0.0383428372443, 0.025147434324, 0.024792432785, 0.0178431291133, 0.0407671481371, 0.0408192910254, 0.213989377022, 251666497, 0
1637149566709752461, 1465, 0, 160, 126, 0, 70, 180, 2183, 270004040, 33554432, 18205, 15990, 3, 56, 40.0069007358, 116.328045444, 50.3137266655, -9.69999980927, -0.142792505946, 1.68983613653, 0.00476393959918, -1.01041090117, 1.37085190728, 92.4905465783, 0.0392082929611, 0.0388538353145, 0.0384756289423, 0.0248892270029, 0.0245384797454, 0.0178589783609, 0.0424591936171, 0.0425487831235, 0.214625164866, 251666497, 0
1637149566731273713, 1465, 0, 160, 126, 0, 67, 180, 2183, 270004060, 33554432, 18205, 15990, 3, 56, 40.0069007034, 116.328045838, 50.3134959657, -9.69999980927, -0.151980080219, 1.69676834326, -0.00117732137046, -1.01164301878, 1.37113784976, 92.5759655498, 0.0392082929611, 0.0388538353145, 0.0384756289423, 0.0248892270029, 0.0245384797454, 0.0178589783609, 0.0424591936171, 0.0425487831235, 0.214625164866, 251666497, 0
1637149566749177013, 1465, 0, 160, 126, 0, 67, 180, 2183, 270004080, 33554432, 18205, 15990, 3, 56, 40.0069006744, 116.328046234, 50.3133020522, -9.69999980927, -0.13935807376, 1.69968281054, -0.00285700346953, -1.01363592359, 1.37248748266, 92.6642894411, 0.0392082929611, 0.0388538353145, 0.0384756289423, 0.0248892270029, 0.0245384797454, 0.0178589783609, 0.0424591936171, 0.0425487831235, 0.214625164866, 251666497, 0
1637149566769926405, 1465, 0, 160, 126, 0, 67, 180, 2183, 270004100, 33554432, 18205, 15990, 3, 56, 40.0069006434, 116.328046631, 50.3129534302, -9.69999980927, -0.139531517008, 1.70872958984, -0.00556294168834, -1.01705394809, 1.38041232963, 92.7561142766, 0.0392082929611, 0.0388538353145, 0.0384756289423, 0.0248892270029, 0.0245384797454, 0.0178589783609, 0.0424591936171, 0.0425487831235, 0.214625164866, 251666497, 0
1637149566792617571, 1465, 0, 160, 126, 0, 67, 180, 2183, 270004120, 33554432, 18205, 15990, 3, 56, 40.0069006152, 116.32804703, 50.312638971, -9.69999980927, -0.135176268245, 1.717703547, -0.00940562147943, -1.02632958989, 1.38312565585, 92.8514605303, 0.0392082929611, 0.0388538353145, 0.0384756289423, 0.0248892270029, 0.0245384797454, 0.0178589783609, 0.0424591936171, 0.0425487831235, 0.214625164866, 251666497, 0
1637149566809050937, 1465, 0, 160, 126, 0, 67, 180, 2183, 270004140, 33554432, 18205, 15990, 3, 56, 40.0069005866, 116.328047429, 50.3123092465, -9.69999980927, -0.130983141206, 1.71633754502, -0.00350401481236, -1.03167629677, 1.39000338041, 92.9522279819, 0.0392082929611, 0.0388538353145, 0.0384756289423, 0.0248892270029, 0.0245384797454, 0.0178589783609, 0.0424591936171, 0.0425487831235, 0.214625164866, 251666497, 0
1637149566831262157, 1465, 0, 160, 126, 0, 67, 180, 2183, 270004160, 33554432, 18205, 15990, 3, 56, 40.006900558, 116.328047831, 50.3120992025, -9.69999980927, -0.14013181095, 1.72505168531, -0.00109371137825, -1.03625150303, 1.39609159621, 93.0539139648, 0.0392082929611, 0.0388538353145, 0.0384756289423, 0.0248892270029, 0.0245384797454, 0.0178589783609, 0.0424591936171, 0.0425487831235, 0.214625164866, 251666497, 0
1637149566852251325, 1465, 0, 160, 126, 0, 67, 180, 2183, 270004180, 33554432, 18205, 15990, 3, 56, 40.006900531, 116.328048233, 50.3118708385, -9.69999980927, -0.124229619183, 1.73384293498, 0.000626671877797, -1.04944662488, 1.39695816796, 93.1614082776, 0.0392082929611, 0.0388538353145, 0.0384756289423, 0.0248892270029, 0.0245384797454, 0.0178589783609, 0.0424591936171, 0.0425487831235, 0.214625164866, 251666497, 0
