time, .header.id, .header.msg_type, .header.port_addr, .header.length, .header.sequence, .header.idle_time, .header.time_status, .header.gps_week, .header.gps_week_seconds, .header.receiver_status, .header.reserved, .header.software_version, .ins_status, .position_type, .latitude, .longitude, .altitude, .undulation, .north_velocity, .east_velocity, .up_velocity, .roll, .pitch, .azimuth, .latitude_std, .longitude_std, .altitude_std, .north_velocity_std, .east_velocity_std, .up_velocity_std, .roll_std, .pitch_std, .azimuth_std, .extended_status, .seconds_since_update
1637149413129058446, 1465, 0, 160, 126, 0, 79, 180, 2183, 269933560, 33554432, 18205, 15990, 3, 56, 40.0068960803, 116.328021713, 50.3067773236, -9.69999980927, 0.00273347019996, 0.00316635576931, 0.00321389606057, -1.19769038124, 1.36262860158, 87.222268071, 0.0395576134324, 0.0391475632787, 0.0387130156159, 0.0262905918062, 0.0261569581926, 0.0177952107042, 0.0446714311838, 0.0447214245796, 0.149128690362, 251920449, 0
1637149413144445617, 1465, 0, 160, 126, 0, 79, 180, 2183, 269933580, 33554432, 18205, 15990, 3, 56, 40.0068960799, 116.328021713, 50.3066393435, -9.69999980927, 0.00193212229374, 0.00086557291484, -0.00347080190226, -1.19755101685, 1.36506949149, 87.2226752709, 0.0395576134324, 0.0391475632787, 0.0387130156159, 0.0262905918062, 0.0261569581926, 0.0177952107042, 0.0446714311838, 0.0447214245796, 0.149128690362, 251920449, 0
1637149413163048898, 1465, 0, 160, 126, 0, 79, 180, 2183, 269933600, 33554432, 18205, 15990, 3, 56, 40.0068960794, 116.328021712, 50.3065207349, -9.69999980927, -0.00052634725932, -0.00238305470315, -0.00605507164921, -1.19512363916, 1.36765001879, 87.2234879177, 0.0395576134324, 0.0391475632787, 0.0387130156159, 0.0262905918062, 0.0261569581926, 0.0177952107042, 0.0446714311838, 0.0447214245796, 0.149128690362, 251920449, 0
1637149413183386653, 1465, 0, 160, 126, 0, 79, 180, 2183, 269933620, 33554432, 18205, 15990, 3, 56, 40.0068960793, 116.328021715, 50.3064148333, -9.69999980927, 0.00483096546861, 0.0137565244829, 0.000393279057888, -1.19538989681, 1.37468575446, 87.2233254926, 0.0395576134324, 0.0391475632787, 0.0387130156159, 0.0262905918062, 0.0261569581926, 0.0177952107042, 0.0446714311838, 0.0447214245796, 0.149128690362, 251920449, 0
1637149413204679101, 1465, 0, 160, 126, 0, 79, 180, 2183, 269933640, 33554432, 18205, 15990, 3, 56, 40.0068960786, 116.328021716, 50.3062795531, -9.69999980927, -0.00264747104371, 0.00344647940896, -0.00663405876031, -1.19435567773, 1.37107198911, 87.2242085579, 0.0395576134324, 0.0391475632787, 0.0387130156159, 0.0262905918062, 0.0261569581926, 0.0177952107042, 0.0446714311838, 0.0447214245796, 0.149128690362, 251920449, 0
1637149413224254063, 1465, 0, 160, 126, 0, 79, 180, 2183, 269933660, 33554432, 18205, 15990, 3, 56, 40.006896079, 116.328021715, 50.3061798951, -9.69999980927, 0.00672136440385, 0.0011213861887, -0.000494732972906, -1.1966266496, 1.37945651257, 87.2238003969, 0.0395576134324, 0.0391475632787, 0.0387130156159, 0.0262905918062, 0.0261569581926, 0.0177952107042, 0.0446714311838, 0.0447214245796, 0.149128690362, 251920449, 0
1637149413244314681, 1465, 0, 160, 126, 0, 79, 180, 2183, 269933680, 33554432, 18205, 15990, 3, 56, 40.0068960783, 116.328021716, 50.3059772654, -9.69999980927, -0.00293992335528, 0.00323286454882, -0.010360118587, -1.19530225384, 1.38274182024, 87.2243205881, 0.0395576134324, 0.0391475632787, 0.0387130156159, 0.0262905918062, 0.0261569581926, 0.0177952107042, 0.0446714311838, 0.0447214245796, 0.149128690362, 251920449, 0
1637149413263453894, 1465, 0, 160, 126, 0, 79, 180, 2183, 269933700, 33554432, 18205, 15990, 3, 56, 40.0068960789, 116.328021717, 50.3058216274, -9.69999980927, 0.00527414600351, 0.0109265784644, -0.00540074391798, -1.19721820867, 1.39116366394, 87.224220262, 0.0395576134324, 0.0391475632787, 0.0387130156159, 0.0262905918062, 0.0261569581926, 0.0177952107042, 0.0446714311838, 0.0447214245796, 0.149128690362, 251920449, 0
1637149413284420782, 1465, 0, 160, 126, 0, 79, 180, 2183, 269933720, 33554432, 18205, 15990, 3, 56, 40.0068960784, 116.32802172, 50.305691476, -9.69999980927, -6.1944801043e-05, 0.0149955110045, -0.00362008803075, -1.19874956408, 1.39304355182, 87.2220300049, 0.0395576134324, 0.0391475632787, 0.0387130156159, 0.0262905918062, 0.0261569581926, 0.0177952107042, 0.0446714311838, 0.0447214245796, 0.149128690362, 251920449, 0
1637149413303341694, 1465, 0, 160, 126, 0, 79, 180, 2183, 269933740, 33554432, 18205, 15990, 3, 56, 40.0068960785, 116.328021719, 50.3055572268, -9.69999980927, -7.3480328388e-05, -0.00670896316694, -0.00535232309624, -1.19940528936, 1.39260156993, 87.2240957742, 0.0395576134324, 0.0391475632787, 0.0387130156159, 0.0262905918062, 0.0261569581926, 0.0177952107042, 0.0446714311838, 0.0447214245796, 0.149128690362, 251920449, 0
1637149413325069576, 1465, 0, 160, 126, 0, 79, 180, 2183, 269933760, 33554432, 18205, 15990, 3, 56, 40.006896079, 116.328021718, 50.3055018391, -9.69999980927, 0.00878727101264, -0.00312628366849, 0.0010515642401, -1.20038073856, 1.39896175673, 87.2234916693, 0.0395576134324, 0.0391475632787, 0.0387130156159, 0.0262905918062, 0.0261569581926, 0.0177952107042, 0.0446714311838, 0.0447214245796, 0.149128690362, 251920449, 0
1637149413344370508, 1465, 0, 160, 126, 0, 79, 180, 2183, 269933780, 33554432, 18205, 15990, 3, 56, 40.0068960785, 116.328021718, 50.3053572774, -9.69999980927, -0.00375122112585, -0.000895861336502, -0.00604603369726, -1.20262117374, 1.39616603657, 87.2254574927, 0.0395576134324, 0.0391475632787, 0.0387130156159, 0.0262905918062, 0.0261569581926, 0.0177952107042, 0.0446714311838, 0.0447214245796, 0.149128690362, 251920449, 0
1637149413362935053, 1465, 0, 160, 126, 0, 79, 180, 2183, 269933800, 33554432, 18205, 15990, 3, 56, 40.0068960792, 116.328021718, 50.305306633, -9.69999980927, 0.00915037843378, 0.00412793880804, 0.000646874784734, -1.20164833516, 1.40053042363, 87.2246038122, 0.0395576134324, 0.0391475632787, 0.0387130156159, 0.0262905918062, 0.0261569581926, 0.0177952107042, 0.0446714311838, 0.0447214245796, 0.149128690362, 251920449, 0
1637149413384126186, 1465, 0, 160, 126, 0, 79, 180, 2183, 269933820, 33554432, 18205, 15990, 3, 56, 40.0068960785, 116.328021717, 50.3051935425, -9.69999980927, -0.00106558037762, -0.00551430524933, -0.00247533423427, -1.20266325556, 1.39883424283, 87.2245419209, 0.0395576134324, 0.0391475632787, 0.0387130156159, 0.0262905918062, 0.0261569581926, 0.0177952107042, 0.0446714311838, 0.0447214245796, 0.149128690362, 251920449, 0
1637149413402886569, 1465, 0, 160, 126, 0, 79, 180, 2183, 269933840, 33554432, 18205, 15990, 3, 56, 40.006896079, 116.328021715, 50.305165275, -9.69999980927, 0.0061445538965, -0.0120933195625, 0.000905645399681, -1.20337610628, 1.40065106219, 87.2254637375, 0.0395576134324, 0.0391475632787, 0.0387130156159, 0.0262905918062, 0.0261569581926, 0.0177952107042, 0.0446714311838, 0.0447214245796, 0.149128690362, 251920449, 0
1637149413424148077, 1465, 0, 160, 126, 0, 79, 180, 2183, 269933860, 33554432, 18205, 15990, 3, 56, 40.0068960784, 116.328021714, 50.305103139, -9.69999980927, 0.00412154037939, -0.0027449680614, 0.00130198930051, -1.20279345973, 1.40255033095, 87.2240562145, 0.0395576134324, 0.0391475632787, 0.0387130156159, 0.0262905918062, 0.0261569581926, 0.0177952107042, 0.0446714311838, 0.0447214245796, 0.149128690362, 251920449, 0
1637149413444450579, 1465, 0, 160, 126, 0, 79, 180, 2183, 269933880, 33554432, 18205, 15990, 3, 56, 40.0068960785, 116.328021714, 50.3050501663, -9.69999980927, 0.00159232479109, -0.000742780385648, -0.00205034246099, -1.20464168517, 1.40025948359, 87.2255849203, 0.0395576134324, 0.0391475632787, 0.0387130156159, 0.0262905918062, 0.0261569581926, 0.0177952107042, 0.0446714311838, 0.0447214245796, 0.149128690362, 251920449, 0
1637149413463228946, 1465, 0, 160, 126, 0, 79, 180, 2183, 269933900, 33554432, 18205, 15990, 3, 56, 40.0068960779, 116.328021713, 50.3050063998, -9.69999980927, 0.00347710740331, -0.00021820216889, 0.00233834529993, -1.20375547041, 1.40620216951, 87.2235372168, 0.0395576134324, 0.0391475632787, 0.0387130156159, 0.0262905918062, 0.0261569581926, 0.0177952107042, 0.0446714311838, 0.0447214245796, 0.149128690362, 251920449, 0
1637149413484600906, 1465, 0, 160, 126, 0, 79, 180, 2183, 269933920, 33554432, 18205, 15990, 3, 56, 40.006896077, 116.328021713, 50.3049484016, -9.69999980927, -0.00442512162753, -0.00290210283484, -0.00199993930294, -1.20251279077, 1.40528943277, 87.2239882342, 0.0395576134324, 0.0391475632787, 0.0387130156159, 0.0262905918062, 0.0261569581926, 0.0177952107042, 0.0446714311838, 0.0447214245796, 0.149128690362, 251920449, 0
1637149413504044716, 1465, 0, 160, 126, 0, 79, 180, 2183, 269933940, 33554432, 18205, 15990, 3, 56, 40.0068960768, 116.328021712, 50.3049522573, -9.69999980927, 0.00207139910241, -0.000618663254668, 0.00337414692157, -1.20253908924, 1.40881968255, 87.2227688554, 0.0395576134324, 0.0391475632787, 0.0387130156159, 0.0262905918062, 0.0261569581926, 0.0177952107042, 0.0446714311838, 0.0447214245796, 0.149128690362, 251920449, 0
1637149413523338844, 1465, 0, 160, 126, 0, 79, 180, 2183, 269933960, 33554432, 18205, 15990, 3, 56, 40.0068960755, 116.328021713, 50.3049321026, -9.69999980927, -0.00563081937029, 0.00510876412571, 0.00050949573769, -1.20161859511, 1.40916274724, 87.2214949528, 0.0395576134324, 0.0391475632787, 0.0387130156159, 0.0262905918062, 0.0261569581926, 0.0177952107042, 0.0446714311838, 0.0447214245796, 0.149128690362, 251920449, 0
1637149413542867123, 1465, 0, 160, 126, 0, 79, 180, 2183, 269933980, 33554432, 18205, 15990, 3, 56, 40.0068960755, 116.328021713, 50.3049173355, -9.69999980927, -0.000566103818695, 0.00347227828499, 0.000191250546901, -1.20175036286, 1.40958710555, 87.2223377565, 0.0395576134324, 0.0391475632787, 0.0387130156159, 0.0262905918062, 0.0261569581926, 0.0177952107042, 0.0446714311838, 0.0447214245796, 0.149128690362, 251920449, 0
1637149413567117324, 1465, 0, 160, 126, 0, 79, 180, 2183, 269934000, 33554432, 18205, 15990, 3, 56, 40.006896075, 116.328021714, 50.3049192661, -9.69999980927, -0.000202959612829, 0.00452010499472, 0.00251301985769, -1.20055605631, 1.41324881111, 87.2212636759, 0.0395576134324, 0.0391475632787, 0.0387130156159, 0.0262905918062, 0.0261569581926, 0.0177952107042, 0.0446714311838, 0.0447214245796, 0.149128690362, 251920449, 0
1637149413585011906, 1465, 0, 160, 126, 0, 79, 180, 2183, 269934020, 33554432, 18205, 15990, 3, 56, 40.0068960743, 116.328021714, 50.3048997018, -9.69999980927, -0.00101393820988, 0.00135285751178, 0.000937556729113, -1.19888934041, 1.41063400356, 87.2218570287, 0.0621745549142, 0.061614587903, 0.0541414022446, 0.0343068912625, 0.0341686531901, 0.0216109845787, 0.0455858968198, 0.0456355065107, 0.149525433779, 251920449, 0
1637149413610237774, 1465, 0, 160, 126, 0, 79, 180, 2183, 269934040, 33554432, 18205, 15990, 3, 56, 40.0068960745, 116.328021714, 50.3049094453, -9.69999980927, 0.00433890701324, 0.00218915415647, 0.00217173627161, -1.1995470691, 1.41021966698, 87.2218835908, 0.0395594276488, 0.0391322858632, 0.0386353582144, 0.0259782634676, 0.0258469991386, 0.0177756920457, 0.0417940169573, 0.0418389625847, 0.14644382894, 251920449, 0
1637149413624894476, 1465, 0, 160, 126, 0, 78, 180, 2183, 269934060, 33554432, 18205, 15990, 3, 56, 40.0068960741, 116.328021715, 50.3048996637, -9.69999980927, 0.00190735890605, 0.00337789535905, 0.000838415842361, -1.19908850267, 1.40912285718, 87.2232908715, 0.0395594276488, 0.0391322858632, 0.0386353582144, 0.0259782634676, 0.0258469991386, 0.0177756920457, 0.0417940169573, 0.0418389625847, 0.14644382894, 251920449, 0
1637149413642874976, 1465, 0, 160, 126, 0, 78, 180, 2183, 269934080, 33554432, 18205, 15990, 3, 56, 40.0068960743, 116.328021715, 50.304863858, -9.69999980927, 0.00255625586364, 0.00243280040769, -0.00182251767269, -1.19966967327, 1.4086175731, 87.2248293695, 0.0395594276488, 0.0391322858632, 0.0386353582144, 0.0259782634676, 0.0258469991386, 0.0177756920457, 0.0417940169573, 0.0418389625847, 0.14644382894, 251920449, 0
1637149413664153513, 1465, 0, 160, 126, 0, 78, 180, 2183, 269934100, 33554432, 18205, 15990, 3, 56, 40.0068960743, 116.328021716, 50.3048423575, -9.69999980927, 0.00221819017766, 0.00268777095642, 0.000285821349721, -1.2007139571, 1.40838320531, 87.2243762501, 0.0395594276488, 0.0391322858632, 0.0386353582144, 0.0259782634676, 0.0258469991386, 0.0177756920457, 0.0417940169573, 0.0418389625847, 0.14644382894, 251920449, 0
1637149413684945265, 1465, 0, 160, 126, 0, 78, 180, 2183, 269934120, 33554432, 18205, 15990, 3, 56, 40.0068960742, 116.328021716, 50.3048038194, -9.69999980927, 0.000300608152567, -0.000570814139751, -0.000674608580948, -1.19921180223, 1.40761231889, 87.2244542984, 0.0395594276488, 0.0391322858632, 0.0386353582144, 0.0259782634676, 0.0258469991386, 0.0177756920457, 0.0417940169573, 0.0418389625847, 0.14644382894, 251920449, 0
1637149413703100529, 1465, 0, 160, 126, 0, 78, 180, 2183, 269934140, 33554432, 18205, 15990, 3, 56, 40.0068960745, 116.328021715, 50.3047636468, -9.69999980927, 0.00200529305144, 0.000422524835395, -0.00132072009705, -1.20128123821, 1.40827367284, 87.2243045295, 0.0395594276488, 0.0391322858632, 0.0386353582144, 0.0259782634676, 0.0258469991386, 0.0177756920457, 0.0417940169573, 0.0418389625847, 0.14644382894, 251920449, 0
1637149413725858721, 1465, 0, 160, 126, 0, 78, 180, 2183, 269934160, 33554432, 18205, 15990, 3, 56, 40.0068960745, 116.328021715, 50.3047357434, -9.69999980927, 0.0015222956166, 0.000991337700027, -0.000145637767459, -1.20134772446, 1.40754580016, 87.2245979485, 0.0395594276488, 0.0391322858632, 0.0386353582144, 0.0259782634676, 0.0258469991386, 0.0177756920457, 0.0417940169573, 0.0418389625847, 0.14644382894, 251920449, 0
1637149413743956636, 1465, 0, 160, 126, 0, 78, 180, 2183, 269934180, 33554432, 18205, 15990, 3, 56, 40.0068960745, 116.328021715, 50.3046540422, -9.69999980927, 0.00245004449399, -0.000489486547787, -0.00253817807855, -1.20170810362, 1.40995474349, 87.2237565555, 0.0395594276488, 0.0391322858632, 0.0386353582144, 0.0259782634676, 0.0258469991386, 0.0177756920457, 0.0417940169573, 0.0418389625847, 0.14644382894, 251920449, 0
1637149413762958748, 1465, 0, 160, 126, 0, 78, 180, 2183, 269934200, 33554432, 18205, 15990, 3, 56, 40.0068960747, 116.328021715, 50.3046541298, -9.69999980927, 0.0011851852749, 0.00370535868148, 0.00196788949812, -1.20374512661, 1.41092529259, 87.223453812, 0.0395594276488, 0.0391322858632, 0.0386353582144, 0.0259782634676, 0.0258469991386, 0.0177756920457, 0.0417940169573, 0.0418389625847, 0.14644382894, 251920449, 0
1637149413783660628, 1465, 0, 160, 126, 0, 78, 180, 2183, 269934220, 33554432, 18205, 15990, 3, 56, 40.0068960745, 116.328021715, 50.3046193123, -9.69999980927, 0.00234533010299, -0.00439201665634, 0.00061300898939, -1.20308021795, 1.40952290349, 87.2220842177, 0.0395594276488, 0.0391322858632, 0.0386353582144, 0.0259782634676, 0.0258469991386, 0.0177756920457, 0.0417940169573, 0.0418389625847, 0.14644382894, 251920449, 0
1637149413803623759, 1465, 0, 160, 126, 0, 78, 180, 2183, 269934240, 33554432, 18205, 15990, 3, 56, 40.0068960745, 116.328021714, 50.3045818303, -9.69999980927, 0.000975463878414, -0.00163489850387, -0.00122659068962, -1.20493576289, 1.4124988628, 87.2216520127, 0.0395594276488, 0.0391322858632, 0.0386353582144, 0.0259782634676, 0.0258469991386, 0.0177756920457, 0.0417940169573, 0.0418389625847, 0.14644382894, 251920449, 0
1637149413823576993, 1465, 0, 160, 126, 0, 78, 180, 2183, 269934260, 33554432, 18205, 15990, 3, 56, 40.0068960744, 116.328021714, 50.3045718614, -9.69999980927, 0.000885488907563, 0.00344364459594, 0.000479126084098, -1.20570605234, 1.41154163027, 87.2227604243, 0.0395594276488, 0.0391322858632, 0.0386353582144, 0.0259782634676, 0.0258469991386, 0.0177756920457, 0.0417940169573, 0.0418389625847, 0.14644382894, 251920449, 0
1637149413844011538, 1465, 0, 160, 126, 0, 78, 180, 2183, 269934280, 33554432, 18205, 15990, 3, 56, 40.0068960743, 116.328021715, 50.3045108654, -9.69999980927, 0.00106901406833, 0.00121975095403, -0.00264021158267, -1.20457018768, 1.41353612719, 87.2218109451, 0.0395594276488, 0.0391322858632, 0.0386353582144, 0.0259782634676, 0.0258469991386, 0.0177756920457, 0.0417940169573, 0.0418389625847, 0.14644382894, 251920449, 0
1637149413864463356, 1465, 0, 160, 126, 0, 78, 180, 2183, 269934300, 33554432, 18205, 15990, 3, 56, 40.0068960739, 116.328021715, 50.3044688348, -9.69999980927, -0.00273500557977, 0.00249809594221, -0.00249568640074, -1.20421199341, 1.41520221593, 87.2223480569, 0.0395594276488, 0.0391322858632, 0.0386353582144, 0.0259782634676, 0.0258469991386, 0.0177756920457, 0.0417940169573, 0.0418389625847, 0.14644382894, 251920449, 0
1637149413884320658, 1465, 0, 160, 126, 0, 78, 180, 2183, 269934320, 33554432, 18205, 15990, 3, 56, 40.0068960741, 116.328021715, 50.3044455824, -9.69999980927, 0.00411758721588, 0.00161387228097, 0.000477817876062, -1.2037808727, 1.41822613185, 87.2219338712, 0.0395594276488, 0.0391322858632, 0.0386353582144, 0.0259782634676, 0.0258469991386, 0.0177756920457, 0.0417940169573, 0.0418389625847, 0.14644382894, 251920449, 0
1637149413903406557, 1465, 0, 160, 126, 0, 78, 180, 2183, 269934340, 33554432, 18205, 15990, 3, 56, 40.0068960736, 116.328021716, 50.304380714, -9.69999980927, -0.00129485637451, 0.00399437768475, -0.0018739460096, -1.20399135285, 1.41969749474, 87.2224492289, 0.0395594276488, 0.0391322858632, 0.0386353582144, 0.0259782634676, 0.0258469991386, 0.0177756920457, 0.0417940169573, 0.0418389625847, 0.14644382894, 251920449, 0
1637149413923748927, 1465, 0, 160, 126, 0, 78, 180, 2183, 269934360, 33554432, 18205, 15990, 3, 56, 40.006896074, 116.328021716, 50.3043541731, -9.69999980927, 0.00359959144698, 0.00281989690574, -7.63480787752e-05, -1.20416364632, 1.42114783625, 87.2235715548, 0.0395594276488, 0.0391322858632, 0.0386353582144, 0.0259782634676, 0.0258469991386, 0.0177756920457, 0.0417940169573, 0.0418389625847, 0.14644382894, 251920449, 0
1637149413943058925, 1465, 0, 160, 126, 0, 78, 180, 2183, 269934380, 33554432, 18205, 15990, 3, 56, 40.0068960736, 116.328021717, 50.3042584397, -9.69999980927, 0.00326581840413, 0.00328038089451, -0.00240759705168, -1.20472646166, 1.42481134683, 87.2236912634, 0.0395594276488, 0.0391322858632, 0.0386353582144, 0.0259782634676, 0.0258469991386, 0.0177756920457, 0.0417940169573, 0.0418389625847, 0.14644382894, 251920449, 0
1637149413963950639, 1465, 0, 160, 126, 0, 78, 180, 2183, 269934400, 33554432, 18205, 15990, 3, 56, 40.0068960735, 116.328021718, 50.3041759739, -9.69999980927, -0.00107533904765, 0.00538125197606, -0.00404027723776, -1.20445672399, 1.42684605301, 87.2256024475, 0.0395594276488, 0.0391322858632, 0.0386353582144, 0.0259782634676, 0.0258469991386, 0.0177756920457, 0.0417940169573, 0.0418389625847, 0.14644382894, 251920449, 0
1637149413983188876, 1465, 0, 160, 126, 0, 78, 180, 2183, 269934420, 33554432, 18205, 15990, 3, 56, 40.0068960735, 116.328021718, 50.304082023, -9.69999980927, 0.00372498308627, 0.00193127705047, -0.00278571065318, -1.20467126518, 1.42998889383, 87.2249089559, 0.0395594276488, 0.0391322858632, 0.0386353582144, 0.0259782634676, 0.0258469991386, 0.0177756920457, 0.0417940169573, 0.0418389625847, 0.14644382894, 251920449, 0
1637149414003292940, 1465, 0, 160, 126, 0, 78, 180, 2183, 269934440, 33554432, 18205, 15990, 3, 56, 40.006896073, 116.328021718, 50.303974743, -9.69999980927, -0.00337780719684, 0.00154175419756, -0.00501449383703, -1.20355663542, 1.43251220975, 87.2257634908, 0.0395594276488, 0.0391322858632, 0.0386353582144, 0.0259782634676, 0.0258469991386, 0.0177756920457, 0.0417940169573, 0.0418389625847, 0.14644382894, 251920449, 0
1637149414025132453, 1465, 0, 160, 126, 0, 78, 180, 2183, 269934460, 33554432, 18205, 15990, 3, 56, 40.0068960732, 116.328021718, 50.3038816508, -9.69999980927, 0.00194793507366, -0.000492426265727, -0.00428959374442, -1.20463536483, 1.43484930953, 87.2263731821, 0.0395594276488, 0.0391322858632, 0.0386353582144, 0.0259782634676, 0.0258469991386, 0.0177756920457, 0.0417940169573, 0.0418389625847, 0.14644382894, 251920449, 0
1637149414043344130, 1465, 0, 160, 126, 0, 78, 180, 2183, 269934480, 33554432, 18205, 15990, 3, 56, 40.0068960725, 116.328021718, 50.3037505588, -9.69999980927, -0.00347066139602, -0.00082635575226, -0.00575765029386, -1.20339629849, 1.43996468009, 87.2252653183, 0.0395594276488, 0.0391322858632, 0.0386353582144, 0.0259782634676, 0.0258469991386, 0.0177756920457, 0.0417940169573, 0.0418389625847, 0.14644382894, 251920449, 0
1637149414062951313, 1465, 0, 160, 126, 0, 78, 180, 2183, 269934500, 33554432, 18205, 15990, 3, 56, 40.0068960727, 116.328021717, 50.3036167696, -9.69999980927, -0.00139520353888, -0.00145121963909, -0.00702238666871, -1.20424131334, 1.44209672595, 87.2258566708, 0.0395594276488, 0.0391322858632, 0.0386353582144, 0.0259782634676, 0.0258469991386, 0.0177756920457, 0.0417940169573, 0.0418389625847, 0.14644382894, 251920449, 0
1637149414084178319, 1465, 0, 160, 126, 0, 78, 180, 2183, 269934520, 33554432, 18205, 15990, 3, 56, 40.0068960725, 116.328021717, 50.3035255969, -9.69999980927, 0.00113644326536, -0.00346205605573, -0.00237150885234, -1.20353180845, 1.44583791343, 87.2240364297, 0.0395594276488, 0.0391322858632, 0.0386353582144, 0.0259782634676, 0.0258469991386, 0.0177756920457, 0.0417940169573, 0.0418389625847, 0.14644382894, 251920449, 0
1637149414102811862, 1465, 0, 160, 126, 0, 78, 180, 2183, 269934540, 33554432, 18205, 15990, 3, 56, 40.0068960722, 116.328021716, 50.3034003181, -9.69999980927, -0.00301835033087, -0.00323606434363, -0.00527744377921, -1.20414791523, 1.4472419641, 87.2245512408, 0.0395594276488, 0.0391322858632, 0.0386353582144, 0.0259782634676, 0.0258469991386, 0.0177756920457, 0.0417940169573, 0.0418389625847, 0.14644382894, 251920449, 0
1637149414124114609, 1465, 0, 160, 126, 0, 78, 180, 2183, 269934560, 33554432, 18205, 15990, 3, 56, 40.0068960727, 116.328021715, 50.3033527089, -9.69999980927, 0.0064110965212, -0.0048284313142, -6.18764736058e-06, -1.20477287556, 1.45001545435, 87.2238684829, 0.0395594276488, 0.0391322858632, 0.0386353582144, 0.0259782634676, 0.0258469991386, 0.0177756920457, 0.0417940169573, 0.0418389625847, 0.14644382894, 251920449, 0
1637149414144087924, 1465, 0, 160, 126, 0, 78, 180, 2183, 269934580, 33554432, 18205, 15990, 3, 56, 40.0068960718, 116.328021714, 50.3032445787, -9.69999980927, -0.00507894396469, -0.00267327676641, -0.00391749856036, -1.20401171008, 1.45090357049, 87.2236724335, 0.0395594276488, 0.0391322858632, 0.0386353582144, 0.0259782634676, 0.0258469991386, 0.0177756920457, 0.0417940169573, 0.0418389625847, 0.14644382894, 251920449, 0
1637149414163288570, 1465, 0, 160, 126, 0, 78, 180, 2183, 269934600, 33554432, 18205, 15990, 3, 56, 40.0068960726, 116.328021713, 50.3032473354, -9.69999980927, 0.00752276147122, -0.00475959032919, 0.0024406584508, -1.20404096907, 1.45284078894, 87.2242351614, 0.0395594276488, 0.0391322858632, 0.0386353582144, 0.0259782634676, 0.0258469991386, 0.0177756920457, 0.0417940169573, 0.0418389625847, 0.14644382894, 251920449, 0
1637149414183468900, 1465, 0, 160, 126, 0, 78, 180, 2183, 269934620, 33554432, 18205, 15990, 3, 56, 40.0068960717, 116.328021712, 50.3031561887, -9.69999980927, -0.0028692721303, -0.00265889724061, -0.00145487556143, -1.20488529338, 1.45545412485, 87.223299359, 0.0395594276488, 0.0391322858632, 0.0386353582144, 0.0259782634676, 0.0258469991386, 0.0177756920457, 0.0417940169573, 0.0418389625847, 0.14644382894, 251920449, 0
1637149414204753633, 1465, 0, 160, 126, 0, 78, 180, 2183, 269934640, 33554432, 18205, 15990, 3, 56, 40.0068960722, 116.328021711, 50.3032049835, -9.69999980927, 0.00452615173952, -0.00227818318712, 0.00438557388962, -1.20415147923, 1.45601776824, 87.2243543096, 0.0395594276488, 0.0391322858632, 0.0386353582144, 0.0259782634676, 0.0258469991386, 0.0177756920457, 0.0417940169573, 0.0418389625847, 0.14644382894, 251920449, 0
1637149414223603298, 1465, 0, 160, 126, 0, 78, 180, 2183, 269934660, 33554432, 18205, 15990, 3, 56, 40.0068960716, 116.328021711, 50.3031432573, -9.69999980927, 6.70084830693e-05, -0.000582152162529, 0.0014467704625, -1.20494778593, 1.45839436521, 87.2234393071, 0.0395594276488, 0.0391322858632, 0.0386353582144, 0.0259782634676, 0.0258469991386, 0.0177756920457, 0.0417940169573, 0.0418389625847, 0.14644382894, 251920449, 0
1637149414243996715, 1465, 0, 160, 126, 0, 78, 180, 2183, 269934680, 33554432, 18205, 15990, 3, 56, 40.006896072, 116.328021711, 50.3031999907, -9.69999980927, 0.00347213378096, 0.000992438664594, 0.0036503479451, -1.20459087185, 1.45769614173, 87.2248352862, 0.0395594276488, 0.0391322858632, 0.0386353582144, 0.0259782634676, 0.0258469991386, 0.0177756920457, 0.0417940169573, 0.0418389625847, 0.14644382894, 251920449, 0
1637149414263730484, 1465, 0, 160, 126, 0, 78, 180, 2183, 269934700, 33554432, 18205, 15990, 3, 56, 40.0068960714, 116.32802171, 50.3031716878, -9.69999980927, -7.09428447996e-05, -0.000126744204332, 0.00352742777791, -1.2044923981, 1.45892563065, 87.223441757, 0.0395594276488, 0.0391322858632, 0.0386353582144, 0.0259782634676, 0.0258469991386, 0.0177756920457, 0.0417940169573, 0.0418389625847, 0.14644382894, 251920449, 0
1637149414283863397, 1465, 0, 160, 126, 0, 78, 180, 2183, 269934720, 33554432, 18205, 15990, 3, 56, 40.0068960717, 116.328021711, 50.3032000139, -9.69999980927, 0.00325231080565, 0.00193406717427, 0.0010758293619, -1.20513287072, 1.45836837837, 87.2241983089, 0.0395594276488, 0.0391322858632, 0.0386353582144, 0.0259782634676, 0.0258469991386, 0.0177756920457, 0.0417940169573, 0.0418389625847, 0.14644382894, 251920449, 0
1637149414303287516, 1465, 0, 160, 126, 0, 78, 180, 2183, 269934740, 33554432, 18205, 15990, 3, 56, 40.0068960711, 116.32802171, 50.3031948172, -9.69999980927, -0.00021158945417, 0.000368361444982, 0.00456417344896, -1.20453195673, 1.46008655768, 87.2241010647, 0.0395594276488, 0.0391322858632, 0.0386353582144, 0.0259782634676, 0.0258469991386, 0.0177756920457, 0.0417940169573, 0.0418389625847, 0.14644382894, 251920449, 0
1637149414325046803, 1465, 0, 160, 126, 0, 78, 180, 2183, 269934760, 33554432, 18205, 15990, 3, 56, 40.0068960713, 116.328021711, 50.3032016801, -9.69999980927, 0.00203703501898, 0.00166379191351, -0.000304908754773, -1.20516825648, 1.45858312279, 87.2252698986, 0.0395594276488, 0.0391322858632, 0.0386353582144, 0.0259782634676, 0.0258469991386, 0.0177756920457, 0.0417940169573, 0.0418389625847, 0.14644382894, 251920449, 0
1637149414342539657, 1465, 0, 160, 126, 0, 78, 180, 2183, 269934780, 33554432, 18205, 15990, 3, 56, 40.0068960706, 116.328021711, 50.3032064326, -9.69999980927, 0.000164725539708, 0.000583580873267, 0.00506714623799, -1.2036491997, 1.46066927011, 87.2246725112, 0.0395594276488, 0.0391322858632, 0.0386353582144, 0.0259782634676, 0.0258469991386, 0.0177756920457, 0.0417940169573, 0.0418389625847, 0.14644382894, 251920449, 0
1637149414363460729, 1465, 0, 160, 126, 0, 78, 180, 2183, 269934800, 33554432, 18205, 15990, 3, 56, 40.0068960706, 116.328021711, 50.3031596839, -9.69999980927, 0.000841159631759, 0.00103725947394, -0.00393337564072, -1.20423319002, 1.46012174443, 87.2254834714, 0.0395594276488, 0.0391322858632, 0.0386353582144, 0.0259782634676, 0.0258469991386, 0.0177756920457, 0.0417940169573, 0.0418389625847, 0.14644382894, 251920449, 0
1637149414384260455, 1465, 0, 160, 126, 0, 78, 180, 2183, 269934820, 33554432, 18205, 15990, 3, 56, 40.00689607, 116.328021711, 50.3031634297, -9.69999980927, 0.000647016107729, -0.000623777814622, 0.00409008373393, -1.20300910749, 1.46211080138, 87.2248218264, 0.0395594276488, 0.0391322858632, 0.0386353582144, 0.0259782634676, 0.0258469991386, 0.0177756920457, 0.0417940169573, 0.0418389625847, 0.14644382894, 251920449, 0
1637149414403480703, 1465, 0, 160, 126, 0, 78, 180, 2183, 269934840, 33554432, 18205, 15990, 3, 56, 40.0068960697, 116.328021711, 50.3030750668, -9.69999980927, -0.0016523936144, 0.00117457836379, -0.00589010383719, -1.20339969396, 1.46234274971, 87.2254311289, 0.0395594276488, 0.0391322858632, 0.0386353582144, 0.0259782634676, 0.0258469991386, 0.0177756920457, 0.0417940169573, 0.0418389625847, 0.14644382894, 251920449, 0
1637149414424729206, 1465, 0, 160, 126, 0, 78, 180, 2183, 269934860, 33554432, 18205, 15990, 3, 56, 40.0068960695, 116.328021711, 50.3030904671, -9.69999980927, 0.00319781096536, 0.00091751594632, 0.00353637878649, -1.20271219262, 1.4642298217, 87.2252577879, 0.0395594276488, 0.0391322858632, 0.0386353582144, 0.0259782634676, 0.0258469991386, 0.0177756920457, 0.0417940169573, 0.0418389625847, 0.14644382894, 251920449, 0
1637149414444791698, 1465, 0, 160, 126, 0, 78, 180, 2183, 269934880, 33554432, 18205, 15990, 3, 56, 40.0068960688, 116.328021711, 50.3029788043, -9.69999980927, -0.00456613440535, 0.003034225896, -0.0070996384309, -1.20249199153, 1.4643813431, 87.2257646412, 0.0395594276488, 0.0391322858632, 0.0386353582144, 0.0259782634676, 0.0258469991386, 0.0177756920457, 0.0417940169573, 0.0418389625847, 0.14644382894, 251920449, 0
1637149414462627562, 1465, 0, 160, 126, 0, 78, 180, 2183, 269934900, 33554432, 18205, 15990, 3, 56, 40.006896069, 116.328021712, 50.3029675158, -9.69999980927, 0.00505424612309, 0.00427413907135, 0.000827723358612, -1.20061451545, 1.46829776726, 87.2256969605, 0.0395594276488, 0.0391322858632, 0.0386353582144, 0.0259782634676, 0.0258469991386, 0.0177756920457, 0.0417940169573, 0.0418389625847, 0.14644382894, 251920449, 0
1637149414483913765, 1465, 0, 160, 126, 0, 78, 180, 2183, 269934920, 33554432, 18205, 15990, 3, 56, 40.0068960684, 116.328021713, 50.302796552, -9.69999980927, -0.00443002232677, 0.01008331921, -0.0103208344054, -1.20264646863, 1.47174167413, 87.2267420915, 0.0395594276488, 0.0391322858632, 0.0386353582144, 0.0259782634676, 0.0258469991386, 0.0177756920457, 0.0417940169573, 0.0418389625847, 0.14644382894, 251920449, 0
1637149414503938011, 1465, 0, 160, 126, 0, 78, 180, 2183, 269934940, 33554432, 18205, 15990, 3, 56, 40.0068960688, 116.328021717, 50.3026254904, -9.69999980927, 0.00403442256487, 0.0196958440537, -0.0109149653104, -1.20201944509, 1.48247894157, 87.2266497972, 0.0395594276488, 0.0391322858632, 0.0386353582144, 0.0259782634676, 0.0258469991386, 0.0177756920457, 0.0417940169573, 0.0418389625847, 0.14644382894, 251920449, 0
1637149414524206477, 1465, 0, 160, 126, 0, 78, 180, 2183, 269934960, 33554432, 18205, 15990, 3, 56, 40.0068960681, 116.328021724, 50.3022328606, -9.69999980927, -0.00424748827328, 0.0399562243159, -0.0227051156679, -1.20199199403, 1.49784921802, 87.2259580883, 0.0395594276488, 0.0391322858632, 0.0386353582144, 0.0259782634676, 0.0258469991386, 0.0177756920457, 0.0417940169573, 0.0418389625847, 0.14644382894, 251920449, 0
1637149414542978383, 1465, 0, 160, 126, 0, 78, 180, 2183, 269934980, 33554432, 18205, 15990, 3, 56, 40.0068960688, 116.328021733, 50.3019158598, -9.69999980927, 0.00192449069314, 0.0449937815044, -0.019456860245, -1.20204129875, 1.5122432686, 87.2290087518, 0.0395594276488, 0.0391322858632, 0.0386353582144, 0.0259782634676, 0.0258469991386, 0.0177756920457, 0.0417940169573, 0.0418389625847, 0.14644382894, 251920449, 0
1637149414567731053, 1465, 0, 160, 126, 0, 78, 180, 2183, 269935000, 33554432, 18205, 15990, 3, 56, 40.006896068, 116.328021745, 50.3014016338, -9.69999980927, -0.00356671223874, 0.0601601059793, -0.0269180261674, -1.20063287137, 1.53518747823, 87.2269873716, 0.0395594276488, 0.0391322858632, 0.0386353582144, 0.0259782634676, 0.0258469991386, 0.0177756920457, 0.0417940169573, 0.0418389625847, 0.14644382894, 251920449, 0
1637149414583157079, 1465, 0, 160, 126, 0, 78, 180, 2183, 269935020, 33554432, 18205, 15990, 3, 56, 40.0068960685, 116.328021762, 50.3009933177, -9.69999980927, -0.000651011790023, 0.0787370449274, -0.0234056979855, -1.20254407378, 1.55401831481, 87.2282165818, 0.0395594276488, 0.0391322858632, 0.0386353582144, 0.0259782634676, 0.0258469991386, 0.0177756920457, 0.0417940169573, 0.0418389625847, 0.14644382894, 251920449, 0
1637149414603888837, 1465, 0, 160, 126, 0, 78, 180, 2183, 269935040, 33554432, 18205, 15990, 3, 56, 40.0068960689, 116.328021781, 50.3005016884, -9.69999980927, 0.00423769392798, 0.0907927844583, -0.0235737532958, -1.2039412884, 1.57753787053, 87.2253308544, 0.0395173430443, 0.0390871614218, 0.0385651439428, 0.0253498759121, 0.0252235736698, 0.0177617128938, 0.0390115305781, 0.039030674845, 0.14390411973, 251920449, 0
1637149414626894307, 1465, 0, 160, 126, 0, 72, 180, 2183, 269935060, 33554432, 18205, 15990, 3, 56, 40.006896069, 116.328021805, 50.3001115965, -9.69999980927, -0.00295111153029, 0.113358774911, -0.0213400569344, -1.20644663585, 1.59565888635, 87.2250233228, 0.0395173430443, 0.0390871614218, 0.0385651439428, 0.0253498759121, 0.0252235736698, 0.0177617128938, 0.0390115305781, 0.039030674845, 0.14390411973, 251920449, 0
1637149414643287638, 1465, 0, 160, 126, 0, 72, 180, 2183, 269935080, 33554432, 18205, 15990, 3, 56, 40.0068960702, 116.328021832, 50.2997744586, -9.69999980927, 0.00859342869666, 0.126541050622, -0.0138012012029, -1.20985299888, 1.6141790578, 87.2228885377, 0.0395173430443, 0.0390871614218, 0.0385651439428, 0.0253498759121, 0.0252235736698, 0.0177617128938, 0.0390115305781, 0.039030674845, 0.14390411973, 251920449, 0
1637149414663135931, 1465, 0, 160, 126, 0, 72, 180, 2183, 269935100, 33554432, 18205, 15990, 3, 56, 40.0068960699, 116.328021864, 50.2994899405, -9.69999980927, -0.000476515737007, 0.146950899158, -0.0129334017288, -1.21056744027, 1.62775329446, 87.2206038225, 0.0395173430443, 0.0390871614218, 0.0385651439428, 0.0253498759121, 0.0252235736698, 0.0177617128938, 0.0390115305781, 0.039030674845, 0.14390411973, 251920449, 0
1637149414685318598, 1465, 0, 160, 126, 0, 72, 180, 2183, 269935120, 33554432, 18205, 15990, 3, 56, 40.0068960709, 116.3280219, 50.2993670022, -9.69999980927, 0.00525533305234, 0.165257768922, -0.00261284147645, -1.21246215729, 1.6372168376, 87.2196094448, 0.0395173430443, 0.0390871614218, 0.0385651439428, 0.0253498759121, 0.0252235736698, 0.0177617128938, 0.0390115305781, 0.039030674845, 0.14390411973, 251920449, 0
1637149414702888184, 1465, 0, 160, 126, 0, 72, 180, 2183, 269935140, 33554432, 18205, 15990, 3, 56, 40.0068960713, 116.328021939, 50.2992793107, -9.69999980927, 0.00665702058773, 0.179173452399, -0.000518394396542, -1.21350099188, 1.64185702196, 87.2171070735, 0.0395173430443, 0.0390871614218, 0.0385651439428, 0.0253498759121, 0.0252235736698, 0.0177617128938, 0.0390115305781, 0.039030674845, 0.14390411973, 251920449, 0
1637149414725321575, 1465, 0, 160, 126, 0, 72, 180, 2183, 269935160, 33554432, 18205, 15990, 3, 56, 40.0068960717, 116.328021983, 50.2993541295, -9.69999980927, -0.000639907801656, 0.197165168201, 0.00632968335792, -1.21179530965, 1.64324401823, 87.2175238495, 0.0395173430443, 0.0390871614218, 0.0385651439428, 0.0253498759121, 0.0252235736698, 0.0177617128938, 0.0390115305781, 0.039030674845, 0.14390411973, 251920449, 0
1637149414743837984, 1465, 0, 160, 126, 0, 72, 180, 2183, 269935180, 33554432, 18205, 15990, 3, 56, 40.0068960732, 116.32802203, 50.2994730789, -9.69999980927, 0.0107388900159, 0.210018865382, 0.00951245654051, -1.21277216754, 1.64131575405, 87.2158379105, 0.0395173430443, 0.0390871614218, 0.0385651439428, 0.0253498759121, 0.0252235736698, 0.0177617128938, 0.0390115305781, 0.039030674845, 0.14390411973, 251920449, 0
1637149414764456355, 1465, 0, 160, 126, 0, 72, 180, 2183, 269935200, 33554432, 18205, 15990, 3, 56, 40.0068960736, 116.32802208, 50.2996416558, -9.69999980927, 0.000121196868906, 0.225522443508, 0.00983022602571, -1.21264309467, 1.63781532355, 87.216555976, 0.0395173430443, 0.0390871614218, 0.0385651439428, 0.0253498759121, 0.0252235736698, 0.0177617128938, 0.0390115305781, 0.039030674845, 0.14390411973, 251920449, 0
1637149414783691573, 1465, 0, 160, 126, 0, 72, 180, 2183, 269935220, 33554432, 18205, 15990, 3, 56, 40.0068960752, 116.328022134, 50.299886778, -9.69999980927, 0.00576368522368, 0.238795284661, 0.0124443091777, -1.21275701536, 1.62952445797, 87.2166562142, 0.0395173430443, 0.0390871614218, 0.0385651439428, 0.0253498759121, 0.0252235736698, 0.0177617128938, 0.0390115305781, 0.039030674845, 0.14390411973, 251920449, 0
1637149414804928201, 1465, 0, 160, 126, 0, 72, 180, 2183, 269935240, 33554432, 18205, 15990, 3, 56, 40.0068960762, 116.328022191, 50.3001113711, -9.69999980927, 0.00662878372602, 0.251633725784, 0.0121177683115, -1.21250327129, 1.62575505369, 87.2156322188, 0.0395173430443, 0.0390871614218, 0.0385651439428, 0.0253498759121, 0.0252235736698, 0.0177617128938, 0.0390115305781, 0.039030674845, 0.14390411973, 251920449, 0
1637149414823875975, 1465, 0, 160, 126, 0, 72, 180, 2183, 269935260, 33554432, 18205, 15990, 3, 56, 40.0068960773, 116.328022251, 50.3003616137, -9.69999980927, 0.000406549668052, 0.26526372702, 0.00996674657222, -1.21353115448, 1.61757832503, 87.2172949943, 0.0395173430443, 0.0390871614218, 0.0385651439428, 0.0253498759121, 0.0252235736698, 0.0177617128938, 0.0390115305781, 0.039030674845, 0.14390411973, 251920449, 0
1637149414844847659, 1465, 0, 160, 126, 0, 72, 180, 2183, 269935280, 33554432, 18205, 15990, 3, 56, 40.0068960789, 116.328022313, 50.3006125856, -9.69999980927, 0.0112414475715, 0.273832697074, 0.0136658315005, -1.21332316862, 1.6125924498, 87.2155834548, 0.0395173430443, 0.0390871614218, 0.0385651439428, 0.0253498759121, 0.0252235736698, 0.0177617128938, 0.0390115305781, 0.039030674845, 0.14390411973, 251920449, 0
1637149414862683339, 1465, 0, 160, 126, 0, 72, 180, 2183, 269935300, 33554432, 18205, 15990, 3, 56, 40.0068960794, 116.328022379, 50.3007908808, -9.69999980927, 0.000484382479672, 0.288227211372, 0.00728352783669, -1.21282512688, 1.6072540578, 87.2164420549, 0.0395173430443, 0.0390871614218, 0.0385651439428, 0.0253498759121, 0.0252235736698, 0.0177617128938, 0.0390115305781, 0.039030674845, 0.14390411973, 251920449, 0
1637149414883120606, 1465, 0, 160, 126, 0, 72, 180, 2183, 269935320, 33554432, 18205, 15990, 3, 56, 40.0068960811, 116.328022447, 50.3010254018, -9.69999980927, 0.0104827045599, 0.298505619215, 0.0123833662343, -1.21335905141, 1.6023649006, 87.2164045916, 0.0395173430443, 0.0390871614218, 0.0385651439428, 0.0253498759121, 0.0252235736698, 0.0177617128938, 0.0390115305781, 0.039030674845, 0.14390411973, 251920449, 0
1637149414904459559, 1465, 0, 160, 126, 0, 72, 180, 2183, 269935340, 33554432, 18205, 15990, 3, 56, 40.0068960813, 116.328022518, 50.3011377007, -9.69999980927, 0.00384910889331, 0.31103632295, 0.00635868638222, -1.21004161249, 1.59946863176, 87.215002019, 0.0395173430443, 0.0390871614218, 0.0385651439428, 0.0253498759121, 0.0252235736698, 0.0177617128938, 0.0390115305781, 0.039030674845, 0.14390411973, 251920449, 0
1637149414925186288, 1465, 0, 160, 126, 0, 72, 180, 2183, 269935360, 33554432, 18205, 15990, 3, 56, 40.0068960825, 116.328022591, 50.3013106035, -9.69999980927, 0.00556420346137, 0.322681676682, 0.0085412120179, -1.20984303009, 1.59563434832, 87.2157257334, 0.0395173430443, 0.0390871614218, 0.0385651439428, 0.0253498759121, 0.0252235736698, 0.0177617128938, 0.0390115305781, 0.039030674845, 0.14390411973, 251920449, 0
1637149414945204073, 1465, 0, 160, 126, 0, 72, 180, 2183, 269935380, 33554432, 18205, 15990, 3, 56, 40.0068960829, 116.328022668, 50.3014079016, -9.69999980927, 0.00636590407153, 0.33394440172, 0.00727324477265, -1.20613386127, 1.5949071009, 87.2128071778, 0.0395173430443, 0.0390871614218, 0.0385651439428, 0.0253498759121, 0.0252235736698, 0.0177617128938, 0.0390115305781, 0.039030674845, 0.14390411973, 251920449, 0
1637149414963664088, 1465, 0, 160, 126, 0, 72, 180, 2183, 269935400, 33554432, 18205, 15990, 3, 56, 40.0068960831, 116.328022747, 50.3015072495, -9.69999980927, -0.0010935797933, 0.347065093675, 0.00378250337707, -1.2023111594, 1.59160872652, 87.2132237031, 0.0395173430443, 0.0390871614218, 0.0385651439428, 0.0253498759121, 0.0252235736698, 0.0177617128938, 0.0390115305781, 0.039030674845, 0.14390411973, 251920449, 0
1637149414983232104, 1465, 0, 160, 126, 0, 72, 180, 2183, 269935420, 33554432, 18205, 15990, 3, 56, 40.0068960841, 116.328022829, 50.3016256038, -9.69999980927, 0.00679209519977, 0.357487434299, 0.00825543978212, -1.20077383335, 1.59149665217, 87.2110424312, 0.0395173430443, 0.0390871614218, 0.0385651439428, 0.0253498759121, 0.0252235736698, 0.0177617128938, 0.0390115305781, 0.039030674845, 0.14390411973, 251920449, 0
1637149415005786993, 1465, 0, 160, 126, 0, 72, 180, 2183, 269935440, 33554432, 18205, 15990, 3, 56, 40.0068960833, 116.328022914, 50.3017166434, -9.69999980927, -0.007113977994, 0.372433876245, 0.00385603651677, -1.19515765477, 1.58690919184, 87.2098145511, 0.0395173430443, 0.0390871614218, 0.0385651439428, 0.0253498759121, 0.0252235736698, 0.0177617128938, 0.0390115305781, 0.039030674845, 0.14390411973, 251920449, 0
1637149415025074050, 1465, 0, 160, 126, 0, 72, 180, 2183, 269935460, 33554432, 18205, 15990, 3, 56, 40.0068960847, 116.328023002, 50.3018833231, -9.69999980927, 0.00526448146743, 0.383559891194, 0.00903309443903, -1.1909984754, 1.58539655363, 87.2098105592, 0.0395173430443, 0.0390871614218, 0.0385651439428, 0.0253498759121, 0.0252235736698, 0.0177617128938, 0.0390115305781, 0.039030674845, 0.14390411973, 251920449, 0
1637149415043409269, 1465, 0, 160, 126, 0, 72, 180, 2183, 269935480, 33554432, 18205, 15990, 3, 56, 40.0068960842, 116.328023092, 50.3019802514, -9.69999980927, -0.00399664705324, 0.395794835914, 0.00480696991959, -1.18548423366, 1.58329294143, 87.2073617201, 0.0395173430443, 0.0390871614218, 0.0385651439428, 0.0253498759121, 0.0252235736698, 0.0177617128938, 0.0390115305781, 0.039030674845, 0.14390411973, 251920449, 0
1637149415063198406, 1465, 0, 160, 126, 0, 72, 180, 2183, 269935500, 33554432, 18205, 15990, 3, 56, 40.0068960852, 116.328023186, 50.3021421088, -9.69999980927, 0.000815544702056, 0.408232645047, 0.00611841748495, -1.18019683323, 1.57746015942, 87.2079596698, 0.0395173430443, 0.0390871614218, 0.0385651439428, 0.0253498759121, 0.0252235736698, 0.0177617128938, 0.0390115305781, 0.039030674845, 0.14390411973, 251920449, 0
1637149415083837843, 1465, 0, 160, 126, 0, 72, 180, 2183, 269935520, 33554432, 18205, 15990, 3, 56, 40.0068960858, 116.328023282, 50.3022524174, -9.69999980927, 0.00537405496028, 0.41765161828, 0.00608620084839, -1.17638791728, 1.57721647188, 87.206012153, 0.0395173430443, 0.0390871614218, 0.0385651439428, 0.0253498759121, 0.0252235736698, 0.0177617128938, 0.0390115305781, 0.039030674845, 0.14390411973, 251920449, 0
1637149415102622208, 1465, 0, 160, 126, 0, 72, 180, 2183, 269935540, 33554432, 18205, 15990, 3, 56, 40.0068960862, 116.328023381, 50.3023790382, -9.69999980927, -0.00302448313549, 0.432395263039, 0.00415892063152, -1.17360327195, 1.57321174602, 87.2073495021, 0.0395173430443, 0.0390871614218, 0.0385651439428, 0.0253498759121, 0.0252235736698, 0.0177617128938, 0.0390115305781, 0.039030674845, 0.14390411973, 251920449, 0
1637149415124136747, 1465, 0, 160, 126, 0, 72, 180, 2183, 269935560, 33554432, 18205, 15990, 3, 56, 40.0068960876, 116.328023483, 50.3025059588, -9.69999980927, 0.0113259815282, 0.440740706813, 0.00736194876907, -1.16863821907, 1.57179958282, 87.2051944587, 0.0395173430443, 0.0390871614218, 0.0385651439428, 0.0253498759121, 0.0252235736698, 0.0177617128938, 0.0390115305781, 0.039030674845, 0.14390411973, 251920449, 0
1637149415144873057, 1465, 0, 160, 126, 0, 72, 180, 2183, 269935580, 33554432, 18205, 15990, 3, 56, 40.0068960878, 116.328023588, 50.3025762038, -9.69999980927, -0.000593448981726, 0.455800904072, 0.00223515361796, -1.16661181193, 1.56903709832, 87.2045785913, 0.0395173430443, 0.0390871614218, 0.0385651439428, 0.0253498759121, 0.0252235736698, 0.0177617128938, 0.0390115305781, 0.039030674845, 0.14390411973, 251920449, 0
1637149415163449998, 1465, 0, 160, 126, 0, 72, 180, 2183, 269935600, 33554432, 18205, 15990, 3, 56, 40.0068960896, 116.328023695, 50.3027081322, -9.69999980927, 0.0121694446668, 0.467136752423, 0.00756280988296, -1.1633087964, 1.56717153718, 87.2042977371, 0.0395173430443, 0.0390871614218, 0.0385651439428, 0.0253498759121, 0.0252235736698, 0.0177617128938, 0.0390115305781, 0.039030674845, 0.14390411973, 251920449, 0
1637149415182981466, 1465, 0, 160, 126, 0, 72, 180, 2183, 269935620, 33554432, 18205, 15990, 3, 56, 40.0068960899, 116.328023805, 50.3027311368, -9.69999980927, 0.00460252941437, 0.477967670142, 0.00166855812054, -1.16026961718, 1.56706558114, 87.2006039771, 0.0395173430443, 0.0390871614218, 0.0385651439428, 0.0253498759121, 0.0252235736698, 0.0177617128938, 0.0390115305781, 0.039030674845, 0.14390411973, 251920449, 0
1637149415206005447, 1465, 0, 160, 126, 0, 72, 180, 2183, 269935640, 33554432, 18205, 15990, 3, 56, 40.0068960919, 116.328023919, 50.3028507587, -9.69999980927, 0.0110263636496, 0.492356181464, 0.00694508351114, -1.15945823149, 1.56627083526, 87.1998059709, 0.0395173430443, 0.0390871614218, 0.0385651439428, 0.0253498759121, 0.0252235736698, 0.0177617128938, 0.0390115305781, 0.039030674845, 0.14390411973, 251920449, 0
1637149415224510565, 1465, 0, 160, 126, 0, 72, 180, 2183, 269935660, 33554432, 18205, 15990, 3, 56, 40.0068960924, 116.328024035, 50.3028863473, -9.69999980927, 0.00892283738994, 0.505131259488, 0.00439665932923, -1.15461875741, 1.56533207445, 87.1961178485, 0.0395173430443, 0.0390871614218, 0.0385651439428, 0.0253498759121, 0.0252235736698, 0.0177617128938, 0.0390115305781, 0.039030674845, 0.14390411973, 251920449, 0
1637149415243917289, 1465, 0, 160, 126, 0, 72, 180, 2183, 269935680, 33554432, 18205, 15990, 3, 56, 40.0068960937, 116.328024155, 50.3029771233, -9.69999980927, 0.00524138369633, 0.518420579804, 0.00406817122641, -1.15139933823, 1.56087636962, 87.1956273814, 0.0395173430443, 0.0390871614218, 0.0385651439428, 0.0253498759121, 0.0252235736698, 0.0177617128938, 0.0390115305781, 0.039030674845, 0.14390411973, 251920449, 0
1637149415262866803, 1465, 0, 160, 126, 0, 72, 180, 2183, 269935700, 33554432, 18205, 15990, 3, 56, 40.0068960952, 116.328024277, 50.3030430991, -9.69999980927, 0.0121159430873, 0.529811755686, 0.00604714080538, -1.1478292078, 1.56132890543, 87.1924537902, 0.0395173430443, 0.0390871614218, 0.0385651439428, 0.0253498759121, 0.0252235736698, 0.0177617128938, 0.0390115305781, 0.039030674845, 0.14390411973, 251920449, 0
1637149415284049493, 1465, 0, 160, 126, 0, 72, 180, 2183, 269935720, 33554432, 18205, 15990, 3, 56, 40.0068960956, 116.328024403, 50.3031029236, -9.69999980927, -0.00125095872912, 0.545473114639, 0.00221840948555, -1.14348736182, 1.55658304377, 87.1909808235, 0.0395173430443, 0.0390871614218, 0.0385651439428, 0.0253498759121, 0.0252235736698, 0.0177617128938, 0.0390115305781, 0.039030674845, 0.14390411973, 251920449, 0
1637149415304500257, 1465, 0, 160, 126, 0, 72, 180, 2183, 269935740, 33554432, 18205, 15990, 3, 56, 40.0068960977, 116.328024531, 50.3032240383, -9.69999980927, 0.0120263990069, 0.555165962741, 0.00740866234263, -1.13954386673, 1.55520152294, 87.1894858936, 0.0395173430443, 0.0390871614218, 0.0385651439428, 0.0253498759121, 0.0252235736698, 0.0177617128938, 0.0390115305781, 0.039030674845, 0.14390411973, 251920449, 0
1637149415325006602, 1465, 0, 160, 126, 0, 72, 180, 2183, 269935760, 33554432, 18205, 15990, 3, 56, 40.0068960977, 116.328024662, 50.3032626482, -9.69999980927, -0.00304013085439, 0.569174348229, 0.00109138074382, -1.13475201175, 1.55307214801, 87.1863465213, 0.0395173430443, 0.0390871614218, 0.0385651439428, 0.0253498759121, 0.0252235736698, 0.0177617128938, 0.0390115305781, 0.039030674845, 0.14390411973, 251920449, 0
1637149415343530561, 1465, 0, 160, 126, 0, 72, 180, 2183, 269935780, 33554432, 18205, 15990, 3, 56, 40.0068960994, 116.328024796, 50.3034157408, -9.69999980927, 0.00463046955359, 0.581492027934, 0.00637209605541, -1.12771066129, 1.55012012814, 87.1859555219, 0.0395173430443, 0.0390871614218, 0.0385651439428, 0.0253498759121, 0.0252235736698, 0.0177617128938, 0.0390115305781, 0.039030674845, 0.14390411973, 251920449, 0
1637149415363578136, 1465, 0, 160, 126, 0, 72, 180, 2183, 269935800, 33554432, 18205, 15990, 3, 56, 40.0068960999, 116.328024933, 50.3034773385, -9.69999980927, 0.00333099486244, 0.592508590983, 0.003121675151, -1.12198080847, 1.54989553446, 87.1822370087, 0.0395173430443, 0.0390871614218, 0.0385651439428, 0.0253498759121, 0.0252235736698, 0.0177617128938, 0.0390115305781, 0.039030674845, 0.14390411973, 251920449, 0
1637149415384117987, 1465, 0, 160, 126, 0, 72, 180, 2183, 269935820, 33554432, 18205, 15990, 3, 56, 40.0068961008, 116.328025073, 50.3035924751, -9.69999980927, -0.00111980656773, 0.605447178183, 0.00331617722692, -1.1166786905, 1.54554087467, 87.1821621397, 0.0395173430443, 0.0390871614218, 0.0385651439428, 0.0253498759121, 0.0252235736698, 0.0177617128938, 0.0390115305781, 0.039030674845, 0.14390411973, 251920449, 0
1637149415403543693, 1465, 0, 160, 126, 0, 72, 180, 2183, 269935840, 33554432, 18205, 15990, 3, 56, 40.006896102, 116.328025216, 50.3036704138, -9.69999980927, 0.00968433627237, 0.616115511276, 0.00463166386318, -1.11105976406, 1.54492273064, 87.1777322009, 0.0395173430443, 0.0390871614218, 0.0385651439428, 0.0253498759121, 0.0252235736698, 0.0177617128938, 0.0390115305781, 0.039030674845, 0.14390411973, 251920449, 0
1637149415425030029, 1465, 0, 160, 126, 0, 72, 180, 2183, 269935860, 33554432, 18205, 15990, 3, 56, 40.0068961026, 116.328025362, 50.3037390923, -9.69999980927, -0.000290986522525, 0.632235903116, 0.0016457401345, -1.10853846166, 1.541862332, 87.1763264816, 0.0395173430443, 0.0390871614218, 0.0385651439428, 0.0253498759121, 0.0252235736698, 0.0177617128938, 0.0390115305781, 0.039030674845, 0.14390411973, 251920449, 0
1637149415446857398, 1465, 0, 160, 126, 0, 72, 180, 2183, 269935880, 33554432, 18205, 15990, 3, 56, 40.0068961046, 116.32802551, 50.303846065, -9.69999980927, 0.0139925383817, 0.643141472658, 0.00660204978177, -1.10336778282, 1.53963046373, 87.1738566266, 0.0395173430443, 0.0390871614218, 0.0385651439428, 0.0253498759121, 0.0252235736698, 0.0177617128938, 0.0390115305781, 0.039030674845, 0.14390411973, 251920449, 0
1637149415462898838, 1465, 0, 160, 126, 0, 72, 180, 2183, 269935900, 33554432, 18205, 15990, 3, 56, 40.0068961051, 116.328025662, 50.3038784666, -9.69999980927, 0.00482087444303, 0.656007196239, 0.0014797172095, -1.10070577927, 1.53575146109, 87.1711302847, 0.0395173430443, 0.0390871614218, 0.0385651439428, 0.0253498759121, 0.0252235736698, 0.0177617128938, 0.0390115305781, 0.039030674845, 0.14390411973, 251920449, 0
1637149415484316420, 1465, 0, 160, 126, 0, 72, 180, 2183, 269935920, 33554432, 18205, 15990, 3, 56, 40.0068961078, 116.328025817, 50.3039887678, -9.69999980927, 0.0161546071588, 0.669975566032, 0.0063540144617, -1.09710493983, 1.53171929701, 87.1700620228, 0.0395173430443, 0.0390871614218, 0.0385651439428, 0.0253498759121, 0.0252235736698, 0.0177617128938, 0.0390115305781, 0.039030674845, 0.14390411973, 251920449, 0
1637149415503914620, 1465, 0, 160, 126, 0, 72, 180, 2183, 269935940, 33554432, 18205, 15990, 3, 56, 40.0068961085, 116.328025975, 50.3040488828, -9.69999980927, 0.00934351387593, 0.68303788736, 0.00495375228729, -1.08996356641, 1.52760247933, 87.1678454499, 0.0395173430443, 0.0390871614218, 0.0385651439428, 0.0253498759121, 0.0252235736698, 0.0177617128938, 0.0390115305781, 0.039030674845, 0.14390411973, 251920449, 0
1637149415523914075, 1465, 0, 160, 126, 0, 72, 180, 2183, 269935960, 33554432, 18205, 15990, 3, 56, 40.0068961108, 116.328026136, 50.3041667975, -9.69999980927, 0.0125233166413, 0.696852735889, 0.00610412771876, -1.08470359701, 1.52195202247, 87.1677335166, 0.0395173430443, 0.0390871614218, 0.0385651439428, 0.0253498759121, 0.0252235736698, 0.0177617128938, 0.0390115305781, 0.039030674845, 0.14390411973, 251920449, 0
1637149415543299204, 1465, 0, 160, 126, 0, 72, 180, 2183, 269935980, 33554432, 18205, 15990, 3, 56, 40.0068961128, 116.3280263, 50.3042681022, -9.69999980927, 0.0160104437707, 0.707320039544, 0.00761731664992, -1.07886620209, 1.5177406169, 87.1652237533, 0.0395173430443, 0.0390871614218, 0.0385651439428, 0.0253498759121, 0.0252235736698, 0.0177617128938, 0.0390115305781, 0.039030674845, 0.14390411973, 251920449, 0
1637149415567534921, 1465, 0, 160, 126, 0, 72, 180, 2183, 269936000, 33554432, 18205, 15990, 3, 56, 40.0068961146, 116.328026467, 50.3043465037, -9.69999980927, 0.00843529441834, 0.721389629509, 0.002821113759, -1.07473932168, 1.51124126824, 87.1644809309, 0.0395173430443, 0.0390871614218, 0.0385651439428, 0.0253498759121, 0.0252235736698, 0.0177617128938, 0.0390115305781, 0.039030674845, 0.14390411973, 251920449, 0
1637149415584927570, 1465, 0, 160, 126, 0, 72, 180, 2183, 269936020, 33554432, 18205, 15990, 3, 56, 40.0068961182, 116.328026637, 50.3044753391, -9.69999980927, 0.0224852806867, 0.731691147654, 0.00788360659722, -1.07306592379, 1.50765382225, 87.1626792938, 0.0615513846278, 0.0609866343439, 0.0539474003017, 0.0326462946832, 0.0324900113046, 0.02159252204, 0.0399570949376, 0.0399818867445, 0.144280657172, 251920449, 0
1637149415604687414, 1465, 0, 160, 126, 0, 72, 180, 2183, 269936040, 33554432, 18205, 15990, 3, 56, 40.0068961189, 116.328026809, 50.3045576131, -9.69999980927, 0.0054863691317, 0.744336180974, 0.00342764320566, -1.07286919124, 1.501841486, 87.159412468, 0.0394127704203, 0.0389863923192, 0.0385749265552, 0.0246547777206, 0.0244975220412, 0.0177707783878, 0.0366307869554, 0.0366492494941, 0.144247487187, 251666497, 0
1637149415628390871, 1465, 0, 160, 126, 0, 72, 180, 2183, 269936060, 33554432, 18205, 15990, 3, 56, 40.006896121, 116.328026985, 50.3047330696, -9.69999980927, 0.0190485328789, 0.757013841356, 0.00841328192606, -1.0729199379, 1.49716764091, 87.1571526096, 0.0394127704203, 0.0389863923192, 0.0385749265552, 0.0246547777206, 0.0244975220412, 0.0177707783878, 0.0366307869554, 0.0366492494941, 0.144247487187, 251666497, 0
1637149415643477175, 1465, 0, 160, 126, 0, 74, 180, 2183, 269936080, 33554432, 18205, 15990, 3, 56, 40.0068961219, 116.328027164, 50.304841022, -9.69999980927, 0.0118508259376, 0.766927298891, 0.00530615286671, -1.07258675671, 1.49126004992, 87.1529370857, 0.0394127704203, 0.0389863923192, 0.0385749265552, 0.0246547777206, 0.0244975220412, 0.0177707783878, 0.0366307869554, 0.0366492494941, 0.144247487187, 251666497, 0
1637149415663476927, 1465, 0, 160, 126, 0, 74, 180, 2183, 269936100, 33554432, 18205, 15990, 3, 56, 40.0068961232, 116.328027345, 50.3050185684, -9.69999980927, 0.010481507371, 0.779284287197, 0.00628766811585, -1.07109165235, 1.48571027748, 87.1509710931, 0.0394127704203, 0.0389863923192, 0.0385749265552, 0.0246547777206, 0.0244975220412, 0.0177707783878, 0.0366307869554, 0.0366492494941, 0.144247487187, 251666497, 0
1637149415685557862, 1465, 0, 160, 126, 0, 74, 180, 2183, 269936120, 33554432, 18205, 15990, 3, 56, 40.0068961244, 116.328027529, 50.3051287225, -9.69999980927, 0.0155400059885, 0.788650381584, 0.0055376937425, -1.06679976498, 1.48357934055, 87.147083669, 0.0394127704203, 0.0389863923192, 0.0385749265552, 0.0246547777206, 0.0244975220412, 0.0177707783878, 0.0366307869554, 0.0366492494941, 0.144247487187, 251666497, 0
1637149415702822664, 1465, 0, 160, 126, 0, 74, 180, 2183, 269936140, 33554432, 18205, 15990, 3, 56, 40.006896125, 116.328027715, 50.3052244028, -9.69999980927, 0.00715812489003, 0.799914379362, 0.00153418667848, -1.06237171249, 1.48038566564, 87.1468573242, 0.0394127704203, 0.0389863923192, 0.0385749265552, 0.0246547777206, 0.0244975220412, 0.0177707783878, 0.0366307869554, 0.0366492494941, 0.144247487187, 251666497, 0
1637149415724872434, 1465, 0, 160, 126, 0, 74, 180, 2183, 269936160, 33554432, 18205, 15990, 3, 56, 40.0068961271, 116.328027903, 50.3053250508, -9.69999980927, 0.0222116544213, 0.809423678388, 0.00577227005227, -1.05814504923, 1.47999868003, 87.1452756798, 0.0394127704203, 0.0389863923192, 0.0385749265552, 0.0246547777206, 0.0244975220412, 0.0177707783878, 0.0366307869554, 0.0366492494941, 0.144247487187, 251666497, 0
1637149415744661675, 1465, 0, 160, 126, 0, 74, 180, 2183, 269936180, 33554432, 18205, 15990, 3, 56, 40.0068961276, 116.328028094, 50.3053193344, -9.69999980927, 0.0119042178299, 0.819030478425, -0.00248183447318, -1.05607444198, 1.47966760724, 87.144982247, 0.0394127704203, 0.0389863923192, 0.0385749265552, 0.0246547777206, 0.0244975220412, 0.0177707783878, 0.0366307869554, 0.0366492494941, 0.144247487187, 251666497, 0
1637149415763173741, 1465, 0, 160, 126, 0, 74, 180, 2183, 269936200, 33554432, 18205, 15990, 3, 56, 40.0068961311, 116.328028287, 50.3053327249, -9.69999980927, 0.0301427192057, 0.829672081194, 0.000172751230652, -1.05590074688, 1.48260910055, 87.1460963184, 0.0394127704203, 0.0389863923192, 0.0385749265552, 0.0246547777206, 0.0244975220412, 0.0177707783878, 0.0366307869554, 0.0366492494941, 0.144247487187, 251666497, 0
1637149415783536958, 1465, 0, 160, 126, 0, 74, 180, 2183, 269936220, 33554432, 18205, 15990, 3, 56, 40.0068961321, 116.328028483, 50.3052802989, -9.69999980927, 0.0163561838985, 0.839627404241, -0.00108955826314, -1.0502677884, 1.48659177705, 87.1480156964, 0.0394127704203, 0.0389863923192, 0.0385749265552, 0.0246547777206, 0.0244975220412, 0.0177707783878, 0.0366307869554, 0.0366492494941, 0.144247487187, 251666497, 0
1637149415806362863, 1465, 0, 160, 126, 0, 74, 180, 2183, 269936240, 33554432, 18205, 15990, 3, 56, 40.0068961352, 116.328028681, 50.3053099886, -9.69999980927, 0.0243069539116, 0.847653766034, 0.00197866164161, -1.04802625966, 1.48971185264, 87.1511391537, 0.0394127704203, 0.0389863923192, 0.0385749265552, 0.0246547777206, 0.0244975220412, 0.0177707783878, 0.0366307869554, 0.0366492494941, 0.144247487187, 251666497, 0
1637149415824673135, 1465, 0, 160, 126, 0, 74, 180, 2183, 269936260, 33554432, 18205, 15990, 3, 56, 40.0068961374, 116.328028882, 50.3052828601, -9.69999980927, 0.0276691113429, 0.861506898724, 0.00128309377744, -1.04580752674, 1.49481977552, 87.1516613295, 0.0394127704203, 0.0389863923192, 0.0385749265552, 0.0246547777206, 0.0244975220412, 0.0177707783878, 0.0366307869554, 0.0366492494941, 0.144247487187, 251666497, 0
1637149415844613680, 1465, 0, 160, 126, 0, 74, 180, 2183, 269936280, 33554432, 18205, 15990, 3, 56, 40.006896141, 116.328029085, 50.3052696884, -9.69999980927, 0.0260272311636, 0.871695654786, -0.00177858114968, -1.04859352706, 1.49618434487, 87.1542520671, 0.0394127704203, 0.0389863923192, 0.0385749265552, 0.0246547777206, 0.0244975220412, 0.0177707783878, 0.0366307869554, 0.0366492494941, 0.144247487187, 251666497, 0
1637149415862993283, 1465, 0, 160, 126, 0, 74, 180, 2183, 269936300, 33554432, 18205, 15990, 3, 56, 40.0068961451, 116.328029289, 50.305232482, -9.69999980927, 0.0379052529508, 0.874259748849, -0.00101287269712, -1.05555892699, 1.50486634599, 87.1510733869, 0.0394127704203, 0.0389863923192, 0.0385749265552, 0.0246547777206, 0.0244975220412, 0.0177707783878, 0.0366307869554, 0.0366492494941, 0.144247487187, 251666497, 0
1637149415883379032, 1465, 0, 160, 126, 0, 74, 180, 2183, 269936320, 33554432, 18205, 15990, 3, 56, 40.0068961487, 116.328029496, 50.3051628536, -9.69999980927, 0.0232111931845, 0.887729959532, -0.00442593741037, -1.0623720559, 1.50909202517, 87.1502503325, 0.0394127704203, 0.0389863923192, 0.0385749265552, 0.0246547777206, 0.0244975220412, 0.0177707783878, 0.0366307869554, 0.0366492494941, 0.144247487187, 251666497, 0
1637149415903584883, 1465, 0, 160, 126, 0, 74, 180, 2183, 269936340, 33554432, 18205, 15990, 3, 56, 40.0068961534, 116.328029705, 50.3052420188, -9.69999980927, 0.0374535999361, 0.897553340602, 0.00506739935088, -1.06592468377, 1.51322651545, 87.1481129119, 0.0394127704203, 0.0389863923192, 0.0385749265552, 0.0246547777206, 0.0244975220412, 0.0177707783878, 0.0366307869554, 0.0366492494941, 0.144247487187, 251666497, 0
