time , .header.id , .header.msg_type , .header.port_addr , .header.length , .header.sequence , .header.idle_time , .header.time_status , .header.gps_week , .header.gps_week_seconds , .header.receiver_status , .header.reserved , .header.software_version , .ins_status , .position_type , .latitude , .longitude , .altitude , .undulation , .north_velocity , .east_velocity , .up_velocity , .roll , .pitch , .azimuth , .latitude_std , .longitude_std , .altitude_std , .north_velocity_std , .east_velocity_std , .up_velocity_std , .roll_std , .pitch_std , .azimuth_std , .extended_status , .seconds_since_update
1606899872804429470 , 1465 , 0 , 160 , 126 , 0 , 68 , 180 , 2134 , 101909440 , 33556480 , 18205 , 15990 , 3 , 56 , 40.0066166504 , 116.328144398 , 50.3517200444 , -9.69999980927 , -0.00105325032486 , 0.0240206745185 , 0.00160670873678 , -0.418230266469 , 1.4537995003 , 356.210720716 , 0.0387284494936 , 0.0387253202498 , 0.035627245903 , 0.0232077371329 , 0.0231967680156 , 0.0143194673583 , 0.040473267436 , 0.0405036099255 , 0.109483957291 , 251658305 , 0
1606899872807795944 , 1465 , 0 , 160 , 126 , 0 , 68 , 180 , 2134 , 101909460 , 33556480 , 18205 , 15990 , 3 , 56 , 40.00661665 , 116.328144399 , 50.3517916836 , -9.69999980927 , 0.000207546545049 , 0.0238385560773 , -0.00310191574231 , -0.420297719044 , 1.45457459295 , 356.2097964 , 0.0387284494936 , 0.0387253202498 , 0.035627245903 , 0.0232077371329 , 0.0231967680156 , 0.0143194673583 , 0.040473267436 , 0.0405036099255 , 0.109483957291 , 251658305 , 0
1606899872864033682 , 1465 , 0 , 160 , 126 , 0 , 68 , 180 , 2134 , 101909480 , 33556480 , 18205 , 15990 , 3 , 56 , 40.0066166493 , 116.3281444 , 50.3520143665 , -9.69999980927 , -0.000757695823353 , 0.0238541227653 , 0.00243593699939 , -0.419090640852 , 1.45573194971 , 356.210555606 , 0.0387284494936 , 0.0387253202498 , 0.035627245903 , 0.0232077371329 , 0.0231967680156 , 0.0143194673583 , 0.040473267436 , 0.0405036099255 , 0.109483957291 , 251658305 , 0
1606899872864063653 , 1465 , 0 , 160 , 126 , 0 , 68 , 180 , 2134 , 101909500 , 33556480 , 18205 , 15990 , 3 , 56 , 40.0066166488 , 116.328144402 , 50.3520875508 , -9.69999980927 , -0.000899484914978 , 0.0227585211087 , -0.00314617742884 , -0.420182220721 , 1.45549094422 , 356.210106837 , 0.0387284494936 , 0.0387253202498 , 0.035627245903 , 0.0232077371329 , 0.0231967680156 , 0.0143194673583 , 0.040473267436 , 0.0405036099255 , 0.109483957291 , 251658305 , 0
1606899872864068675 , 1465 , 0 , 160 , 126 , 0 , 68 , 180 , 2134 , 101909520 , 33556480 , 18205 , 15990 , 3 , 56 , 40.0066166481 , 116.328144402 , 50.3523075813 , -9.69999980927 , -0.000121954110979 , 0.0232319419246 , 0.00226170120687 , -0.420224721917 , 1.45569991163 , 356.210285558 , 0.0387284494936 , 0.0387253202498 , 0.035627245903 , 0.0232077371329 , 0.0231967680156 , 0.0143194673583 , 0.040473267436 , 0.0405036099255 , 0.109483957291 , 251658305 , 0
1606899872893469572 , 1465 , 0 , 160 , 126 , 0 , 68 , 180 , 2134 , 101909540 , 33556480 , 18205 , 15990 , 3 , 56 , 40.0066166478 , 116.328144404 , 50.3523829598 , -9.69999980927 , 0.000398859749947 , 0.0236076674154 , -0.00290067967839 , -0.422301424055 , 1.45602537576 , 356.209915688 , 0.0387284494936 , 0.0387253202498 , 0.035627245903 , 0.0232077371329 , 0.0231967680156 , 0.0143194673583 , 0.040473267436 , 0.0405036099255 , 0.109483957291 , 251658305 , 0
1606899872928405796 , 1465 , 0 , 160 , 126 , 0 , 68 , 180 , 2134 , 101909560 , 33556480 , 18205 , 15990 , 3 , 56 , 40.0066166472 , 116.328144404 , 50.3526023459 , -9.69999980927 , 0.000252772106377 , 0.0222631699632 , 0.00250851502506 , -0.422364960716 , 1.45754268018 , 356.2105047 , 0.0387284494936 , 0.0387253202498 , 0.035627245903 , 0.0232077371329 , 0.0231967680156 , 0.0143194673583 , 0.040473267436 , 0.0405036099255 , 0.109483957291 , 251658305 , 0
1606899872988652057 , 1465 , 0 , 160 , 126 , 0 , 68 , 180 , 2134 , 101909580 , 33556480 , 18205 , 15990 , 3 , 56 , 40.0066166469 , 116.328144406 , 50.3526924253 , -9.69999980927 , 0.000223571453989 , 0.0238133956525 , -0.00212101239936 , -0.424621694358 , 1.45704516786 , 356.209194473 , 0.0387284494936 , 0.0387253202498 , 0.035627245903 , 0.0232077371329 , 0.0231967680156 , 0.0143194673583 , 0.040473267436 , 0.0405036099255 , 0.109483957291 , 251658305 , 0
1606899873011122386 , 1465 , 0 , 160 , 126 , 0 , 68 , 180 , 2134 , 101909600 , 33556480 , 18205 , 15990 , 3 , 56 , 40.0066166463 , 116.328144406 , 50.3529050928 , -9.69999980927 , -0.000450004323424 , 0.0233393584834 , 0.00258011322068 , -0.423651293808 , 1.4571374047 , 356.209305881 , 0.0387284494936 , 0.0387253202498 , 0.035627245903 , 0.0232077371329 , 0.0231967680156 , 0.0143194673583 , 0.040473267436 , 0.0405036099255 , 0.109483957291 , 251658305 , 0
1606899873048489211 , 1465 , 0 , 160 , 126 , 0 , 68 , 180 , 2134 , 101909620 , 33556480 , 18205 , 15990 , 3 , 56 , 40.006616646 , 116.328144408 , 50.3529924136 , -9.69999980927 , 0.000745194802995 , 0.0233237657059 , -0.00243685958565 , -0.425340672351 , 1.45613675425 , 356.208608541 , 0.0387284494936 , 0.0387253202498 , 0.035627245903 , 0.0232077371329 , 0.0231967680156 , 0.0143194673583 , 0.040473267436 , 0.0405036099255 , 0.109483957291 , 251658305 , 0
1606899873090797897 , 1465 , 0 , 160 , 126 , 0 , 68 , 180 , 2134 , 101909640 , 33556480 , 18205 , 15990 , 3 , 56 , 40.0066166455 , 116.328144409 , 50.3532077428 , -9.69999980927 , 0.000927454216747 , 0.0253373845906 , 0.00364097669248 , -0.425029826826 , 1.45580409535 , 356.208453367 , 0.0387284494936 , 0.0387253202498 , 0.035627245903 , 0.0232077371329 , 0.0231967680156 , 0.0143194673583 , 0.040473267436 , 0.0405036099255 , 0.109483957291 , 251658305 , 0
1606899873133445976 , 1465 , 0 , 160 , 126 , 0 , 68 , 180 , 2134 , 101909660 , 33556480 , 18205 , 15990 , 3 , 56 , 40.0066166454 , 116.328144411 , 50.3533089319 , -9.69999980927 , 0.00154783529977 , 0.023634207114 , -0.0015570953993 , -0.427690757541 , 1.45652042876 , 356.208164277 , 0.0387284494936 , 0.0387253202498 , 0.035627245903 , 0.0232077371329 , 0.0231967680156 , 0.0143194673583 , 0.040473267436 , 0.0405036099255 , 0.109483957291 , 251658305 , 0
1606899873200631831 , 1465 , 0 , 160 , 126 , 0 , 68 , 180 , 2134 , 101909680 , 33556480 , 18205 , 15990 , 3 , 56 , 40.0066166449 , 116.328144412 , 50.3535418175 , -9.69999980927 , 0.000123739797718 , 0.0259525931236 , 0.00496585058723 , -0.427701983087 , 1.45658651714 , 356.208266683 , 0.0387284494936 , 0.0387253202498 , 0.035627245903 , 0.0232077371329 , 0.0231967680156 , 0.0143194673583 , 0.040473267436 , 0.0405036099255 , 0.109483957291 , 251658305 , 0
1606899873212325391 , 1465 , 0 , 160 , 126 , 0 , 68 , 180 , 2134 , 101909700 , 33556480 , 18205 , 15990 , 3 , 56 , 40.0066166448 , 116.328144415 , 50.3536414225 , -9.69999980927 , 0.00111458103976 , 0.0252677609566 , -0.00202690352104 , -0.42726306681 , 1.45528024242 , 356.208198119 , 0.0387284494936 , 0.0387253202498 , 0.035627245903 , 0.0232077371329 , 0.0231967680156 , 0.0143194673583 , 0.040473267436 , 0.0405036099255 , 0.109483957291 , 251658305 , 0
1606899873250568066 , 1465 , 0 , 160 , 126 , 0 , 68 , 180 , 2134 , 101909720 , 33556480 , 18205 , 15990 , 3 , 56 , 40.0066166442 , 116.328144416 , 50.3538688021 , -9.69999980927 , -0.000335729649741 , 0.0266430807677 , 0.00454257238126 , -0.426587552563 , 1.45516437152 , 356.20776563 , 0.0387284494936 , 0.0387253202498 , 0.035627245903 , 0.0232077371329 , 0.0231967680156 , 0.0143194673583 , 0.040473267436 , 0.0405036099255 , 0.109483957291 , 251658305 , 0
1606899873288988485 , 1465 , 0 , 160 , 126 , 0 , 68 , 180 , 2134 , 101909740 , 33556480 , 18205 , 15990 , 3 , 56 , 40.0066166439 , 116.328144419 , 50.3539588321 , -9.69999980927 , 0.000726787128632 , 0.0259727786596 , -0.00248105310795 , -0.426974451842 , 1.45451492258 , 356.207803331 , 0.0387284494936 , 0.0387253202498 , 0.035627245903 , 0.0232077371329 , 0.0231967680156 , 0.0143194673583 , 0.040473267436 , 0.0405036099255 , 0.109483957291 , 251658305 , 0
1606899873332074873 , 1465 , 0 , 160 , 126 , 0 , 68 , 180 , 2134 , 101909760 , 33556480 , 18205 , 15990 , 3 , 56 , 40.0066166433 , 116.328144421 , 50.3541779565 , -9.69999980927 , -0.000571996262465 , 0.0273503187939 , 0.00386850860351 , -0.426157277667 , 1.45540185874 , 356.207543482 , 0.0387284494936 , 0.0387253202498 , 0.035627245903 , 0.0232077371329 , 0.0231967680156 , 0.0143194673583 , 0.040473267436 , 0.0405036099255 , 0.109483957291 , 251658305 , 0
1606899873396428044 , 1465 , 0 , 160 , 126 , 0 , 68 , 180 , 2134 , 101909780 , 33556480 , 18205 , 15990 , 3 , 56 , 40.0066166429 , 116.328144423 , 50.3542610267 , -9.69999980927 , -0.000914582082223 , 0.0256750083349 , -0.00261127259752 , -0.42728044077 , 1.45558272613 , 356.207432376 , 0.0387284494936 , 0.0387253202498 , 0.035627245903 , 0.0232077371329 , 0.0231967680156 , 0.0143194673583 , 0.040473267436 , 0.0405036099255 , 0.109483957291 , 251658305 , 0
1606899873411870201 , 1465 , 0 , 160 , 126 , 0 , 68 , 180 , 2134 , 101909800 , 33556480 , 18205 , 15990 , 3 , 56 , 40.0066166421 , 116.328144425 , 50.3544681147 , -9.69999980927 , -0.00190080635395 , 0.0277273148845 , 0.00382024673708 , -0.425278582421 , 1.45571108049 , 356.207974635 , 0.0387284494936 , 0.0387253202498 , 0.035627245903 , 0.0232077371329 , 0.0231967680156 , 0.0143194673583 , 0.040473267436 , 0.0405036099255 , 0.109483957291 , 251658305 , 0
1606899873451643111 , 1465 , 0 , 160 , 126 , 0 , 68 , 180 , 2134 , 101909820 , 33556480 , 18205 , 15990 , 3 , 56 , 40.0066166415 , 116.328144428 , 50.3545577461 , -9.69999980927 , -0.00120379790554 , 0.0258391467405 , -0.00206808942178 , -0.424814165559 , 1.45521728338 , 356.208150189 , 0.0387284494936 , 0.0387253202498 , 0.035627245903 , 0.0232077371329 , 0.0231967680156 , 0.0143194673583 , 0.040473267436 , 0.0405036099255 , 0.109483957291 , 251658305 , 0
1606899873490454691 , 1465 , 0 , 160 , 126 , 0 , 68 , 180 , 2134 , 101909840 , 33556480 , 18205 , 15990 , 3 , 56 , 40.0066166406 , 116.32814443 , 50.3547609476 , -9.69999980927 , -0.00207874528019 , 0.026654214547 , 0.00404326405269 , -0.425511126924 , 1.45559562895 , 356.208353495 , 0.0387284494936 , 0.0387253202498 , 0.035627245903 , 0.0232077371329 , 0.0231967680156 , 0.0143194673583 , 0.040473267436 , 0.0405036099255 , 0.109483957291 , 251658305 , 0
1606899873532098960 , 1465 , 0 , 160 , 126 , 0 , 68 , 180 , 2134 , 101909860 , 33556480 , 18205 , 15990 , 3 , 56 , 40.0066166401 , 116.328144433 , 50.3548633652 , -9.69999980927 , -0.000519991646351 , 0.0264158884892 , -0.00119605896562 , -0.426074679043 , 1.4569750917 , 356.209252308 , 0.0387284494936 , 0.0387253202498 , 0.035627245903 , 0.0232077371329 , 0.0231967680156 , 0.0143194673583 , 0.040473267436 , 0.0405036099255 , 0.109483957291 , 251658305 , 0
1606899873570875080 , 1465 , 0 , 160 , 126 , 0 , 68 , 180 , 2134 , 101909880 , 33556480 , 18205 , 15990 , 3 , 56 , 40.0066166393 , 116.328144434 , 50.3550701821 , -9.69999980927 , -0.00154641090936 , 0.0258499752665 , 0.00395044432133 , -0.427069741165 , 1.45654282506 , 356.209054635 , 0.0387284494936 , 0.0387253202498 , 0.035627245903 , 0.0232077371329 , 0.0231967680156 , 0.0143194673583 , 0.040473267436 , 0.0405036099255 , 0.109483957291 , 251658305 , 0
1606899873615576807 , 1465 , 0 , 160 , 126 , 0 , 68 , 180 , 2134 , 101909900 , 33556480 , 18205 , 15990 , 3 , 56 , 40.0066166388 , 116.328144437 , 50.3551801564 , -9.69999980927 , -0.000734253301418 , 0.0257271423093 , -0.000907095042797 , -0.427674377294 , 1.45702168187 , 356.208869006 , 0.0387284494936 , 0.0387253202498 , 0.035627245903 , 0.0232077371329 , 0.0231967680156 , 0.0143194673583 , 0.040473267436 , 0.0405036099255 , 0.109483957291 , 251658305 , 0
1606899873650647426 , 1465 , 0 , 160 , 126 , 0 , 68 , 180 , 2134 , 101909920 , 33556480 , 18205 , 15990 , 3 , 56 , 40.0066166381 , 116.328144439 , 50.3553891387 , -9.69999980927 , -0.00141912679731 , 0.0265052860443 , 0.00455380862309 , -0.427374038486 , 1.45629184316 , 356.209525843 , 0.0387284494936 , 0.0387253202498 , 0.035627245903 , 0.0232077371329 , 0.0231967680156 , 0.0143194673583 , 0.040473267436 , 0.0405036099255 , 0.109483957291 , 251658305 , 0
1606899873692215219 , 1465 , 0 , 160 , 126 , 0 , 68 , 180 , 2134 , 101909940 , 33556480 , 18205 , 15990 , 3 , 56 , 40.0066166376 , 116.328144442 , 50.3555010986 , -9.69999980927 , -0.000131115445318 , 0.0241753608725 , -0.000625942126964 , -0.428590259336 , 1.45595177844 , 356.20987502 , 0.0387284494936 , 0.0387253202498 , 0.035627245903 , 0.0232077371329 , 0.0231967680156 , 0.0143194673583 , 0.040473267436 , 0.0405036099255 , 0.109483957291 , 251658305 , 0
1606899873735234322 , 1465 , 0 , 160 , 126 , 0 , 68 , 180 , 2134 , 101909960 , 33556480 , 18205 , 15990 , 3 , 56 , 40.0066166372 , 116.328144444 , 50.3557102485 , -9.69999980927 , 2.09615265283e-05 , 0.0266447912687 , 0.00499970640816 , -0.42981033849 , 1.45661233317 , 356.210231949 , 0.0387284494936 , 0.0387253202498 , 0.035627245903 , 0.0232077371329 , 0.0231967680156 , 0.0143194673583 , 0.040473267436 , 0.0405036099255 , 0.109483957291 , 251658305 , 0
1606899873773855484 , 1465 , 0 , 160 , 126 , 0 , 68 , 180 , 2134 , 101909980 , 33556480 , 18205 , 15990 , 3 , 56 , 40.0066166371 , 116.328144446 , 50.3558240291 , -9.69999980927 , 0.00203472712887 , 0.0243472751041 , -0.000600989398221 , -0.43076547964 , 1.45849283061 , 356.211481206 , 0.0387284494936 , 0.0387253202498 , 0.035627245903 , 0.0232077371329 , 0.0231967680156 , 0.0143194673583 , 0.040473267436 , 0.0405036099255 , 0.109483957291 , 251658305 , 0
1606899873815920700 , 1465 , 0 , 160 , 126 , 0 , 68 , 180 , 2134 , 101910000 , 33556480 , 18205 , 15990 , 3 , 56 , 40.0066166367 , 116.328144448 , 50.356036393 , -9.69999980927 , 0.000585805868698 , 0.0258931112144 , 0.00439695107384 , -0.431688961072 , 1.45646720908 , 356.211980241 , 0.0387284494936 , 0.0387253202498 , 0.035627245903 , 0.0232077371329 , 0.0231967680156 , 0.0143194673583 , 0.040473267436 , 0.0405036099255 , 0.109483957291 , 251658305 , 0
1606899873852383289 , 1465 , 0 , 160 , 126 , 0 , 68 , 180 , 2134 , 101910020 , 33556480 , 18205 , 15990 , 3 , 56 , 40.0066166368 , 116.328144451 , 50.3561552493 , -9.69999980927 , 0.00288356317334 , 0.0256805539354 , -0.000138465340981 , -0.431277759547 , 1.45685126928 , 356.213673366 , 0.0586443766952 , 0.0586599521339 , 0.0476762168109 , 0.0293672624975 , 0.0293586738408 , 0.0169057324529 , 0.0438437610865 , 0.0438713021576 , 0.110888823867 , 251658305 , 0
1606899873892220033 , 1465 , 0 , 160 , 126 , 0 , 68 , 180 , 2134 , 101910040 , 33556480 , 18205 , 15990 , 3 , 56 , 40.0066166372 , 116.32814445 , 50.356317101 , -9.69999980927 , 0.00252946538795 , 0.025459588582 , 0.00425713213845 , -0.431431128096 , 1.45689626634 , 356.215365935 , 0.0383880622685 , 0.0383737944067 , 0.0355871282518 , 0.0224702805281 , 0.0224616937339 , 0.0143167655915 , 0.0410613082349 , 0.0410859175026 , 0.109687238932 , 251920449 , 0
1606899873931195676 , 1465 , 0 , 160 , 126 , 0 , 68 , 180 , 2134 , 101910060 , 33556480 , 18205 , 15990 , 3 , 56 , 40.0066166378 , 116.32814445 , 50.3563832631 , -9.69999980927 , 0.00347047580217 , 0.0253652998811 , -0.000196556145752 , -0.432299069615 , 1.45724639716 , 356.217046656 , 0.0383880622685 , 0.0383737944067 , 0.0355871282518 , 0.0224702805281 , 0.0224616937339 , 0.0143167655915 , 0.0410613082349 , 0.0410859175026 , 0.109687238932 , 251920449 , 0
1606899874003219594 , 1465 , 0 , 160 , 126 , 0 , 59 , 180 , 2134 , 101910080 , 33556480 , 18205 , 15990 , 3 , 56 , 40.0066166385 , 116.328144449 , 50.356519212 , -9.69999980927 , 0.00344129813544 , 0.0267092654445 , 0.00484967410664 , -0.43175265308 , 1.45741558827 , 356.21832113 , 0.0383880622685 , 0.0383737944067 , 0.0355871282518 , 0.0224702805281 , 0.0224616937339 , 0.0143167655915 , 0.0410613082349 , 0.0410859175026 , 0.109687238932 , 251920449 , 0
1606899874009728944 , 1465 , 0 , 160 , 126 , 0 , 59 , 180 , 2134 , 101910100 , 33556480 , 18205 , 15990 , 3 , 56 , 40.0066166392 , 116.32814445 , 50.3565861965 , -9.69999980927 , 0.00313617651622 , 0.025005870223 , -0.000452752983807 , -0.432918085111 , 1.4569662317 , 356.220414453 , 0.0383880622685 , 0.0383737944067 , 0.0355871282518 , 0.0224702805281 , 0.0224616937339 , 0.0143167655915 , 0.0410613082349 , 0.0410859175026 , 0.109687238932 , 251920449 , 0
1606899874050669066 , 1465 , 0 , 160 , 126 , 0 , 59 , 180 , 2134 , 101910120 , 33556480 , 18205 , 15990 , 3 , 56 , 40.0066166397 , 116.328144449 , 50.3567079734 , -9.69999980927 , 0.00216457003754 , 0.0270405892087 , 0.00378643079225 , -0.432601496716 , 1.45574195688 , 356.22148722 , 0.0383880622685 , 0.0383737944067 , 0.0355871282518 , 0.0224702805281 , 0.0224616937339 , 0.0143167655915 , 0.0410613082349 , 0.0410859175026 , 0.109687238932 , 251920449 , 0
1606899874092283299 , 1465 , 0 , 160 , 126 , 0 , 59 , 180 , 2134 , 101910140 , 33556480 , 18205 , 15990 , 3 , 56 , 40.0066166401 , 116.328144449 , 50.3568036649 , -9.69999980927 , 0.00168754716054 , 0.0254770475492 , 0.0015839892662 , -0.431147226095 , 1.45409749056 , 356.223589801 , 0.0383880622685 , 0.0383737944067 , 0.0355871282518 , 0.0224702805281 , 0.0224616937339 , 0.0143167655915 , 0.0410613082349 , 0.0410859175026 , 0.109687238932 , 251920449 , 0
1606899874129065256 , 1465 , 0 , 160 , 126 , 0 , 59 , 180 , 2134 , 101910160 , 33556480 , 18205 , 15990 , 3 , 56 , 40.0066166403 , 116.328144448 , 50.356925576 , -9.69999980927 , -0.000119282847016 , 0.0267346135877 , 0.00466530317788 , -0.43215546461 , 1.45282690888 , 356.224392332 , 0.0383880622685 , 0.0383737944067 , 0.0355871282518 , 0.0224702805281 , 0.0224616937339 , 0.0143167655915 , 0.0410613082349 , 0.0410859175026 , 0.109687238932 , 251920449 , 0
1606899874207028790 , 1465 , 0 , 160 , 126 , 0 , 59 , 180 , 2134 , 101910180 , 33556480 , 18205 , 15990 , 3 , 56 , 40.0066166404 , 116.328144449 , 50.3570258319 , -9.69999980927 , 2.01527934395e-06 , 0.0253971446291 , 0.00149380502759 , -0.431874654025 , 1.45229357257 , 356.226372292 , 0.0383880622685 , 0.0383737944067 , 0.0355871282518 , 0.0224702805281 , 0.0224616937339 , 0.0143167655915 , 0.0410613082349 , 0.0410859175026 , 0.109687238932 , 251920449 , 0
1606899874212533523 , 1465 , 0 , 160 , 126 , 0 , 59 , 180 , 2134 , 101910200 , 33556480 , 18205 , 15990 , 3 , 56 , 40.0066166401 , 116.328144448 , 50.3571299445 , -9.69999980927 , -0.00349930695558 , 0.0263278499503 , 0.00369629989001 , -0.432088322618 , 1.45083878568 , 356.226960368 , 0.0383880622685 , 0.0383737944067 , 0.0355871282518 , 0.0224702805281 , 0.0224616937339 , 0.0143167655915 , 0.0410613082349 , 0.0410859175026 , 0.109687238932 , 251920449 , 0
1606899874252205323 , 1465 , 0 , 160 , 126 , 0 , 59 , 180 , 2134 , 101910220 , 33556480 , 18205 , 15990 , 3 , 56 , 40.0066166396 , 116.328144449 , 50.35720497 , -9.69999980927 , -0.00310082943516 , 0.0249085373648 , 0.000350177816039 , -0.430789163192 , 1.45070529561 , 356.228179001 , 0.0383880622685 , 0.0383737944067 , 0.0355871282518 , 0.0224702805281 , 0.0224616937339 , 0.0143167655915 , 0.0410613082349 , 0.0410859175026 , 0.109687238932 , 251920449 , 0
1606899874293628929 , 1465 , 0 , 160 , 126 , 0 , 59 , 180 , 2134 , 101910240 , 33556480 , 18205 , 15990 , 3 , 56 , 40.0066166391 , 116.328144448 , 50.3573100725 , -9.69999980927 , -0.00415324472602 , 0.0267658710504 , 0.00404207236355 , -0.431193793788 , 1.45028404281 , 356.228212109 , 0.0383880622685 , 0.0383737944067 , 0.0355871282518 , 0.0224702805281 , 0.0224616937339 , 0.0143167655915 , 0.0410613082349 , 0.0410859175026 , 0.109687238932 , 251920449 , 0
1606899874335388337 , 1465 , 0 , 160 , 126 , 0 , 59 , 180 , 2134 , 101910260 , 33556480 , 18205 , 15990 , 3 , 56 , 40.0066166384 , 116.328144449 , 50.3573735049 , -9.69999980927 , -0.00461183757522 , 0.0235915322232 , -0.000253374746647 , -0.431654225635 , 1.45140607803 , 356.229187263 , 0.0383880622685 , 0.0383737944067 , 0.0355871282518 , 0.0224702805281 , 0.0224616937339 , 0.0143167655915 , 0.0410613082349 , 0.0410859175026 , 0.109687238932 , 251920449 , 0
1606899874369837024 , 1465 , 0 , 160 , 126 , 0 , 59 , 180 , 2134 , 101910280 , 33556480 , 18205 , 15990 , 3 , 56 , 40.0066166377 , 116.328144448 , 50.3574673142 , -9.69999980927 , -0.00470314286065 , 0.0259988990324 , 0.00297015242517 , -0.433300832731 , 1.45127947468 , 356.229071282 , 0.0383880622685 , 0.0383737944067 , 0.0355871282518 , 0.0224702805281 , 0.0224616937339 , 0.0143167655915 , 0.0410613082349 , 0.0410859175026 , 0.109687238932 , 251920449 , 0
1606899874412537707 , 1465 , 0 , 160 , 126 , 0 , 59 , 180 , 2134 , 101910300 , 33556480 , 18205 , 15990 , 3 , 56 , 40.006616637 , 116.328144448 , 50.3575414037 , -9.69999980927 , -0.0043741875626 , 0.0238902376143 , 0.0004637242818 , -0.433235497093 , 1.45278613069 , 356.230171664 , 0.0383880622685 , 0.0383737944067 , 0.0355871282518 , 0.0224702805281 , 0.0224616937339 , 0.0143167655915 , 0.0410613082349 , 0.0410859175026 , 0.109687238932 , 251920449 , 0
1606899874450889028 , 1465 , 0 , 160 , 126 , 0 , 59 , 180 , 2134 , 101910320 , 33556480 , 18205 , 15990 , 3 , 56 , 40.0066166363 , 116.328144447 , 50.3576279525 , -9.69999980927 , -0.00357405409822 , 0.0247213233878 , 0.00285998155564 , -0.434579105841 , 1.45245515668 , 356.229454098 , 0.0383880622685 , 0.0383737944067 , 0.0355871282518 , 0.0224702805281 , 0.0224616937339 , 0.0143167655915 , 0.0410613082349 , 0.0410859175026 , 0.109687238932 , 251920449 , 0
1606899874492189562 , 1465 , 0 , 160 , 126 , 0 , 59 , 180 , 2134 , 101910340 , 33556480 , 18205 , 15990 , 3 , 56 , 40.0066166359 , 116.328144448 , 50.3577237818 , -9.69999980927 , -0.00202423046114 , 0.023786861502 , 0.00245305920457 , -0.43407781041 , 1.45489600162 , 356.230538545 , 0.0383880622685 , 0.0383737944067 , 0.0355871282518 , 0.0224702805281 , 0.0224616937339 , 0.0143167655915 , 0.0410613082349 , 0.0410859175026 , 0.109687238932 , 251920449 , 0
1606899874534208186 , 1465 , 0 , 160 , 126 , 0 , 59 , 180 , 2134 , 101910360 , 33556480 , 18205 , 15990 , 3 , 56 , 40.0066166356 , 116.328144447 , 50.3578308197 , -9.69999980927 , -0.00207160706529 , 0.0235636849679 , 0.00452636075456 , -0.435800097813 , 1.45394128987 , 356.230997674 , 0.0383880622685 , 0.0383737944067 , 0.0355871282518 , 0.0224702805281 , 0.0224616937339 , 0.0143167655915 , 0.0410613082349 , 0.0410859175026 , 0.109687238932 , 251920449 , 0
1606899874576145804 , 1465 , 0 , 160 , 126 , 0 , 59 , 180 , 2134 , 101910380 , 33556480 , 18205 , 15990 , 3 , 56 , 40.0066166355 , 116.328144447 , 50.3579681674 , -9.69999980927 , -0.000164317950483 , 0.0224236882274 , 0.0045761080359 , -0.437661111315 , 1.45475093892 , 356.232923766 , 0.0383880622685 , 0.0383737944067 , 0.0355871282518 , 0.0224702805281 , 0.0224616937339 , 0.0143167655915 , 0.0410613082349 , 0.0410859175026 , 0.109687238932 , 251920449 , 0
1606899874612340091 , 1465 , 0 , 160 , 126 , 0 , 59 , 180 , 2134 , 101910400 , 33556480 , 18205 , 15990 , 3 , 56 , 40.0066166355 , 116.328144446 , 50.3580951309 , -9.69999980927 , -0.000840220165026 , 0.0241658977127 , 0.00516401331704 , -0.438089221596 , 1.45309453515 , 356.233369299 , 0.0383880622685 , 0.0383737944067 , 0.0355871282518 , 0.0224702805281 , 0.0224616937339 , 0.0143167655915 , 0.0410613082349 , 0.0410859175026 , 0.109687238932 , 251920449 , 0
1606899874655231136 , 1465 , 0 , 160 , 126 , 0 , 59 , 180 , 2134 , 101910420 , 33556480 , 18205 , 15990 , 3 , 56 , 40.0066166354 , 116.328144447 , 50.3582332106 , -9.69999980927 , 8.55165278156e-05 , 0.0224151103949 , 0.00390928387906 , -0.438045379586 , 1.45198359882 , 356.235749747 , 0.0383880622685 , 0.0383737944067 , 0.0355871282518 , 0.0224702805281 , 0.0224616937339 , 0.0143167655915 , 0.0410613082349 , 0.0410859175026 , 0.109687238932 , 251920449 , 0
1606899874693977954 , 1465 , 0 , 160 , 126 , 0 , 59 , 180 , 2134 , 101910440 , 33556480 , 18205 , 15990 , 3 , 56 , 40.0066166357 , 116.328144446 , 50.3583648447 , -9.69999980927 , 0.000562206260052 , 0.0242444896505 , 0.00607835794402 , -0.440463080985 , 1.45042355418 , 356.237057203 , 0.0383880622685 , 0.0383737944067 , 0.0355871282518 , 0.0224702805281 , 0.0224616937339 , 0.0143167655915 , 0.0410613082349 , 0.0410859175026 , 0.109687238932 , 251920449 , 0
1606899874731925294 , 1465 , 0 , 160 , 126 , 0 , 59 , 180 , 2134 , 101910460 , 33556480 , 18205 , 15990 , 3 , 56 , 40.0066166359 , 116.328144447 , 50.3584927209 , -9.69999980927 , 0.0011665155025 , 0.0238124555024 , 0.00323099447582 , -0.442222374224 , 1.45095782655 , 356.238915194 , 0.0383880622685 , 0.0383737944067 , 0.0355871282518 , 0.0224702805281 , 0.0224616937339 , 0.0143167655915 , 0.0410613082349 , 0.0410859175026 , 0.109687238932 , 251920449 , 0
1606899874779881691 , 1465 , 0 , 160 , 126 , 0 , 59 , 180 , 2134 , 101910480 , 33556480 , 18205 , 15990 , 3 , 56 , 40.0066166362 , 116.328144446 , 50.3586259382 , -9.69999980927 , 0.000863408797854 , 0.024995216924 , 0.00567120249215 , -0.443231664837 , 1.44960636838 , 356.240452559 , 0.0383880622685 , 0.0383737944067 , 0.0355871282518 , 0.0224702805281 , 0.0224616937339 , 0.0143167655915 , 0.0410613082349 , 0.0410859175026 , 0.109687238932 , 251920449 , 0
1606899874812304304 , 1465 , 0 , 160 , 126 , 0 , 59 , 180 , 2134 , 101910500 , 33556480 , 18205 , 15990 , 3 , 56 , 40.0066166362 , 116.328144447 , 50.3587325476 , -9.69999980927 , -0.000376557971525 , 0.0262868542756 , 0.0017706929903 , -0.442608500903 , 1.44884765147 , 356.242691893 , 0.0383880622685 , 0.0383737944067 , 0.0355871282518 , 0.0224702805281 , 0.0224616937339 , 0.0143167655915 , 0.0410613082349 , 0.0410859175026 , 0.109687238932 , 251920449 , 0
1606899874849056063 , 1465 , 0 , 160 , 126 , 0 , 59 , 180 , 2134 , 101910520 , 33556480 , 18205 , 15990 , 3 , 56 , 40.0066166364 , 116.328144447 , 50.358852474 , -9.69999980927 , 7.49964317226e-05 , 0.0279253142322 , 0.00497316152762 , -0.441264348695 , 1.44812686891 , 356.243582344 , 0.0383880622685 , 0.0383737944067 , 0.0355871282518 , 0.0224702805281 , 0.0224616937339 , 0.0143167655915 , 0.0410613082349 , 0.0410859175026 , 0.109687238932 , 251920449 , 0
1606899874891527767 , 1465 , 0 , 160 , 126 , 0 , 59 , 180 , 2134 , 101910540 , 33556480 , 18205 , 15990 , 3 , 56 , 40.0066166365 , 116.328144449 , 50.3589323759 , -9.69999980927 , 9.44854462549e-05 , 0.026503269202 , 0.000110082229067 , -0.440716194343 , 1.44692007155 , 356.246167138 , 0.0383880622685 , 0.0383737944067 , 0.0355871282518 , 0.0224702805281 , 0.0224616937339 , 0.0143167655915 , 0.0410613082349 , 0.0410859175026 , 0.109687238932 , 251920449 , 0
1606899874930223077 , 1465 , 0 , 160 , 126 , 0 , 59 , 180 , 2134 , 101910560 , 33556480 , 18205 , 15990 , 3 , 56 , 40.0066166367 , 116.328144449 , 50.3590426752 , -9.69999980927 , 7.26942339078e-05 , 0.0285761985973 , 0.00497101690454 , -0.439547729127 , 1.4477978143 , 356.247108932 , 0.0383880622685 , 0.0383737944067 , 0.0355871282518 , 0.0224702805281 , 0.0224616937339 , 0.0143167655915 , 0.0410613082349 , 0.0410859175026 , 0.109687238932 , 251920449 , 0
1606899875000266668 , 1465 , 0 , 160 , 126 , 0 , 59 , 180 , 2134 , 101910580 , 33556480 , 18205 , 15990 , 3 , 56 , 40.0066166369 , 116.328144451 , 50.3591064746 , -9.69999980927 , 0.00122143745183 , 0.0276857086868 , -0.000455638494223 , -0.438050676296 , 1.44999868697 , 356.2487039 , 0.0383880622685 , 0.0383737944067 , 0.0355871282518 , 0.0224702805281 , 0.0224616937339 , 0.0143167655915 , 0.0410613082349 , 0.0410859175026 , 0.109687238932 , 251920449 , 0
1606899875011065612 , 1465 , 0 , 160 , 126 , 0 , 59 , 180 , 2134 , 101910600 , 33556480 , 18205 , 15990 , 3 , 56 , 40.006616637 , 116.328144452 , 50.3592078658 , -9.69999980927 , -0.000117329576661 , 0.0292401227007 , 0.00406686578997 , -0.436266489489 , 1.44976292265 , 356.248755477 , 0.0383880622685 , 0.0383737944067 , 0.0355871282518 , 0.0224702805281 , 0.0224616937339 , 0.0143167655915 , 0.0410613082349 , 0.0410859175026 , 0.109687238932 , 251920449 , 0
1606899875052262830 , 1465 , 0 , 160 , 126 , 0 , 59 , 180 , 2134 , 101910620 , 33556480 , 18205 , 15990 , 3 , 56 , 40.0066166372 , 116.328144454 , 50.3592622885 , -9.69999980927 , 0.00154951115605 , 0.0280851510909 , -0.000977842513828 , -0.434871830924 , 1.45001062669 , 356.249768297 , 0.0383880622685 , 0.0383737944067 , 0.0355871282518 , 0.0224702805281 , 0.0224616937339 , 0.0143167655915 , 0.0410613082349 , 0.0410859175026 , 0.109687238932 , 251920449 , 0
1606899875090970148 , 1465 , 0 , 160 , 126 , 0 , 59 , 180 , 2134 , 101910640 , 33556480 , 18205 , 15990 , 3 , 56 , 40.0066166375 , 116.328144455 , 50.3593705557 , -9.69999980927 , 0.000772923793647 , 0.0288387183372 , 0.00415293742055 , -0.434542603437 , 1.4491896371 , 356.250220591 , 0.0383880622685 , 0.0383737944067 , 0.0355871282518 , 0.0224702805281 , 0.0224616937339 , 0.0143167655915 , 0.0410613082349 , 0.0410859175026 , 0.109687238932 , 251920449 , 0
1606899875133367775 , 1465 , 0 , 160 , 126 , 0 , 59 , 180 , 2134 , 101910660 , 33556480 , 18205 , 15990 , 3 , 56 , 40.0066166379 , 116.328144457 , 50.3594072908 , -9.69999980927 , 0.00192425910711 , 0.0289480192306 , -0.00196692880268 , -0.433437392529 , 1.45088086835 , 356.251271254 , 0.0383880622685 , 0.0383737944067 , 0.0355871282518 , 0.0224702805281 , 0.0224616937339 , 0.0143167655915 , 0.0410613082349 , 0.0410859175026 , 0.109687238932 , 251920449 , 0
1606899875168719438 , 1465 , 0 , 160 , 126 , 0 , 59 , 180 , 2134 , 101910680 , 33556480 , 18205 , 15990 , 3 , 56 , 40.0066166384 , 116.328144458 , 50.3595037302 , -9.69999980927 , 0.00201515654779 , 0.0276146514734 , 0.00363373762989 , -0.431814358243 , 1.45200512795 , 356.251825674 , 0.0383880622685 , 0.0383737944067 , 0.0355871282518 , 0.0224702805281 , 0.0224616937339 , 0.0143167655915 , 0.0410613082349 , 0.0410859175026 , 0.109687238932 , 251920449 , 0
1606899875213996429 , 1465 , 0 , 160 , 126 , 0 , 59 , 180 , 2134 , 101910700 , 33556480 , 18205 , 15990 , 3 , 56 , 40.0066166388 , 116.328144459 , 50.3595174374 , -9.69999980927 , 0.00195270226275 , 0.0265636996319 , -0.00325417806176 , -0.430779575681 , 1.45304933803 , 356.25337018 , 0.0383880622685 , 0.0383737944067 , 0.0355871282518 , 0.0224702805281 , 0.0224616937339 , 0.0143167655915 , 0.0410613082349 , 0.0410859175026 , 0.109687238932 , 251920449 , 0
1606899875250153417 , 1465 , 0 , 160 , 126 , 0 , 59 , 180 , 2134 , 101910720 , 33556480 , 18205 , 15990 , 3 , 56 , 40.0066166393 , 116.32814446 , 50.3596141022 , -9.69999980927 , 0.00237979816366 , 0.0270890207254 , 0.00364475763736 , -0.428455011992 , 1.4520839037 , 356.254581068 , 0.0383880622685 , 0.0383737944067 , 0.0355871282518 , 0.0224702805281 , 0.0224616937339 , 0.0143167655915 , 0.0410613082349 , 0.0410859175026 , 0.109687238932 , 251920449 , 0
1606899875290787813 , 1465 , 0 , 160 , 126 , 0 , 59 , 180 , 2134 , 101910740 , 33556480 , 18205 , 15990 , 3 , 56 , 40.0066166397 , 116.328144462 , 50.3596361261 , -9.69999980927 , 0.00222078884566 , 0.0245936549069 , -0.00277799672019 , -0.429029597639 , 1.45324505906 , 356.256533864 , 0.0383880622685 , 0.0383737944067 , 0.0355871282518 , 0.0224702805281 , 0.0224616937339 , 0.0143167655915 , 0.0410613082349 , 0.0410859175026 , 0.109687238932 , 251920449 , 0
1606899875329685120 , 1465 , 0 , 160 , 126 , 0 , 59 , 180 , 2134 , 101910760 , 33556480 , 18205 , 15990 , 3 , 56 , 40.0066166403 , 116.328144462 , 50.3597335508 , -9.69999980927 , 0.00244332558669 , 0.0254117707242 , 0.00422528455577 , -0.427642676005 , 1.4539001883 , 356.258513265 , 0.0383880622685 , 0.0383737944067 , 0.0355871282518 , 0.0224702805281 , 0.0224616937339 , 0.0143167655915 , 0.0410613082349 , 0.0410859175026 , 0.109687238932 , 251920449 , 0
1606899875379194310 , 1465 , 0 , 160 , 126 , 0 , 59 , 180 , 2134 , 101910780 , 33556480 , 18205 , 15990 , 3 , 56 , 40.0066166409 , 116.328144463 , 50.3597728694 , -9.69999980927 , 0.00348483107166 , 0.0234136740209 , -0.00170083703028 , -0.427522415112 , 1.45326197775 , 356.261198844 , 0.0383880622685 , 0.0383737944067 , 0.0355871282518 , 0.0224702805281 , 0.0224616937339 , 0.0143167655915 , 0.0410613082349 , 0.0410859175026 , 0.109687238932 , 251920449 , 0
1606899875414320366 , 1465 , 0 , 160 , 126 , 0 , 59 , 180 , 2134 , 101910800 , 33556480 , 18205 , 15990 , 3 , 56 , 40.0066166414 , 116.328144463 , 50.3598796073 , -9.69999980927 , 0.00171517055345 , 0.0241462770003 , 0.00500520862121 , -0.426332266446 , 1.45379568197 , 356.263419935 , 0.0383880622685 , 0.0383737944067 , 0.0355871282518 , 0.0224702805281 , 0.0224616937339 , 0.0143167655915 , 0.0410613082349 , 0.0410859175026 , 0.109687238932 , 251920449 , 0
1606899875452070183 , 1465 , 0 , 160 , 126 , 0 , 59 , 180 , 2134 , 101910820 , 33556480 , 18205 , 15990 , 3 , 56 , 40.0066166421 , 116.328144465 , 50.3599118497 , -9.69999980927 , 0.00407752637831 , 0.0244484748394 , -0.0022114649346 , -0.429116053567 , 1.45319963682 , 356.266370195 , 0.0383880622685 , 0.0383737944067 , 0.0355871282518 , 0.0224702805281 , 0.0224616937339 , 0.0143167655915 , 0.0410613082349 , 0.0410859175026 , 0.109687238932 , 251920449 , 0
1606899875492390028 , 1465 , 0 , 160 , 126 , 0 , 59 , 180 , 2134 , 101910840 , 33556480 , 18205 , 15990 , 3 , 56 , 40.0066166427 , 116.328144465 , 50.3600383559 , -9.69999980927 , 0.00238741284216 , 0.0236940206692 , 0.00555511814737 , -0.427274396763 , 1.45305414969 , 356.269268425 , 0.0383880622685 , 0.0383737944067 , 0.0355871282518 , 0.0224702805281 , 0.0224616937339 , 0.0143167655915 , 0.0410613082349 , 0.0410859175026 , 0.109687238932 , 251920449 , 0
1606899875528661969 , 1465 , 0 , 160 , 126 , 0 , 59 , 180 , 2134 , 101910860 , 33556480 , 18205 , 15990 , 3 , 56 , 40.0066166435 , 116.328144466 , 50.3600695003 , -9.69999980927 , 0.00525702696252 , 0.0243504120857 , -0.00238927358705 , -0.428071716596 , 1.45355127287 , 356.271680504 , 0.0383880622685 , 0.0383737944067 , 0.0355871282518 , 0.0224702805281 , 0.0224616937339 , 0.0143167655915 , 0.0410613082349 , 0.0410859175026 , 0.109687238932 , 251920449 , 0
1606899875580350592 , 1465 , 0 , 160 , 126 , 0 , 59 , 180 , 2134 , 101910880 , 33556480 , 18205 , 15990 , 3 , 56 , 40.0066166445 , 116.328144467 , 50.3602123093 , -9.69999980927 , 0.00524848182655 , 0.0243473785258 , 0.00576241316855 , -0.427751565281 , 1.45552757958 , 356.274806563 , 0.0383880622685 , 0.0383737944067 , 0.0355871282518 , 0.0224702805281 , 0.0224616937339 , 0.0143167655915 , 0.0410613082349 , 0.0410859175026 , 0.109687238932 , 251920449 , 0
1606899875612524465 , 1465 , 0 , 160 , 126 , 0 , 59 , 180 , 2134 , 101910900 , 33556480 , 18205 , 15990 , 3 , 56 , 40.0066166459 , 116.328144468 , 50.3602210674 , -9.69999980927 , 0.00825643026281 , 0.023679530805 , -0.00433520928563 , -0.430013480402 , 1.4556483789 , 356.277498035 , 0.0383880622685 , 0.0383737944067 , 0.0355871282518 , 0.0224702805281 , 0.0224616937339 , 0.0143167655915 , 0.0410613082349 , 0.0410859175026 , 0.109687238932 , 251920449 , 0
1606899875648327078 , 1465 , 0 , 160 , 126 , 0 , 59 , 180 , 2134 , 101910920 , 33556480 , 18205 , 15990 , 3 , 56 , 40.0066166478 , 116.328144469 , 50.3603323968 , -9.69999980927 , 0.0113981012696 , 0.0243485682976 , 0.00420359858897 , -0.430126595496 , 1.45781109159 , 356.280781034 , 0.0383880622685 , 0.0383737944067 , 0.0355871282518 , 0.0224702805281 , 0.0224616937339 , 0.0143167655915 , 0.0410613082349 , 0.0410859175026 , 0.109687238932 , 251920449 , 0
1606899875691382232 , 1465 , 0 , 160 , 126 , 0 , 59 , 180 , 2134 , 101910940 , 33556480 , 18205 , 15990 , 3 , 56 , 40.0066166504 , 116.32814447 , 50.3603159096 , -9.69999980927 , 0.0168720614456 , 0.0240420077923 , -0.00518312739211 , -0.431665457075 , 1.46113531654 , 356.28429633 , 0.0383880622685 , 0.0383737944067 , 0.0355871282518 , 0.0224702805281 , 0.0224616937339 , 0.0143167655915 , 0.0410613082349 , 0.0410859175026 , 0.109687238932 , 251920449 , 0
1606899875730433947 , 1465 , 0 , 160 , 126 , 0 , 59 , 180 , 2134 , 101910960 , 33556480 , 18205 , 15990 , 3 , 56 , 40.0066166539 , 116.32814447 , 50.360406734 , -9.69999980927 , 0.0213580061281 , 0.023391179397 , 0.0030952372113 , -0.432426771169 , 1.46442876838 , 356.288102894 , 0.0383880622685 , 0.0383737944067 , 0.0355871282518 , 0.0224702805281 , 0.0224616937339 , 0.0143167655915 , 0.0410613082349 , 0.0410859175026 , 0.109687238932 , 251920449 , 0
1606899875800483009 , 1465 , 0 , 160 , 126 , 0 , 59 , 180 , 2134 , 101910980 , 33556480 , 18205 , 15990 , 3 , 56 , 40.0066166587 , 116.328144472 , 50.3603751818 , -9.69999980927 , 0.0298281116558 , 0.0228439376631 , -0.0056628624828 , -0.436349114438 , 1.47049688669 , 356.292639505 , 0.0383880622685 , 0.0383737944067 , 0.0355871282518 , 0.0224702805281 , 0.0224616937339 , 0.0143167655915 , 0.0410613082349 , 0.0410859175026 , 0.109687238932 , 251920449 , 0
1606899875816147915 , 1465 , 0 , 160 , 126 , 0 , 59 , 180 , 2134 , 101911000 , 33556480 , 18205 , 15990 , 3 , 56 , 40.0066166644 , 116.328144472 , 50.3604341727 , -9.69999980927 , 0.0338144509506 , 0.0205523424619 , 0.00129882329611 , -0.435597173093 , 1.47569562534 , 356.298178659 , 0.0383880622685 , 0.0383737944067 , 0.0355871282518 , 0.0224702805281 , 0.0224616937339 , 0.0143167655915 , 0.0410613082349 , 0.0410859175026 , 0.109687238932 , 251920449 , 0
1606899875853917248 , 1465 , 0 , 160 , 126 , 0 , 59 , 180 , 2134 , 101911020 , 33556480 , 18205 , 15990 , 3 , 56 , 40.0066166715 , 116.328144473 , 50.3603784265 , -9.69999980927 , 0.0439110357612 , 0.0209745999269 , -0.00663203364817 , -0.438534936506 , 1.48029019921 , 356.305074227 , 0.0575899742544 , 0.0575959198177 , 0.0476445034146 , 0.0285764634609 , 0.0285711865872 , 0.0169090218842 , 0.0438292250037 , 0.043851364404 , 0.11086653173 , 251920449 , 0
1606899875889085411 , 1465 , 0 , 160 , 126 , 0 , 59 , 180 , 2134 , 101911040 , 33556480 , 18205 , 15990 , 3 , 56 , 40.0066166804 , 116.32814447 , 50.3604023037 , -9.69999980927 , 0.0497262816374 , 0.0190039356371 , 0.00075629099988 , -0.437943905093 , 1.48575433864 , 356.31252447 , 0.0380827262998 , 0.0380697846413 , 0.0355727635324 , 0.0221361909062 , 0.0221325587481 , 0.0143168112263 , 0.0413851030171 , 0.0414031110704 , 0.110862262547 , 251658305 , 0
1606899875931315545 , 1465 , 0 , 160 , 126 , 0 , 59 , 180 , 2134 , 101911060 , 33556480 , 18205 , 15990 , 3 , 56 , 40.0066166908 , 116.328144468 , 50.3603048073 , -9.69999980927 , 0.060652823799 , 0.0187144273391 , -0.00710432244817 , -0.441822543618 , 1.49155721535 , 356.320313746 , 0.0380827262998 , 0.0380697846413 , 0.0355727635324 , 0.0221361909062 , 0.0221325587481 , 0.0143168112263 , 0.0413851030171 , 0.0414031110704 , 0.110862262547 , 251658305 , 0
1606899875971367896 , 1465 , 0 , 160 , 126 , 0 , 62 , 180 , 2134 , 101911080 , 33556480 , 18205 , 15990 , 3 , 56 , 40.006616703 , 116.328144465 , 50.36032217 , -9.69999980927 , 0.0688327212168 , 0.0187503699998 , 0.00144582017518 , -0.441378370628 , 1.49780428986 , 356.328755617 , 0.0380827262998 , 0.0380697846413 , 0.0355727635324 , 0.0221361909062 , 0.0221325587481 , 0.0143168112263 , 0.0413851030171 , 0.0414031110704 , 0.110862262547 , 251658305 , 0
1606899876016350268 , 1465 , 0 , 160 , 126 , 0 , 62 , 180 , 2134 , 101911100 , 33556480 , 18205 , 15990 , 3 , 56 , 40.0066167167 , 116.328144464 , 50.3602503007 , -9.69999980927 , 0.0785008828617 , 0.017898897463 , -0.0051364248436 , -0.444169743148 , 1.50188986416 , 356.337064071 , 0.0380827262998 , 0.0380697846413 , 0.0355727635324 , 0.0221361909062 , 0.0221325587481 , 0.0143168112263 , 0.0413851030171 , 0.0414031110704 , 0.110862262547 , 251658305 , 0
1606899876051325513 , 1465 , 0 , 160 , 126 , 0 , 62 , 180 , 2134 , 101911120 , 33556480 , 18205 , 15990 , 3 , 56 , 40.006616732 , 116.32814446 , 50.3603020646 , -9.69999980927 , 0.0865361513919 , 0.0175751596108 , 0.00351722411032 , -0.444121372567 , 1.50559168715 , 356.345937137 , 0.0380827262998 , 0.0380697846413 , 0.0355727635324 , 0.0221361909062 , 0.0221325587481 , 0.0143168112263 , 0.0413851030171 , 0.0414031110704 , 0.110862262547 , 251658305 , 0
1606899876091621914 , 1465 , 0 , 160 , 126 , 0 , 62 , 180 , 2134 , 101911140 , 33556480 , 18205 , 15990 , 3 , 56 , 40.0066167492 , 116.328144459 , 50.3602828793 , -9.69999980927 , 0.0980730253877 , 0.0189741019908 , -0.00248977457834 , -0.446752343808 , 1.50671181548 , 356.35694012 , 0.0380827262998 , 0.0380697846413 , 0.0355727635324 , 0.0221361909062 , 0.0221325587481 , 0.0143168112263 , 0.0413851030171 , 0.0414031110704 , 0.110862262547 , 251658305 , 0
1606899876131315587 , 1465 , 0 , 160 , 126 , 0 , 62 , 180 , 2134 , 101911160 , 33556480 , 18205 , 15990 , 3 , 56 , 40.0066167678 , 116.328144456 , 50.3603915153 , -9.69999980927 , 0.104818279688 , 0.0173685878543 , 0.00653685445952 , -0.445122636192 , 1.51058935159 , 356.365718955 , 0.0380827262998 , 0.0380697846413 , 0.0355727635324 , 0.0221361909062 , 0.0221325587481 , 0.0143168112263 , 0.0413851030171 , 0.0414031110704 , 0.110862262547 , 251658305 , 0
1606899876177422874 , 1465 , 0 , 160 , 126 , 0 , 62 , 180 , 2134 , 101911180 , 33556480 , 18205 , 15990 , 3 , 56 , 40.0066167883 , 116.328144454 , 50.3604179434 , -9.69999980927 , 0.116784961839 , 0.0176527312924 , -0.000371995979337 , -0.449188960869 , 1.51152451294 , 356.376155255 , 0.0380827262998 , 0.0380697846413 , 0.0355727635324 , 0.0221361909062 , 0.0221325587481 , 0.0143168112263 , 0.0413851030171 , 0.0414031110704 , 0.110862262547 , 251658305 , 0
1606899876212573089 , 1465 , 0 , 160 , 126 , 0 , 62 , 180 , 2134 , 101911200 , 33556480 , 18205 , 15990 , 3 , 56 , 40.00661681 , 116.328144451 , 50.3605720876 , -9.69999980927 , 0.121606017229 , 0.0167760666811 , 0.0081184450852 , -0.447744602992 , 1.51289584696 , 356.386728172 , 0.0380827262998 , 0.0380697846413 , 0.0355727635324 , 0.0221361909062 , 0.0221325587481 , 0.0143168112263 , 0.0413851030171 , 0.0414031110704 , 0.110862262547 , 251658305 , 0
1606899876249449106 , 1465 , 0 , 160 , 126 , 0 , 62 , 180 , 2134 , 101911220 , 33556480 , 18205 , 15990 , 3 , 56 , 40.0066168331 , 116.32814445 , 50.3606217112 , -9.69999980927 , 0.130485705466 , 0.0172660855624 , 0.000650298464977 , -0.450804856206 , 1.51203237566 , 356.398102288 , 0.0380827262998 , 0.0380697846413 , 0.0355727635324 , 0.0221361909062 , 0.0221325587481 , 0.0143168112263 , 0.0413851030171 , 0.0414031110704 , 0.110862262547 , 251658305 , 0
1606899876291110147 , 1465 , 0 , 160 , 126 , 0 , 62 , 180 , 2134 , 101911240 , 33556480 , 18205 , 15990 , 3 , 56 , 40.0066168578 , 116.328144447 , 50.3607985694 , -9.69999980927 , 0.137628617304 , 0.0160208255263 , 0.00955151936688 , -0.450199181595 , 1.51256956227 , 356.410732449 , 0.0380827262998 , 0.0380697846413 , 0.0355727635324 , 0.0221361909062 , 0.0221325587481 , 0.0143168112263 , 0.0413851030171 , 0.0414031110704 , 0.110862262547 , 251658305 , 0
1606899876331712022 , 1465 , 0 , 160 , 126 , 0 , 62 , 180 , 2134 , 101911260 , 33556480 , 18205 , 15990 , 3 , 56 , 40.0066168837 , 116.328144445 , 50.360887303 , -9.69999980927 , 0.145838749432 , 0.016301520757 , 0.0029890066874 , -0.452928915726 , 1.51110041881 , 356.424451236 , 0.0380827262998 , 0.0380697846413 , 0.0355727635324 , 0.0221361909062 , 0.0221325587481 , 0.0143168112263 , 0.0413851030171 , 0.0414031110704 , 0.110862262547 , 251658305 , 0
1606899876397613953 , 1465 , 0 , 160 , 126 , 0 , 62 , 180 , 2134 , 101911280 , 33556480 , 18205 , 15990 , 3 , 56 , 40.0066169109 , 116.328144441 , 50.3610776868 , -9.69999980927 , 0.151626951065 , 0.0146647818794 , 0.00999687895636 , -0.453667648195 , 1.50985865226 , 356.439263555 , 0.0380827262998 , 0.0380697846413 , 0.0355727635324 , 0.0221361909062 , 0.0221325587481 , 0.0143168112263 , 0.0413851030171 , 0.0414031110704 , 0.110862262547 , 251658305 , 0
1606899876412851173 , 1465 , 0 , 160 , 126 , 0 , 62 , 180 , 2134 , 101911300 , 33556480 , 18205 , 15990 , 3 , 56 , 40.0066169394 , 116.32814444 , 50.3611753676 , -9.69999980927 , 0.159981526563 , 0.015052242962 , 0.00323838258497 , -0.454497938017 , 1.50852315634 , 356.455674557 , 0.0380827262998 , 0.0380697846413 , 0.0355727635324 , 0.0221361909062 , 0.0221325587481 , 0.0143168112263 , 0.0413851030171 , 0.0414031110704 , 0.110862262547 , 251658305 , 0
1606899876450482691 , 1465 , 0 , 160 , 126 , 0 , 62 , 180 , 2134 , 101911320 , 33556480 , 18205 , 15990 , 3 , 56 , 40.0066169689 , 116.328144436 , 50.361366556 , -9.69999980927 , 0.163951412749 , 0.0139348418403 , 0.00934825048918 , -0.455525935178 , 1.50662244745 , 356.473417612 , 0.0380827262998 , 0.0380697846413 , 0.0355727635324 , 0.0221361909062 , 0.0221325587481 , 0.0143168112263 , 0.0413851030171 , 0.0414031110704 , 0.110862262547 , 251658305 , 0
1606899876489297936 , 1465 , 0 , 160 , 126 , 0 , 62 , 180 , 2134 , 101911340 , 33556480 , 18205 , 15990 , 3 , 56 , 40.0066169996 , 116.328144434 , 50.3614679668 , -9.69999980927 , 0.172432479959 , 0.0132703076136 , 0.00330300447289 , -0.459303716608 , 1.50490517769 , 356.493067982 , 0.0380827262998 , 0.0380697846413 , 0.0355727635324 , 0.0221361909062 , 0.0221325587481 , 0.0143168112263 , 0.0413851030171 , 0.0414031110704 , 0.110862262547 , 251658305 , 0
1606899876530627669 , 1465 , 0 , 160 , 126 , 0 , 62 , 180 , 2134 , 101911360 , 33556480 , 18205 , 15990 , 3 , 56 , 40.0066170316 , 116.32814443 , 50.361654791 , -9.69999980927 , 0.178122347275 , 0.013078291228 , 0.0088017195348 , -0.458548420498 , 1.50388391407 , 356.513768115 , 0.0380827262998 , 0.0380697846413 , 0.0355727635324 , 0.0221361909062 , 0.0221325587481 , 0.0143168112263 , 0.0413851030171 , 0.0414031110704 , 0.110862262547 , 251658305 , 0
1606899876600862795 , 1465 , 0 , 160 , 126 , 0 , 62 , 180 , 2134 , 101911380 , 33556480 , 18205 , 15990 , 3 , 56 , 40.0066170646 , 116.328144428 , 50.3617515769 , -9.69999980927 , 0.184522851201 , 0.0114297951084 , 0.00296400087237 , -0.462436005092 , 1.50251748493 , 356.536551688 , 0.0380827262998 , 0.0380697846413 , 0.0355727635324 , 0.0221361909062 , 0.0221325587481 , 0.0143168112263 , 0.0413851030171 , 0.0414031110704 , 0.110862262547 , 251658305 , 0
1606899876611727950 , 1465 , 0 , 160 , 126 , 0 , 62 , 180 , 2134 , 101911400 , 33556480 , 18205 , 15990 , 3 , 56 , 40.0066170987 , 116.328144424 , 50.3619100563 , -9.69999980927 , 0.189322515897 , 0.0123076965762 , 0.00754112596702 , -0.463038068196 , 1.50233157142 , 356.559667074 , 0.0380827262998 , 0.0380697846413 , 0.0355727635324 , 0.0221361909062 , 0.0221325587481 , 0.0143168112263 , 0.0413851030171 , 0.0414031110704 , 0.110862262547 , 251658305 , 0
1606899876656464200 , 1465 , 0 , 160 , 126 , 0 , 62 , 180 , 2134 , 101911420 , 33556480 , 18205 , 15990 , 3 , 56 , 40.006617134 , 116.328144422 , 50.3619899927 , -9.69999980927 , 0.197394503586 , 0.0117664636125 , 0.0022862212716 , -0.465423159202 , 1.50146794587 , 356.585585018 , 0.0380827262998 , 0.0380697846413 , 0.0355727635324 , 0.0221361909062 , 0.0221325587481 , 0.0143168112263 , 0.0413851030171 , 0.0414031110704 , 0.110862262547 , 251658305 , 0
1606899876691477102 , 1465 , 0 , 160 , 126 , 0 , 62 , 180 , 2134 , 101911440 , 33556480 , 18205 , 15990 , 3 , 56 , 40.0066171706 , 116.328144418 , 50.3621357074 , -9.69999980927 , 0.203978521224 , 0.0124550008704 , 0.00757889603309 , -0.466179747469 , 1.50211816392 , 356.612211501 , 0.0380827262998 , 0.0380697846413 , 0.0355727635324 , 0.0221361909062 , 0.0221325587481 , 0.0143168112263 , 0.0413851030171 , 0.0414031110704 , 0.110862262547 , 251658305 , 0
1606899876729186991 , 1465 , 0 , 160 , 126 , 0 , 62 , 180 , 2134 , 101911460 , 33556480 , 18205 , 15990 , 3 , 56 , 40.0066172085 , 116.328144415 , 50.3622097699 , -9.69999980927 , 0.212371044873 , 0.012001741621 , 0.0021839651699 , -0.467239262997 , 1.50211381178 , 356.640701814 , 0.0380827262998 , 0.0380697846413 , 0.0355727635324 , 0.0221361909062 , 0.0221325587481 , 0.0143168112263 , 0.0413851030171 , 0.0414031110704 , 0.110862262547 , 251658305 , 0
1606899876770782779 , 1465 , 0 , 160 , 126 , 0 , 62 , 180 , 2134 , 101911480 , 33556480 , 18205 , 15990 , 3 , 56 , 40.0066172476 , 116.328144412 , 50.362355154 , -9.69999980927 , 0.217896269988 , 0.0119599652846 , 0.00763670339152 , -0.467872023086 , 1.50313201065 , 356.669934607 , 0.0380827262998 , 0.0380697846413 , 0.0355727635324 , 0.0221361909062 , 0.0221325587481 , 0.0143168112263 , 0.0413851030171 , 0.0414031110704 , 0.110862262547 , 251658305 , 0
1606899876813121652 , 1465 , 0 , 160 , 126 , 0 , 62 , 180 , 2134 , 101911500 , 33556480 , 18205 , 15990 , 3 , 56 , 40.006617288 , 116.328144409 , 50.3624348445 , -9.69999980927 , 0.225877747964 , 0.0110183672245 , 0.00230317436356 , -0.46951859372 , 1.50279688479 , 356.701584788 , 0.0380827262998 , 0.0380697846413 , 0.0355727635324 , 0.0221361909062 , 0.0221325587481 , 0.0143168112263 , 0.0413851030171 , 0.0414031110704 , 0.110862262547 , 251658305 , 0
1606899876849341246 , 1465 , 0 , 160 , 126 , 0 , 62 , 180 , 2134 , 101911520 , 33556480 , 18205 , 15990 , 3 , 56 , 40.0066173298 , 116.328144406 , 50.3625790728 , -9.69999980927 , 0.233111758139 , 0.0136676019573 , 0.0081441885415 , -0.468722131862 , 1.50280668696 , 356.733404593 , 0.0380827262998 , 0.0380697846413 , 0.0355727635324 , 0.0221361909062 , 0.0221325587481 , 0.0143168112263 , 0.0413851030171 , 0.0414031110704 , 0.110862262547 , 251658305 , 0
1606899876894218090 , 1465 , 0 , 160 , 126 , 0 , 62 , 180 , 2134 , 101911540 , 33556480 , 18205 , 15990 , 3 , 56 , 40.0066173729 , 116.328144404 , 50.3626678176 , -9.69999980927 , 0.242074533133 , 0.0107515222127 , 0.00277067395263 , -0.47168258646 , 1.50190884657 , 356.76750455 , 0.0380827262998 , 0.0380697846413 , 0.0355727635324 , 0.0221361909062 , 0.0221325587481 , 0.0143168112263 , 0.0413851030171 , 0.0414031110704 , 0.110862262547 , 251658305 , 0
1606899876930795810 , 1465 , 0 , 160 , 126 , 0 , 62 , 180 , 2134 , 101911560 , 33556480 , 18205 , 15990 , 3 , 56 , 40.0066174176 , 116.3281444 , 50.3628172278 , -9.69999980927 , 0.248889956191 , 0.014763141712 , 0.00873087468321 , -0.471915001805 , 1.5030003542 , 356.801629923 , 0.0380827262998 , 0.0380697846413 , 0.0355727635324 , 0.0221361909062 , 0.0221325587481 , 0.0143168112263 , 0.0413851030171 , 0.0414031110704 , 0.110862262547 , 251658305 , 0
1606899877003321807 , 1465 , 0 , 160 , 126 , 0 , 62 , 180 , 2134 , 101911580 , 33556480 , 18205 , 15990 , 3 , 56 , 40.0066174636 , 116.328144398 , 50.3629198549 , -9.69999980927 , 0.25830767583 , 0.011826589474 , 0.0036042447408 , -0.472903558696 , 1.50373747334 , 356.83886996 , 0.0380827262998 , 0.0380697846413 , 0.0355727635324 , 0.0221361909062 , 0.0221325587481 , 0.0143168112263 , 0.0413851030171 , 0.0414031110704 , 0.110862262547 , 251658305 , 0
1606899877012439600 , 1465 , 0 , 160 , 126 , 0 , 62 , 180 , 2134 , 101911600 , 33556480 , 18205 , 15990 , 3 , 56 , 40.0066175111 , 116.328144395 , 50.3630722361 , -9.69999980927 , 0.264783709923 , 0.0137641827482 , 0.00865065295673 , -0.473626835239 , 1.5030227005 , 356.87626927 , 0.0380827262998 , 0.0380697846413 , 0.0355727635324 , 0.0221361909062 , 0.0221325587481 , 0.0143168112263 , 0.0413851030171 , 0.0414031110704 , 0.110862262547 , 251658305 , 0
1606899877050826521 , 1465 , 0 , 160 , 126 , 0 , 62 , 180 , 2134 , 101911620 , 33556480 , 18205 , 15990 , 3 , 56 , 40.00661756 , 116.328144393 , 50.3631792758 , -9.69999980927 , 0.274244515337 , 0.0120057803057 , 0.00380630002104 , -0.474921085312 , 1.50167730717 , 356.917025571 , 0.0380827262998 , 0.0380697846413 , 0.0355727635324 , 0.0221361909062 , 0.0221325587481 , 0.0143168112263 , 0.0413851030171 , 0.0414031110704 , 0.110862262547 , 251658305 , 0
1606899877094029602 , 1465 , 0 , 160 , 126 , 0 , 62 , 180 , 2134 , 101911640 , 33556480 , 18205 , 15990 , 3 , 56 , 40.0066176105 , 116.32814439 , 50.3633321319 , -9.69999980927 , 0.281181181169 , 0.012610621206 , 0.00881233272611 , -0.4747357678 , 1.5006829136 , 356.958865515 , 0.0380827262998 , 0.0380697846413 , 0.0355727635324 , 0.0221361909062 , 0.0221325587481 , 0.0143168112263 , 0.0413851030171 , 0.0414031110704 , 0.110862262547 , 251658305 , 0
1606899877130744412 , 1465 , 0 , 160 , 126 , 0 , 62 , 180 , 2134 , 101911660 , 33556480 , 18205 , 15990 , 3 , 56 , 40.0066176624 , 116.328144388 , 50.3634347664 , -9.69999980927 , 0.290730307266 , 0.0096895391995 , 0.00347029997463 , -0.476185518534 , 1.49976833358 , 357.003527824 , 0.0380827262998 , 0.0380697846413 , 0.0355727635324 , 0.0221361909062 , 0.0221325587481 , 0.0143168112263 , 0.0413851030171 , 0.0414031110704 , 0.110862262547 , 251658305 , 0
1606899877198248871 , 1465 , 0 , 160 , 126 , 0 , 62 , 180 , 2134 , 101911680 , 33556480 , 18205 , 15990 , 3 , 56 , 40.006617716 , 116.328144385 , 50.3635879094 , -9.69999980927 , 0.298775069239 , 0.0121211306137 , 0.00843474168655 , -0.476628954866 , 1.49971976034 , 357.050888281 , 0.0380827262998 , 0.0380697846413 , 0.0355727635324 , 0.0221361909062 , 0.0221325587481 , 0.0143168112263 , 0.0413851030171 , 0.0414031110704 , 0.110862262547 , 251658305 , 0
1606899877212312402 , 1465 , 0 , 160 , 126 , 0 , 62 , 180 , 2134 , 101911700 , 33556480 , 18205 , 15990 , 3 , 56 , 40.0066177708 , 116.328144382 , 50.3637000183 , -9.69999980927 , 0.306821039327 , 0.00861187511589 , 0.00414928256062 , -0.477626922292 , 1.49973489692 , 357.100818015 , 0.0380827262998 , 0.0380697846413 , 0.0355727635324 , 0.0221361909062 , 0.0221325587481 , 0.0143168112263 , 0.0413851030171 , 0.0414031110704 , 0.110862262547 , 251658305 , 0
1606899877253136290 , 1465 , 0 , 160 , 126 , 0 , 62 , 180 , 2134 , 101911720 , 33556480 , 18205 , 15990 , 3 , 56 , 40.0066178273 , 116.328144379 , 50.3638588274 , -9.69999980927 , 0.315426750407 , 0.0116748865702 , 0.0092770577857 , -0.47838613459 , 1.49767166056 , 357.152253921 , 0.0380827262998 , 0.0380697846413 , 0.0355727635324 , 0.0221361909062 , 0.0221325587481 , 0.0143168112263 , 0.0413851030171 , 0.0414031110704 , 0.110862262547 , 251658305 , 0
1606899877291750081 , 1465 , 0 , 160 , 126 , 0 , 62 , 180 , 2134 , 101911740 , 33556480 , 18205 , 15990 , 3 , 56 , 40.0066178853 , 116.328144376 , 50.3639951544 , -9.69999980927 , 0.32480087208 , 0.00908643855637 , 0.00567608615879 , -0.479934411561 , 1.49704003731 , 357.206995226 , 0.0380827262998 , 0.0380697846413 , 0.0355727635324 , 0.0221361909062 , 0.0221325587481 , 0.0143168112263 , 0.0413851030171 , 0.0414031110704 , 0.110862262547 , 251658305 , 0
1606899877329883407 , 1465 , 0 , 160 , 126 , 0 , 62 , 180 , 2134 , 101911760 , 33556480 , 18205 , 15990 , 3 , 56 , 40.0066179448 , 116.328144373 , 50.3641690733 , -9.69999980927 , 0.331884691254 , 0.0107699515619 , 0.0106448276056 , -0.480501996292 , 1.49628298546 , 357.263555583 , 0.0380827262998 , 0.0380697846413 , 0.0355727635324 , 0.0221361909062 , 0.0221325587481 , 0.0143168112263 , 0.0413851030171 , 0.0414031110704 , 0.110862262547 , 251658305 , 0
1606899877402225299 , 1465 , 0 , 160 , 126 , 0 , 62 , 180 , 2134 , 101911780 , 33556480 , 18205 , 15990 , 3 , 56 , 40.0066180058 , 116.328144371 , 50.3643140271 , -9.69999980927 , 0.34203467547 , 0.0093841638902 , 0.00576219509784 , -0.483878407148 , 1.49438440042 , 357.322905833 , 0.0380827262998 , 0.0380697846413 , 0.0355727635324 , 0.0221361909062 , 0.0221325587481 , 0.0143168112263 , 0.0413851030171 , 0.0414031110704 , 0.110862262547 , 251658305 , 0
1606899877412198718 , 1465 , 0 , 160 , 126 , 0 , 62 , 180 , 2134 , 101911800 , 33556480 , 18205 , 15990 , 3 , 56 , 40.0066180685 , 116.328144367 , 50.3645025715 , -9.69999980927 , 0.348633859129 , 0.0101857877277 , 0.0110440379145 , -0.484491133392 , 1.49459800382 , 357.383542489 , 0.0380827262998 , 0.0380697846413 , 0.0355727635324 , 0.0221361909062 , 0.0221325587481 , 0.0143168112263 , 0.0413851030171 , 0.0414031110704 , 0.110862262547 , 251658305 , 0
1606899877449080671 , 1465 , 0 , 160 , 126 , 0 , 62 , 180 , 2134 , 101911820 , 33556480 , 18205 , 15990 , 3 , 56 , 40.0066181326 , 116.328144365 , 50.3646343574 , -9.69999980927 , 0.359027044401 , 0.0102341946583 , 0.00452359978082 , -0.488705405046 , 1.49224557464 , 357.446496703 , 0.0380827262998 , 0.0380697846413 , 0.0355727635324 , 0.0221361909062 , 0.0221325587481 , 0.0143168112263 , 0.0413851030171 , 0.0414031110704 , 0.110862262547 , 251658305 , 0
1606899877491040207 , 1465 , 0 , 160 , 126 , 0 , 62 , 180 , 2134 , 101911840 , 33556480 , 18205 , 15990 , 3 , 56 , 40.0066181983 , 116.328144362 , 50.3648325456 , -9.69999980927 , 0.365933347945 , 0.0124009911525 , 0.0113103854852 , -0.488434516477 , 1.49063101405 , 357.510737725 , 0.0380827262998 , 0.0380697846413 , 0.0355727635324 , 0.0221361909062 , 0.0221325587481 , 0.0143168112263 , 0.0413851030171 , 0.0414031110704 , 0.110862262547 , 251658305 , 0
1606899877529133891 , 1465 , 0 , 160 , 126 , 0 , 62 , 180 , 2134 , 101911860 , 33556480 , 18205 , 15990 , 3 , 56 , 40.0066182653 , 116.328144361 , 50.3649731558 , -9.69999980927 , 0.375295652434 , 0.0119532182834 , 0.00532556521522 , -0.490539487153 , 1.48949565142 , 357.578391583 , 0.0380827262998 , 0.0380697846413 , 0.0355727635324 , 0.0221361909062 , 0.0221325587481 , 0.0143168112263 , 0.0413851030171 , 0.0414031110704 , 0.110862262547 , 251658305 , 0
1606899877570163729 , 1465 , 0 , 160 , 126 , 0 , 62 , 180 , 2134 , 101911880 , 33556480 , 18205 , 15990 , 3 , 56 , 40.0066183341 , 116.328144358 , 50.3651860906 , -9.69999980927 , 0.383650563593 , 0.0122166559389 , 0.0120820496753 , -0.490983561658 , 1.48871058977 , 357.647518278 , 0.0380827262998 , 0.0380697846413 , 0.0355727635324 , 0.0221361909062 , 0.0221325587481 , 0.0143168112263 , 0.0413851030171 , 0.0414031110704 , 0.110862262547 , 251658305 , 0
1606899877615495693 , 1465 , 0 , 160 , 126 , 0 , 62 , 180 , 2134 , 101911900 , 33556480 , 18205 , 15990 , 3 , 56 , 40.0066184043 , 116.328144357 , 50.365337586 , -9.69999980927 , 0.392462030606 , 0.0120908835879 , 0.0058227324556 , -0.492913591942 , 1.48604255631 , 357.71962388 , 0.0380827262998 , 0.0380697846413 , 0.0355727635324 , 0.0221361909062 , 0.0221325587481 , 0.0143168112263 , 0.0413851030171 , 0.0414031110704 , 0.110862262547 , 251658305 , 0
1606899877648837969 , 1465 , 0 , 160 , 126 , 0 , 62 , 180 , 2134 , 101911920 , 33556480 , 18205 , 15990 , 3 , 56 , 40.0066184759 , 116.328144354 , 50.3655574955 , -9.69999980927 , 0.398698417042 , 0.0123630822364 , 0.0128869947597 , -0.493986092516 , 1.48333164413 , 357.79321933 , 0.0380827262998 , 0.0380697846413 , 0.0355727635324 , 0.0221361909062 , 0.0221325587481 , 0.0143168112263 , 0.0413851030171 , 0.0414031110704 , 0.110862262547 , 251658305 , 0
1606899877692301021 , 1465 , 0 , 160 , 126 , 0 , 62 , 180 , 2134 , 101911940 , 33556480 , 18205 , 15990 , 3 , 56 , 40.0066185492 , 116.328144353 , 50.3657142287 , -9.69999980927 , 0.410339051571 , 0.0129674968178 , 0.0059754451412 , -0.496303291794 , 1.48068717328 , 357.869939286 , 0.0380827262998 , 0.0380697846413 , 0.0355727635324 , 0.0221361909062 , 0.0221325587481 , 0.0143168112263 , 0.0413851030171 , 0.0414031110704 , 0.110862262547 , 251658305 , 0
1606899877730825597 , 1465 , 0 , 160 , 126 , 0 , 62 , 180 , 2134 , 101911960 , 33556480 , 18205 , 15990 , 3 , 56 , 40.0066186237 , 116.328144349 , 50.3659606501 , -9.69999980927 , 0.415370525918 , 0.0106773321951 , 0.0134830466713 , -0.496132079916 , 1.47746364398 , 357.94929815 , 0.0380827262998 , 0.0380697846413 , 0.0355727635324 , 0.0221361909062 , 0.0221325587481 , 0.0143168112263 , 0.0413851030171 , 0.0414031110704 , 0.110862262547 , 251658305 , 0
1606899877787458537 , 1465 , 0 , 160 , 126 , 0 , 62 , 180 , 2134 , 101911980 , 33556480 , 18205 , 15990 , 3 , 56 , 40.0066186998 , 116.328144348 , 50.3661011197 , -9.69999980927 , 0.42515791816 , 0.0119306433778 , 0.00431164016167 , -0.501469973596 , 1.47585262735 , 358.030755655 , 0.0380827262998 , 0.0380697846413 , 0.0355727635324 , 0.0221361909062 , 0.0221325587481 , 0.0143168112263 , 0.0413851030171 , 0.0414031110704 , 0.110862262547 , 251658305 , 0
1606899877816119052 , 1465 , 0 , 160 , 126 , 0 , 62 , 180 , 2134 , 101912000 , 33556480 , 18205 , 15990 , 3 , 56 , 40.0066187771 , 116.328144345 , 50.3663317757 , -9.69999980927 , 0.430716678381 , 0.0103369373071 , 0.0118455389563 , -0.502379776477 , 1.47352432128 , 358.11573208 , 0.0380827262998 , 0.0380697846413 , 0.0355727635324 , 0.0221361909062 , 0.0221325587481 , 0.0143168112263 , 0.0413851030171 , 0.0414031110704 , 0.110862262547 , 251658305 , 0
