time, .header.id, .header.msg_type, .header.port_addr, .header.length, .header.sequence, .header.idle_time, .header.time_status, .header.gps_week, .header.gps_week_seconds, .header.receiver_status, .header.reserved, .header.software_version, .ins_status, .position_type, .latitude, .longitude, .altitude, .undulation, .north_velocity, .east_velocity, .up_velocity, .roll, .pitch, .azimuth, .latitude_std, .longitude_std, .altitude_std, .north_velocity_std, .east_velocity_std, .up_velocity_std, .roll_std, .pitch_std, .azimuth_std, .extended_status, .seconds_since_update
1636524445180543531, 1465, 0, 160, 126, 0, 70, 180, 2183, 269353560, 33554432, 18205, 15990, 3, 56, 40.0068959026, 116.328057996, 50.316827409, -9.69999980927, 0.0274329307418, -0.0163530698152, 0.0141760058897, -0.931480333203, 1.49004866341, 86.7817542499, 0.0382369942963, 0.038081202656, 0.0361024402082, 0.0220955554396, 0.0220565255731, 0.0148193398491, 0.0333679616451, 0.0334548912942, 0.142590731382, 251920449, 0
1636524445195641273, 1465, 0, 160, 126, 0, 70, 180, 2183, 269353580, 33554432, 18205, 15990, 3, 56, 40.0068959042, 116.328057995, 50.3169234861, -9.69999980927, 0.0305392889056, -0.0167004137876, 0.00416837862386, -0.931756149654, 1.48889374434, 86.7822002742, 0.0382369942963, 0.038081202656, 0.0361024402082, 0.0220955554396, 0.0220565255731, 0.0148193398491, 0.0333679616451, 0.0334548912942, 0.142590731382, 251920449, 0
1636524445216049813, 1465, 0, 160, 126, 0, 70, 180, 2183, 269353600, 33554432, 18205, 15990, 3, 56, 40.0068959046, 116.328057995, 50.3171420749, -9.69999980927, 0.0226092449163, -0.0151569379038, 0.0157330886331, -0.932690174506, 1.49161617844, 86.7821781702, 0.0382369942963, 0.038081202656, 0.0361024402082, 0.0220955554396, 0.0220565255731, 0.0148193398491, 0.0333679616451, 0.0334548912942, 0.142590731382, 251920449, 0
1636524445235988928, 1465, 0, 160, 126, 0, 70, 180, 2183, 269353620, 33554432, 18205, 15990, 3, 56, 40.0068959053, 116.328057996, 50.3172078859, -9.69999980927, 0.0312392439589, -0.015658285841, 0.00448208033971, -0.932906997681, 1.48878446482, 86.7820552694, 0.0382369942963, 0.038081202656, 0.0361024402082, 0.0220955554396, 0.0220565255731, 0.0148193398491, 0.0333679616451, 0.0334548912942, 0.142590731382, 251920449, 0
1636524445255970376, 1465, 0, 160, 126, 0, 70, 180, 2183, 269353640, 33554432, 18205, 15990, 3, 56, 40.0068959057, 116.328057995, 50.3174333507, -9.69999980927, 0.0220113252387, -0.0139761178205, 0.016100814143, -0.933190473543, 1.49186061634, 86.782268008, 0.0382369942963, 0.038081202656, 0.0361024402082, 0.0220955554396, 0.0220565255731, 0.0148193398491, 0.0333679616451, 0.0334548912942, 0.142590731382, 251920449, 0
1636524445276514950, 1465, 0, 160, 126, 0, 70, 180, 2183, 269353660, 33554432, 18205, 15990, 3, 56, 40.0068959067, 116.328057996, 50.3174996981, -9.69999980927, 0.0322258868754, -0.0161682570631, 0.00438871414514, -0.93313026215, 1.48913967024, 86.7824970344, 0.0382369942963, 0.038081202656, 0.0361024402082, 0.0220955554396, 0.0220565255731, 0.0148193398491, 0.0333679616451, 0.0334548912942, 0.142590731382, 251920449, 0
1636524445296748612, 1465, 0, 160, 126, 0, 70, 180, 2183, 269353680, 33554432, 18205, 15990, 3, 56, 40.0068959061, 116.328057997, 50.3176954798, -9.69999980927, 0.0288383137011, -0.0155119468952, 0.0144106067745, -0.932653593096, 1.48958822326, 86.782549762, 0.0382369942963, 0.038081202656, 0.0361024402082, 0.0220955554396, 0.0220565255731, 0.0148193398491, 0.0333679616451, 0.0334548912942, 0.142590731382, 251920449, 0
1636524445314727485, 1465, 0, 160, 126, 0, 70, 180, 2183, 269353700, 33554432, 18205, 15990, 3, 56, 40.0068959081, 116.328057997, 50.3177960031, -9.69999980927, 0.0324639957427, -0.0166809839952, 0.00448382005355, -0.933746429127, 1.48883895057, 86.7827136724, 0.0382369942963, 0.038081202656, 0.0361024402082, 0.0220955554396, 0.0220565255731, 0.0148193398491, 0.0333679616451, 0.0334548912942, 0.142590731382, 251920449, 0
1636524445335513565, 1465, 0, 160, 126, 0, 70, 180, 2183, 269353720, 33554432, 18205, 15990, 3, 56, 40.0068959089, 116.328057996, 50.3180315113, -9.69999980927, 0.0227154282696, -0.0161259573114, 0.016402116629, -0.934433033025, 1.48992477958, 86.7818001333, 0.0382369942963, 0.038081202656, 0.0361024402082, 0.0220955554396, 0.0220565255731, 0.0148193398491, 0.0333679616451, 0.0334548912942, 0.142590731382, 251920449, 0
1636524445356489837, 1465, 0, 160, 126, 0, 70, 180, 2183, 269353740, 33554432, 18205, 15990, 3, 56, 40.0068959097, 116.328057996, 50.3180955052, -9.69999980927, 0.0307653872895, -0.0178534383574, 0.00426272399641, -0.934046002094, 1.48866946325, 86.7821818869, 0.0382369942963, 0.038081202656, 0.0361024402082, 0.0220955554396, 0.0220565255731, 0.0148193398491, 0.0333679616451, 0.0334548912942, 0.142590731382, 251920449, 0
1636524445376198722, 1465, 0, 160, 126, 0, 70, 180, 2183, 269353760, 33554432, 18205, 15990, 3, 56, 40.0068959104, 116.328057996, 50.3183233626, -9.69999980927, 0.0225809389638, -0.015527525534, 0.0159507454428, -0.934381311309, 1.49117351317, 86.7819212334, 0.0382369942963, 0.038081202656, 0.0361024402082, 0.0220955554396, 0.0220565255731, 0.0148193398491, 0.0333679616451, 0.0334548912942, 0.142590731382, 251920449, 0
1636524445395368145, 1465, 0, 160, 126, 0, 70, 180, 2183, 269353780, 33554432, 18205, 15990, 3, 56, 40.0068959114, 116.328057996, 50.3183884788, -9.69999980927, 0.0307711410941, -0.017407558609, 0.00398202437131, -0.934850417192, 1.48984621303, 86.7823236336, 0.0382369942963, 0.038081202656, 0.0361024402082, 0.0220955554396, 0.0220565255731, 0.0148193398491, 0.0333679616451, 0.0334548912942, 0.142590731382, 251920449, 0
1636524445415445154, 1465, 0, 160, 126, 0, 70, 180, 2183, 269353800, 33554432, 18205, 15990, 3, 56, 40.0068959124, 116.328057995, 50.3185451021, -9.69999980927, 0.0247512166224, -0.0134075060499, 0.0109786264182, -0.936823595977, 1.49525037621, 86.7824439313, 0.0382369942963, 0.038081202656, 0.0361024402082, 0.0220955554396, 0.0220565255731, 0.0148193398491, 0.0333679616451, 0.0334548912942, 0.142590731382, 251920449, 0
1636524445434744082, 1465, 0, 160, 126, 0, 70, 180, 2183, 269353820, 33554432, 18205, 15990, 3, 56, 40.0068959143, 116.328057998, 50.3184834374, -9.69999980927, 0.0366666313583, -0.00637725518882, -0.00341065592803, -0.94425562758, 1.50091952892, 86.7861969299, 0.0382369942963, 0.038081202656, 0.0361024402082, 0.0220955554396, 0.0220565255731, 0.0148193398491, 0.0333679616451, 0.0334548912942, 0.142590731382, 251920449, 0
1636524445455955818, 1465, 0, 160, 126, 0, 70, 180, 2183, 269353840, 33554432, 18205, 15990, 3, 56, 40.0068959163, 116.328057999, 50.3185199583, -9.69999980927, 0.0295348566237, -0.00242430061092, 0.00473118760875, -0.950144438442, 1.50911330593, 86.7901251293, 0.0382369942963, 0.038081202656, 0.0361024402082, 0.0220955554396, 0.0220565255731, 0.0148193398491, 0.0333679616451, 0.0334548912942, 0.142590731382, 251920449, 0
1636524445475447113, 1465, 0, 160, 126, 0, 70, 180, 2183, 269353860, 33554432, 18205, 15990, 3, 56, 40.0068959184, 116.328058004, 50.3183496734, -9.69999980927, 0.0377102118185, 0.00550427129408, -0.00817391676554, -0.958009543534, 1.51804508148, 86.7974410694, 0.0382369942963, 0.038081202656, 0.0361024402082, 0.0220955554396, 0.0220565255731, 0.0148193398491, 0.0333679616451, 0.0334548912942, 0.142590731382, 251920449, 0
1636524445495568762, 1465, 0, 160, 126, 0, 70, 180, 2183, 269353880, 33554432, 18205, 15990, 3, 56, 40.0068959209, 116.328058009, 50.3182913056, -9.69999980927, 0.0321948973131, 0.0124934525985, 0.000329498666107, -0.964257191436, 1.5295434975, 86.8050172274, 0.0382369942963, 0.038081202656, 0.0361024402082, 0.0220955554396, 0.0220565255731, 0.0148193398491, 0.0333679616451, 0.0334548912942, 0.142590731382, 251920449, 0
1636524445515021035, 1465, 0, 160, 126, 0, 70, 180, 2183, 269353900, 33554432, 18205, 15990, 3, 56, 40.0068959228, 116.328058017, 50.3180587823, -9.69999980927, 0.0351251528969, 0.0204136974949, -0.0102712802277, -0.968369341796, 1.54076285977, 86.8145946593, 0.0382369942963, 0.038081202656, 0.0361024402082, 0.0220955554396, 0.0220565255731, 0.0148193398491, 0.0333679616451, 0.0334548912942, 0.142590731382, 251920449, 0
1636524445535207380, 1465, 0, 160, 126, 0, 70, 180, 2183, 269353920, 33554432, 18205, 15990, 3, 56, 40.0068959253, 116.328058026, 50.317976987, -9.69999980927, 0.031722510395, 0.0292973138379, -0.000284192178948, -0.968589896239, 1.55165051875, 86.824416588, 0.0382369942963, 0.038081202656, 0.0361024402082, 0.0220955554396, 0.0220565255731, 0.0148193398491, 0.0333679616451, 0.0334548912942, 0.142590731382, 251920449, 0
1636524445556629186, 1465, 0, 160, 126, 0, 70, 180, 2183, 269353940, 33554432, 18205, 15990, 3, 56, 40.0068959269, 116.328058038, 50.3177418914, -9.69999980927, 0.0319706700638, 0.037360790744, -0.00920290308298, -0.970514987275, 1.56148360357, 86.8334636183, 0.0382369942963, 0.038081202656, 0.0361024402082, 0.0220955554396, 0.0220565255731, 0.0148193398491, 0.0333679616451, 0.0334548912942, 0.142590731382, 251920449, 0
1636524445576030907, 1465, 0, 160, 126, 0, 70, 180, 2183, 269353960, 33554432, 18205, 15990, 3, 56, 40.006895929, 116.32805805, 50.3177062077, -9.69999980927, 0.0295470419836, 0.0457216753821, 0.00287120243022, -0.968410948098, 1.5702453046, 86.8423119751, 0.0382369942963, 0.038081202656, 0.0361024402082, 0.0220955554396, 0.0220565255731, 0.0148193398491, 0.0333679616451, 0.0334548912942, 0.142590731382, 251920449, 0
1636524445594554308, 1465, 0, 160, 126, 0, 70, 180, 2183, 269353980, 33554432, 18205, 15990, 3, 56, 40.0068959305, 116.328058067, 50.3175257435, -9.69999980927, 0.0306849315921, 0.056359703869, -0.00537805962307, -0.972351827925, 1.57800735345, 86.8498370318, 0.0382369942963, 0.038081202656, 0.0361024402082, 0.0220955554396, 0.0220565255731, 0.0148193398491, 0.0333679616451, 0.0334548912942, 0.142590731382, 251920449, 0
1636524445619246562, 1465, 0, 160, 126, 0, 70, 180, 2183, 269354000, 33554432, 18205, 15990, 3, 56, 40.0068959327, 116.328058083, 50.3175587328, -9.69999980927, 0.0302476395707, 0.0646118677072, 0.0065386922838, -0.972831243986, 1.58591098091, 86.8559112591, 0.0382369942963, 0.038081202656, 0.0361024402082, 0.0220955554396, 0.0220565255731, 0.0148193398491, 0.0333679616451, 0.0334548912942, 0.142590731382, 251920449, 0
1636524445636802812, 1465, 0, 160, 126, 0, 70, 180, 2183, 269354020, 33554432, 18205, 15990, 3, 56, 40.0068959339, 116.328058104, 50.317456116, -9.69999980927, 0.0297970829681, 0.0747491550151, -0.00130549207609, -0.978257881846, 1.58918725772, 86.862048943, 0.0572575330734, 0.0570717267692, 0.0487081408501, 0.0277642905712, 0.0277163609862, 0.017557060346, 0.0345735959709, 0.0346549637616, 0.143007025123, 251920449, 0
1636524445655699906, 1465, 0, 160, 126, 0, 70, 180, 2183, 269354040, 33554432, 18205, 15990, 3, 56, 40.0068959343, 116.328058126, 50.3174388148, -9.69999980927, 0.0330165077891, 0.0824573212608, 0.01109742653, -0.981681078656, 1.59371047355, 86.8667650178, 0.0379753224552, 0.0378204993904, 0.0360897891223, 0.021489398554, 0.0214325692505, 0.0148268919438, 0.0320508182049, 0.0321260765195, 0.14289855957, 251658305, 0
1636524445675489075, 1465, 0, 160, 126, 0, 70, 180, 2183, 269354060, 33554432, 18205, 15990, 3, 56, 40.0068959331, 116.328058152, 50.3171729054, -9.69999980927, 0.0300325009792, 0.094266099755, 0.00435058892901, -0.989334774972, 1.59738272987, 86.8740091504, 0.0379753224552, 0.0378204993904, 0.0360897891223, 0.021489398554, 0.0214325692505, 0.0148268919438, 0.0320508182049, 0.0321260765195, 0.14289855957, 251658305, 0
1636524445696342454, 1465, 0, 160, 126, 0, 70, 180, 2183, 269354080, 33554432, 18205, 15990, 3, 56, 40.0068959339, 116.328058179, 50.3171997508, -9.69999980927, 0.0355426854634, 0.10125850992, 0.0160200941912, -0.991824430543, 1.59967893258, 86.881849446, 0.0379753224552, 0.0378204993904, 0.0360897891223, 0.021489398554, 0.0214325692505, 0.0148268919438, 0.0320508182049, 0.0321260765195, 0.14289855957, 251658305, 0
1636524445715036528, 1465, 0, 160, 126, 0, 74, 180, 2183, 269354100, 33554432, 18205, 15990, 3, 56, 40.0068959333, 116.328058209, 50.3170319628, -9.69999980927, 0.0333887678752, 0.111347068721, 0.00975157250356, -0.998359761354, 1.60041978508, 86.8913841957, 0.0379753224552, 0.0378204993904, 0.0360897891223, 0.021489398554, 0.0214325692505, 0.0148268919438, 0.0320508182049, 0.0321260765195, 0.14289855957, 251658305, 0
1636524445735684081, 1465, 0, 160, 126, 0, 74, 180, 2183, 269354120, 33554432, 18205, 15990, 3, 56, 40.0068959344, 116.32805824, 50.3171492079, -9.69999980927, 0.0364355343127, 0.119170489942, 0.0201546583039, -0.998971604572, 1.5994304165, 86.9031575817, 0.0379753224552, 0.0378204993904, 0.0360897891223, 0.021489398554, 0.0214325692505, 0.0148268919438, 0.0320508182049, 0.0321260765195, 0.14289855957, 251658305, 0
1636524445755730662, 1465, 0, 160, 126, 0, 74, 180, 2183, 269354140, 33554432, 18205, 15990, 3, 56, 40.0068959344, 116.328058274, 50.3170438968, -9.69999980927, 0.0369259939616, 0.12722427571, 0.0119927023992, -1.00375229587, 1.59931269147, 86.9170769407, 0.0379753224552, 0.0378204993904, 0.0360897891223, 0.021489398554, 0.0214325692505, 0.0148268919438, 0.0320508182049, 0.0321260765195, 0.14289855957, 251658305, 0
1636524445776716201, 1465, 0, 160, 126, 0, 74, 180, 2183, 269354160, 33554432, 18205, 15990, 3, 56, 40.0068959361, 116.328058308, 50.3171932269, -9.69999980927, 0.0386490572562, 0.135622817839, 0.0207134123985, -1.00504337833, 1.59958333506, 86.9320677914, 0.0379753224552, 0.0378204993904, 0.0360897891223, 0.021489398554, 0.0214325692505, 0.0148268919438, 0.0320508182049, 0.0321260765195, 0.14289855957, 251658305, 0
1636524445795255287, 1465, 0, 160, 126, 0, 74, 180, 2183, 269354180, 33554432, 18205, 15990, 3, 56, 40.0068959365, 116.328058346, 50.3171242904, -9.69999980927, 0.0390377353068, 0.144337009421, 0.0131175987277, -1.01076988005, 1.59860840697, 86.9491137091, 0.0379753224552, 0.0378204993904, 0.0360897891223, 0.021489398554, 0.0214325692505, 0.0148268919438, 0.0320508182049, 0.0321260765195, 0.14289855957, 251658305, 0
1636524445819229541, 1465, 0, 160, 126, 0, 74, 180, 2183, 269354200, 33554432, 18205, 15990, 3, 56, 40.0068959387, 116.328058384, 50.3172801426, -9.69999980927, 0.0408105628665, 0.149940060776, 0.0203344334273, -1.01428368403, 1.59691797042, 86.9670300416, 0.0379753224552, 0.0378204993904, 0.0360897891223, 0.021489398554, 0.0214325692505, 0.0148268919438, 0.0320508182049, 0.0321260765195, 0.14289855957, 251658305, 0
1636524445835607626, 1465, 0, 160, 126, 0, 74, 180, 2183, 269354220, 33554432, 18205, 15990, 3, 56, 40.006895939, 116.328058425, 50.3172094813, -9.69999980927, 0.0371997662539, 0.15807632194, 0.013128902047, -1.01910276139, 1.5979242015, 86.9858556338, 0.0379753224552, 0.0378204993904, 0.0360897891223, 0.021489398554, 0.0214325692505, 0.0148268919438, 0.0320508182049, 0.0321260765195, 0.14289855957, 251658305, 0
1636524445855793737, 1465, 0, 160, 126, 0, 74, 180, 2183, 269354240, 33554432, 18205, 15990, 3, 56, 40.0068959409, 116.328058467, 50.3173482325, -9.69999980927, 0.0382672593988, 0.164678213878, 0.0190442029423, -1.02179719411, 1.59586776614, 87.0055698015, 0.0379753224552, 0.0378204993904, 0.0360897891223, 0.021489398554, 0.0214325692505, 0.0148268919438, 0.0320508182049, 0.0321260765195, 0.14289855957, 251658305, 0
1636524445876280858, 1465, 0, 160, 126, 0, 74, 180, 2183, 269354260, 33554432, 18205, 15990, 3, 56, 40.006895941, 116.328058511, 50.3172576604, -9.69999980927, 0.0345476881728, 0.172265029615, 0.0120254553631, -1.02673439265, 1.59656579968, 87.025558672, 0.0379753224552, 0.0378204993904, 0.0360897891223, 0.021489398554, 0.0214325692505, 0.0148268919438, 0.0320508182049, 0.0321260765195, 0.14289855957, 251658305, 0
1636524445895903092, 1465, 0, 160, 126, 0, 74, 180, 2183, 269354280, 33554432, 18205, 15990, 3, 56, 40.0068959423, 116.328058556, 50.3173608379, -9.69999980927, 0.0339876510559, 0.179573175998, 0.0169872473067, -1.02770830847, 1.59689345695, 87.0463448976, 0.0379753224552, 0.0378204993904, 0.0360897891223, 0.021489398554, 0.0214325692505, 0.0148268919438, 0.0320508182049, 0.0321260765195, 0.14289855957, 251658305, 0
1636524445914792122, 1465, 0, 160, 126, 0, 74, 180, 2183, 269354300, 33554432, 18205, 15990, 3, 56, 40.006895942, 116.328058604, 50.3172417665, -9.69999980927, 0.0321013242964, 0.187378844761, 0.0100913913739, -1.03185228571, 1.59832010009, 87.06635868, 0.0379753224552, 0.0378204993904, 0.0360897891223, 0.021489398554, 0.0214325692505, 0.0148268919438, 0.0320508182049, 0.0321260765195, 0.14289855957, 251658305, 0
1636524445936021037, 1465, 0, 160, 126, 0, 74, 180, 2183, 269354320, 33554432, 18205, 15990, 3, 56, 40.0068959429, 116.328058652, 50.3173044669, -9.69999980927, 0.0315038575732, 0.1946188496, 0.0146442131086, -1.03129646987, 1.59958580084, 87.0869678293, 0.0379753224552, 0.0378204993904, 0.0360897891223, 0.021489398554, 0.0214325692505, 0.0148268919438, 0.0320508182049, 0.0321260765195, 0.14289855957, 251658305, 0
1636524445955808039, 1465, 0, 160, 126, 0, 74, 180, 2183, 269354340, 33554432, 18205, 15990, 3, 56, 40.006895942, 116.328058704, 50.317164368, -9.69999980927, 0.0282701682604, 0.202625738428, 0.00914461397482, -1.03282289364, 1.6011510826, 87.1073123376, 0.0379753224552, 0.0378204993904, 0.0360897891223, 0.021489398554, 0.0214325692505, 0.0148268919438, 0.0320508182049, 0.0321260765195, 0.14289855957, 251658305, 0
1636524445976636386, 1465, 0, 160, 126, 0, 74, 180, 2183, 269354360, 33554432, 18205, 15990, 3, 56, 40.0068959427, 116.328058756, 50.3172130315, -9.69999980927, 0.0310818101066, 0.210277928357, 0.0140988959174, -1.03226666179, 1.60187596225, 87.1276394175, 0.0379753224552, 0.0378204993904, 0.0360897891223, 0.021489398554, 0.0214325692505, 0.0148268919438, 0.0320508182049, 0.0321260765195, 0.14289855957, 251658305, 0
1636524445995744519, 1465, 0, 160, 126, 0, 74, 180, 2183, 269354380, 33554432, 18205, 15990, 3, 56, 40.0068959415, 116.328058811, 50.3170772064, -9.69999980927, 0.0263556594971, 0.219244296872, 0.00924609077377, -1.03467461094, 1.60452933717, 87.1488067347, 0.0379753224552, 0.0378204993904, 0.0360897891223, 0.021489398554, 0.0214325692505, 0.0148268919438, 0.0320508182049, 0.0321260765195, 0.14289855957, 251658305, 0
1636524446015071310, 1465, 0, 160, 126, 0, 74, 180, 2183, 269354400, 33554432, 18205, 15990, 3, 56, 40.0068959421, 116.328058866, 50.3171363622, -9.69999980927, 0.0308385406162, 0.225973005073, 0.0148945826146, -1.03400690178, 1.60571554314, 87.1705881129, 0.0379753224552, 0.0378204993904, 0.0360897891223, 0.021489398554, 0.0214325692505, 0.0148268919438, 0.0320508182049, 0.0321260765195, 0.14289855957, 251658305, 0
1636524446034741921, 1465, 0, 160, 126, 0, 74, 180, 2183, 269354420, 33554432, 18205, 15990, 3, 56, 40.0068959412, 116.328058925, 50.3170210086, -9.69999980927, 0.0279603633833, 0.23336135922, 0.0102969339273, -1.03753388968, 1.60688534953, 87.1921784861, 0.0379753224552, 0.0378204993904, 0.0360897891223, 0.021489398554, 0.0214325692505, 0.0148268919438, 0.0320508182049, 0.0321260765195, 0.14289855957, 251658305, 0
1636524446060440950, 1465, 0, 160, 126, 0, 74, 180, 2183, 269354440, 33554432, 18205, 15990, 3, 56, 40.0068959403, 116.328058985, 50.3170012813, -9.69999980927, 0.032669737786, 0.241487917285, 0.0132716230106, -1.03653488013, 1.60724442982, 87.2159362626, 0.0379753224552, 0.0378204993904, 0.0360897891223, 0.021489398554, 0.0214325692505, 0.0148268919438, 0.0320508182049, 0.0321260765195, 0.14289855957, 251658305, 0
1636524446074412504, 1465, 0, 160, 126, 0, 74, 180, 2183, 269354460, 33554432, 18205, 15990, 3, 56, 40.0068959414, 116.328059046, 50.3170185862, -9.69999980927, 0.0303622317272, 0.248932980836, 0.0113450658372, -1.04027942691, 1.60938735986, 87.2397786138, 0.0379753224552, 0.0378204993904, 0.0360897891223, 0.021489398554, 0.0214325692505, 0.0148268919438, 0.0320508182049, 0.0321260765195, 0.14289855957, 251658305, 0
1636524446095631015, 1465, 0, 160, 126, 0, 74, 180, 2183, 269354480, 33554432, 18205, 15990, 3, 56, 40.0068959427, 116.328059109, 50.3171422957, -9.69999980927, 0.0339500523994, 0.256097360368, 0.0180863722737, -1.04038482014, 1.61059853065, 87.2656027449, 0.0379753224552, 0.0378204993904, 0.0360897891223, 0.021489398554, 0.0214325692505, 0.0148268919438, 0.0320508182049, 0.0321260765195, 0.14289855957, 251658305, 0
1636524446116588998, 1465, 0, 160, 126, 0, 74, 180, 2183, 269354500, 33554432, 18205, 15990, 3, 56, 40.0068959424, 116.328059174, 50.3170774076, -9.69999980927, 0.0318281291301, 0.264144710702, 0.0130258691371, -1.043556654, 1.61092104289, 87.2927252299, 0.0379753224552, 0.0378204993904, 0.0360897891223, 0.021489398554, 0.0214325692505, 0.0148268919438, 0.0320508182049, 0.0321260765195, 0.14289855957, 251658305, 0
1636524446135037283, 1465, 0, 160, 126, 0, 74, 180, 2183, 269354520, 33554432, 18205, 15990, 3, 56, 40.0068959445, 116.32805924, 50.3172168378, -9.69999980927, 0.0382119303935, 0.269641440882, 0.0183681209589, -1.04446322799, 1.61157296586, 87.3209051065, 0.0379753224552, 0.0378204993904, 0.0360897891223, 0.021489398554, 0.0214325692505, 0.0148268919438, 0.0320508182049, 0.0321260765195, 0.14289855957, 251658305, 0
1636524446154587678, 1465, 0, 160, 126, 0, 74, 180, 2183, 269354540, 33554432, 18205, 15990, 3, 56, 40.0068959444, 116.328059309, 50.3171690656, -9.69999980927, 0.0321279638972, 0.280241105275, 0.0142222085142, -1.04854641685, 1.61126828887, 87.3503272561, 0.0379753224552, 0.0378204993904, 0.0360897891223, 0.021489398554, 0.0214325692505, 0.0148268919438, 0.0320508182049, 0.0321260765195, 0.14289855957, 251658305, 0
1636524446176081842, 1465, 0, 160, 126, 0, 74, 180, 2183, 269354560, 33554432, 18205, 15990, 3, 56, 40.0068959471, 116.328059379, 50.3173124185, -9.69999980927, 0.0415421024703, 0.285139219538, 0.0180887987685, -1.05041430428, 1.6114091008, 87.3801129806, 0.0379753224552, 0.0378204993904, 0.0360897891223, 0.021489398554, 0.0214325692505, 0.0148268919438, 0.0320508182049, 0.0321260765195, 0.14289855957, 251658305, 0
1636524446197467281, 1465, 0, 160, 126, 0, 74, 180, 2183, 269354580, 33554432, 18205, 15990, 3, 56, 40.0068959472, 116.328059451, 50.3172629215, -9.69999980927, 0.0327947958885, 0.295127042812, 0.0138521486061, -1.05557037131, 1.61418191062, 87.4116762232, 0.0379753224552, 0.0378204993904, 0.0360897891223, 0.021489398554, 0.0214325692505, 0.0148268919438, 0.0320508182049, 0.0321260765195, 0.14289855957, 251658305, 0
1636524446215544471, 1465, 0, 160, 126, 0, 74, 180, 2183, 269354600, 33554432, 18205, 15990, 3, 56, 40.00689595, 116.328059524, 50.3173920428, -9.69999980927, 0.0409002158094, 0.301495007779, 0.0167205123943, -1.05668753749, 1.61335026947, 87.4439138449, 0.0379753224552, 0.0378204993904, 0.0360897891223, 0.021489398554, 0.0214325692505, 0.0148268919438, 0.0320508182049, 0.0321260765195, 0.14289855957, 251658305, 0
1636524446236072337, 1465, 0, 160, 126, 0, 74, 180, 2183, 269354620, 33554432, 18205, 15990, 3, 56, 40.0068959501, 116.328059601, 50.3173404569, -9.69999980927, 0.032630619816, 0.310518608414, 0.0139956358791, -1.06326971505, 1.61657969468, 87.4748101343, 0.0379753224552, 0.0378204993904, 0.0360897891223, 0.021489398554, 0.0214325692505, 0.0148268919438, 0.0320508182049, 0.0321260765195, 0.14289855957, 251658305, 0
1636524446255500617, 1465, 0, 160, 126, 0, 74, 180, 2183, 269354640, 33554432, 18205, 15990, 3, 56, 40.0068959525, 116.328059677, 50.3174685547, -9.69999980927, 0.0375122477016, 0.317779141342, 0.0167417298073, -1.06455434329, 1.61728774838, 87.5075197168, 0.0379753224552, 0.0378204993904, 0.0360897891223, 0.021489398554, 0.0214325692505, 0.0148268919438, 0.0320508182049, 0.0321260765195, 0.14289855957, 251658305, 0
1636524446277836184, 1465, 0, 160, 126, 0, 74, 180, 2183, 269354660, 33554432, 18205, 15990, 3, 56, 40.0068959522, 116.328059757, 50.3174269944, -9.69999980927, 0.031074052144, 0.325851520325, 0.0146431853897, -1.0682815466, 1.62044147599, 87.5384848566, 0.0379753224552, 0.0378204993904, 0.0360897891223, 0.021489398554, 0.0214325692505, 0.0148268919438, 0.0320508182049, 0.0321260765195, 0.14289855957, 251658305, 0
1636524446296783416, 1465, 0, 160, 126, 0, 74, 180, 2183, 269354680, 33554432, 18205, 15990, 3, 56, 40.0068959545, 116.328059838, 50.3175488533, -9.69999980927, 0.0363153775811, 0.334722593451, 0.0159910906553, -1.07147637561, 1.62180160397, 87.570815644, 0.0379753224552, 0.0378204993904, 0.0360897891223, 0.021489398554, 0.0214325692505, 0.0148268919438, 0.0320508182049, 0.0321260765195, 0.14289855957, 251658305, 0
1636524446314648993, 1465, 0, 160, 126, 0, 74, 180, 2183, 269354700, 33554432, 18205, 15990, 3, 56, 40.0068959538, 116.328059922, 50.3175168959, -9.69999980927, 0.0289955109577, 0.342349599796, 0.0150977818146, -1.07410098685, 1.62338924334, 87.6015836545, 0.0379753224552, 0.0378204993904, 0.0360897891223, 0.021489398554, 0.0214325692505, 0.0148268919438, 0.0320508182049, 0.0321260765195, 0.14289855957, 251658305, 0
1636524446336059245, 1465, 0, 160, 126, 0, 74, 180, 2183, 269354720, 33554432, 18205, 15990, 3, 56, 40.0068959559, 116.328060006, 50.3176375171, -9.69999980927, 0.0354049479157, 0.349979689884, 0.0154858374648, -1.0776366866, 1.6237925971, 87.6333791963, 0.0379753224552, 0.0378204993904, 0.0360897891223, 0.021489398554, 0.0214325692505, 0.0148268919438, 0.0320508182049, 0.0321260765195, 0.14289855957, 251658305, 0
1636524446355825078, 1465, 0, 160, 126, 0, 74, 180, 2183, 269354740, 33554432, 18205, 15990, 3, 56, 40.0068959553, 116.328060093, 50.3176232418, -9.69999980927, 0.0288501558606, 0.359056024684, 0.0164561927274, -1.08334916202, 1.62612649372, 87.6651107961, 0.0379753224552, 0.0378204993904, 0.0360897891223, 0.021489398554, 0.0214325692505, 0.0148268919438, 0.0320508182049, 0.0321260765195, 0.14289855957, 251658305, 0
1636524446376449454, 1465, 0, 160, 126, 0, 74, 180, 2183, 269354760, 33554432, 18205, 15990, 3, 56, 40.0068959573, 116.328060181, 50.3177271904, -9.69999980927, 0.0342020356518, 0.367999775355, 0.0139425839902, -1.08598145678, 1.62540310374, 87.6987986258, 0.0379753224552, 0.0378204993904, 0.0360897891223, 0.021489398554, 0.0214325692505, 0.0148268919438, 0.0320508182049, 0.0321260765195, 0.14289855957, 251658305, 0
1636524446395375612, 1465, 0, 160, 126, 0, 74, 180, 2183, 269354780, 33554432, 18205, 15990, 3, 56, 40.006895957, 116.328060273, 50.3177209124, -9.69999980927, 0.0314960396643, 0.375525709141, 0.0167162437122, -1.0924019729, 1.62729825514, 87.7320728637, 0.0379753224552, 0.0378204993904, 0.0360897891223, 0.021489398554, 0.0214325692505, 0.0148268919438, 0.0320508182049, 0.0321260765195, 0.14289855957, 251658305, 0
1636524446415623535, 1465, 0, 160, 126, 0, 74, 180, 2183, 269354800, 33554432, 18205, 15990, 3, 56, 40.0068959592, 116.328060365, 50.3177959695, -9.69999980927, 0.0347142480423, 0.383804748688, 0.0119535455528, -1.0963488305, 1.62790263724, 87.767757906, 0.0379753224552, 0.0378204993904, 0.0360897891223, 0.021489398554, 0.0214325692505, 0.0148268919438, 0.0320508182049, 0.0321260765195, 0.14289855957, 251658305, 0
1636524446435039703, 1465, 0, 160, 126, 0, 74, 180, 2183, 269354820, 33554432, 18205, 15990, 3, 56, 40.0068959594, 116.32806046, 50.3178097568, -9.69999980927, 0.0343760189798, 0.390850690184, 0.0168770713618, -1.10172697586, 1.6300533371, 87.8036151658, 0.0379753224552, 0.0378204993904, 0.0360897891223, 0.021489398554, 0.0214325692505, 0.0148268919438, 0.0320508182049, 0.0321260765195, 0.14289855957, 251658305, 0
1636524446456160785, 1465, 0, 160, 126, 0, 74, 180, 2183, 269354840, 33554432, 18205, 15990, 3, 56, 40.0068959618, 116.328060555, 50.3178634839, -9.69999980927, 0.035364699911, 0.398407389629, 0.0106955027014, -1.10632218603, 1.63104340495, 87.8406207535, 0.0379753224552, 0.0378204993904, 0.0360897891223, 0.021489398554, 0.0214325692505, 0.0148268919438, 0.0320508182049, 0.0321260765195, 0.14289855957, 251658305, 0
1636524446476777205, 1465, 0, 160, 126, 0, 74, 180, 2183, 269354860, 33554432, 18205, 15990, 3, 56, 40.0068959619, 116.328060653, 50.3179187784, -9.69999980927, 0.0333929794882, 0.405971713024, 0.0186351269814, -1.10877347022, 1.63319558509, 87.8785929294, 0.0379753224552, 0.0378204993904, 0.0360897891223, 0.021489398554, 0.0214325692505, 0.0148268919438, 0.0320508182049, 0.0321260765195, 0.14289855957, 251658305, 0
1636524446495613056, 1465, 0, 160, 126, 0, 74, 180, 2183, 269354880, 33554432, 18205, 15990, 3, 56, 40.0068959641, 116.328060752, 50.3179869559, -9.69999980927, 0.0336596821458, 0.41360104257, 0.0113429484568, -1.11367594088, 1.63409509573, 87.9175999584, 0.0379753224552, 0.0378204993904, 0.0360897891223, 0.021489398554, 0.0214325692505, 0.0148268919438, 0.0320508182049, 0.0321260765195, 0.14289855957, 251658305, 0
1636524446515011595, 1465, 0, 160, 126, 0, 74, 180, 2183, 269354900, 33554432, 18205, 15990, 3, 56, 40.0068959642, 116.328060854, 50.3180666175, -9.69999980927, 0.0322643493474, 0.420372095898, 0.0190760546353, -1.11644795247, 1.6374071349, 87.9577942184, 0.0379753224552, 0.0378204993904, 0.0360897891223, 0.021489398554, 0.0214325692505, 0.0148268919438, 0.0320508182049, 0.0321260765195, 0.14289855957, 251658305, 0
1636524446536291440, 1465, 0, 160, 126, 0, 74, 180, 2183, 269354920, 33554432, 18205, 15990, 3, 56, 40.0068959643, 116.328060958, 50.318043408, -9.69999980927, 0.0295369951147, 0.428725771454, 0.0117141080143, -1.12109034899, 1.63977267829, 87.998368619, 0.0379753224552, 0.0378204993904, 0.0360897891223, 0.021489398554, 0.0214325692505, 0.0148268919438, 0.0320508182049, 0.0321260765195, 0.14289855957, 251658305, 0
1636524446554672602, 1465, 0, 160, 126, 0, 74, 180, 2183, 269354940, 33554432, 18205, 15990, 3, 56, 40.0068959659, 116.328061062, 50.3181947051, -9.69999980927, 0.0296917819497, 0.43603081026, 0.0183597243978, -1.1239267117, 1.64232061786, 88.0408528872, 0.0379753224552, 0.0378204993904, 0.0360897891223, 0.021489398554, 0.0214325692505, 0.0148268919438, 0.0320508182049, 0.0321260765195, 0.14289855957, 251658305, 0
1636524446577004215, 1465, 0, 160, 126, 0, 74, 180, 2183, 269354960, 33554432, 18205, 15990, 3, 56, 40.0068959672, 116.328061168, 50.3182398351, -9.69999980927, 0.026495502026, 0.445827830773, 0.00972384067619, -1.12663833206, 1.64390792121, 88.0831656398, 0.0379753224552, 0.0378204993904, 0.0360897891223, 0.021489398554, 0.0214325692505, 0.0148268919438, 0.0320508182049, 0.0321260765195, 0.14289855957, 251658305, 0
1636524446595113035, 1465, 0, 160, 126, 0, 74, 180, 2183, 269354980, 33554432, 18205, 15990, 3, 56, 40.0068959666, 116.328061277, 50.3183277473, -9.69999980927, 0.0269295099341, 0.453044444186, 0.017795547933, -1.12742900292, 1.64577374013, 88.1273241246, 0.0379753224552, 0.0378204993904, 0.0360897891223, 0.021489398554, 0.0214325692505, 0.0148268919438, 0.0320508182049, 0.0321260765195, 0.14289855957, 251658305, 0
1636524446618787464, 1465, 0, 160, 126, 0, 74, 180, 2183, 269355000, 33554432, 18205, 15990, 3, 56, 40.0068959672, 116.328061387, 50.318350669, -9.69999980927, 0.0215381454458, 0.46213962124, 0.00826328604481, -1.1279756466, 1.64641141925, 88.1713220427, 0.0379753224552, 0.0378204993904, 0.0360897891223, 0.021489398554, 0.0214325692505, 0.0148268919438, 0.0320508182049, 0.0321260765195, 0.14289855957, 251658305, 0
1636524446636919914, 1465, 0, 160, 126, 0, 74, 180, 2183, 269355020, 33554432, 18205, 15990, 3, 56, 40.0068959662, 116.3280615, 50.3184136888, -9.69999980927, 0.0249285099437, 0.470719031188, 0.0154782102044, -1.12593815244, 1.64853850821, 88.2165806217, 0.0564734786749, 0.0562723204494, 0.0487228184938, 0.0279179196805, 0.0278074610978, 0.0175744686276, 0.0526400767267, 0.0526875592768, 0.149368658662, 251658305, 0
1636524446656220317, 1465, 0, 160, 126, 0, 74, 180, 2183, 269355040, 33554432, 18205, 15990, 3, 56, 40.0068959648, 116.328061615, 50.3183585554, -9.69999980927, 0.0181310427425, 0.479914310677, 0.00598872701458, -1.12687207397, 1.64861645224, 88.2602389284, 0.0377404019237, 0.037574775517, 0.0360942296684, 0.0221617035568, 0.0220791790634, 0.0148467440158, 0.0512198507786, 0.0512748099864, 0.115178406239, 251658321, 0
1636524446675442254, 1465, 0, 160, 126, 0, 74, 180, 2183, 269355060, 33554432, 18205, 15990, 3, 56, 40.0068959625, 116.328061732, 50.3183999648, -9.69999980927, 0.0237970423417, 0.489583981921, 0.0119713473835, -1.12472990388, 1.65093224371, 88.3026681842, 0.0377404019237, 0.037574775517, 0.0360942296684, 0.0221617035568, 0.0220791790634, 0.0148467440158, 0.0512198507786, 0.0512748099864, 0.115178406239, 251658321, 0
1636524446696392021, 1465, 0, 160, 126, 0, 74, 180, 2183, 269355080, 33554432, 18205, 15990, 3, 56, 40.0068959613, 116.32806185, 50.3183504604, -9.69999980927, 0.0176365795777, 0.499880658655, 0.00530258598585, -1.12602577619, 1.65439218345, 88.3455409351, 0.0377404019237, 0.037574775517, 0.0360942296684, 0.0221617035568, 0.0220791790634, 0.0148467440158, 0.0512198507786, 0.0512748099864, 0.115178406239, 251658321, 0
1636524446715117128, 1465, 0, 160, 126, 0, 77, 180, 2183, 269355100, 33554432, 18205, 15990, 3, 56, 40.0068959591, 116.328061971, 50.3183870455, -9.69999980927, 0.0232602422617, 0.509150653183, 0.0110654478676, -1.12581610706, 1.65509481687, 88.3888041694, 0.0377404019237, 0.037574775517, 0.0360942296684, 0.0221617035568, 0.0220791790634, 0.0148467440158, 0.0512198507786, 0.0512748099864, 0.115178406239, 251658321, 0
1636524446735530864, 1465, 0, 160, 126, 0, 77, 180, 2183, 269355120, 33554432, 18205, 15990, 3, 56, 40.0068959577, 116.328062095, 50.318348784, -9.69999980927, 0.0167219562425, 0.519682783397, 0.00643102161637, -1.1256327059, 1.65721964878, 88.4330181669, 0.0377404019237, 0.037574775517, 0.0360942296684, 0.0221617035568, 0.0220791790634, 0.0148467440158, 0.0512198507786, 0.0512748099864, 0.115178406239, 251658321, 0
1636524446756485437, 1465, 0, 160, 126, 0, 77, 180, 2183, 269355140, 33554432, 18205, 15990, 3, 56, 40.0068959558, 116.328062221, 50.318358927, -9.69999980927, 0.0233543923966, 0.528985528812, 0.00919702136031, -1.12666256766, 1.65763382159, 88.4774959829, 0.0377404019237, 0.037574775517, 0.0360942296684, 0.0221617035568, 0.0220791790634, 0.0148467440158, 0.0512198507786, 0.0512748099864, 0.115178406239, 251658321, 0
1636524446776676402, 1465, 0, 160, 126, 0, 77, 180, 2183, 269355160, 33554432, 18205, 15990, 3, 56, 40.0068959545, 116.328062349, 50.3183341194, -9.69999980927, 0.0170392912576, 0.541388885791, 0.00746178515107, -1.12681108269, 1.65984711318, 88.5226453529, 0.0377404019237, 0.037574775517, 0.0360942296684, 0.0221617035568, 0.0220791790634, 0.0148467440158, 0.0512198507786, 0.0512748099864, 0.115178406239, 251658321, 0
1636524446795334264, 1465, 0, 160, 126, 0, 77, 180, 2183, 269355180, 33554432, 18205, 15990, 3, 56, 40.0068959528, 116.32806248, 50.3183156736, -9.69999980927, 0.0238675347344, 0.551229833386, 0.00728953669881, -1.12662573274, 1.65913479286, 88.5689564417, 0.0377404019237, 0.037574775517, 0.0360942296684, 0.0221617035568, 0.0220791790634, 0.0148467440158, 0.0512198507786, 0.0512748099864, 0.115178406239, 251658321, 0
1636524446816734398, 1465, 0, 160, 126, 0, 77, 180, 2183, 269355200, 33554432, 18205, 15990, 3, 56, 40.0068959519, 116.328062612, 50.3182938276, -9.69999980927, 0.0192499795469, 0.561038437696, 0.00778841730855, -1.12767382864, 1.66232493307, 88.6161221439, 0.0377404019237, 0.037574775517, 0.0360942296684, 0.0221617035568, 0.0220791790634, 0.0148467440158, 0.0512198507786, 0.0512748099864, 0.115178406239, 251658321, 0
1636524446835035228, 1465, 0, 160, 126, 0, 77, 180, 2183, 269355220, 33554432, 18205, 15990, 3, 56, 40.0068959502, 116.328062749, 50.3182359142, -9.69999980927, 0.0231853992199, 0.573905862714, 0.00518278334621, -1.12854920375, 1.6608281832, 88.6634532039, 0.0377404019237, 0.037574775517, 0.0360942296684, 0.0221617035568, 0.0220791790634, 0.0148467440158, 0.0512198507786, 0.0512748099864, 0.115178406239, 251658321, 0
1636524446855862665, 1465, 0, 160, 126, 0, 77, 180, 2183, 269355240, 33554432, 18205, 15990, 3, 56, 40.0068959498, 116.328062887, 50.3182393108, -9.69999980927, 0.0228637839944, 0.584128357428, 0.00982917112764, -1.13228172294, 1.66229518523, 88.7109188208, 0.0377404019237, 0.037574775517, 0.0360942296684, 0.0221617035568, 0.0220791790634, 0.0148467440158, 0.0512198507786, 0.0512748099864, 0.115178406239, 251658321, 0
1636524446876294060, 1465, 0, 160, 126, 0, 77, 180, 2183, 269355260, 33554432, 18205, 15990, 3, 56, 40.0068959481, 116.328063028, 50.3181551574, -9.69999980927, 0.0227861529692, 0.595983787494, 0.00427460687057, -1.13668918773, 1.66019106079, 88.7598449783, 0.0377404019237, 0.037574775517, 0.0360942296684, 0.0221617035568, 0.0220791790634, 0.0148467440158, 0.0512198507786, 0.0512748099864, 0.115178406239, 251658321, 0
1636524446895507645, 1465, 0, 160, 126, 0, 77, 180, 2183, 269355280, 33554432, 18205, 15990, 3, 56, 40.006895948, 116.328063171, 50.318175246, -9.69999980927, 0.024573505292, 0.606485023612, 0.0107230626509, -1.14045811525, 1.65948095785, 88.8092385212, 0.0377404019237, 0.037574775517, 0.0360942296684, 0.0221617035568, 0.0220791790634, 0.0148467440158, 0.0512198507786, 0.0512748099864, 0.115178406239, 251658321, 0
1636524446914762400, 1465, 0, 160, 126, 0, 77, 180, 2183, 269355300, 33554432, 18205, 15990, 3, 56, 40.0068959461, 116.328063318, 50.318047232, -9.69999980927, 0.0201725710276, 0.618698628215, 0.00260610451999, -1.14490837966, 1.65709814219, 88.8590279605, 0.0377404019237, 0.037574775517, 0.0360942296684, 0.0221617035568, 0.0220791790634, 0.0148467440158, 0.0512198507786, 0.0512748099864, 0.115178406239, 251658321, 0
1636524446936433353, 1465, 0, 160, 126, 0, 77, 180, 2183, 269355320, 33554432, 18205, 15990, 3, 56, 40.0068959441, 116.328063467, 50.3179764105, -9.69999980927, 0.0235535417253, 0.629043311368, 0.00833341413184, -1.14799613487, 1.65507666535, 88.9091767187, 0.0377404019237, 0.037574775517, 0.0360942296684, 0.0221617035568, 0.0220791790634, 0.0148467440158, 0.0512198507786, 0.0512748099864, 0.115178406239, 251658321, 0
1636524446954686199, 1465, 0, 160, 126, 0, 77, 180, 2183, 269355340, 33554432, 18205, 15990, 3, 56, 40.0068959432, 116.328063618, 50.3178689526, -9.69999980927, 0.0160485293126, 0.639752577689, 0.000307872453691, -1.15237892034, 1.65318244346, 88.9606325226, 0.0377404019237, 0.037574775517, 0.0360942296684, 0.0221617035568, 0.0220791790634, 0.0148467440158, 0.0512198507786, 0.0512748099864, 0.115178406239, 251658321, 0
1636524446976117710, 1465, 0, 160, 126, 0, 77, 180, 2183, 269355360, 33554432, 18205, 15990, 3, 56, 40.0068959423, 116.328063772, 50.3178598946, -9.69999980927, 0.0190755996751, 0.651311369401, 0.0092224546051, -1.15343941923, 1.65232793813, 89.0122214234, 0.0377404019237, 0.037574775517, 0.0360942296684, 0.0221617035568, 0.0220791790634, 0.0148467440158, 0.0512198507786, 0.0512748099864, 0.115178406239, 251658321, 0
1636524446996769199, 1465, 0, 160, 126, 0, 77, 180, 2183, 269355380, 33554432, 18205, 15990, 3, 56, 40.0068959392, 116.328063929, 50.3176574083, -9.69999980927, 0.0130829808067, 0.663137341556, -9.90127879617e-05, -1.15666061506, 1.6503789969, 89.0633310118, 0.0377404019237, 0.037574775517, 0.0360942296684, 0.0221617035568, 0.0220791790634, 0.0148467440158, 0.0512198507786, 0.0512748099864, 0.115178406239, 251658321, 0
1636524447015426579, 1465, 0, 160, 126, 0, 77, 180, 2183, 269355400, 33554432, 18205, 15990, 3, 56, 40.0068959376, 116.328064087, 50.3176647471, -9.69999980927, 0.0143444296452, 0.671095853454, 0.0101139449405, -1.15686793687, 1.64820178683, 89.1157860614, 0.0377404019237, 0.037574775517, 0.0360942296684, 0.0221617035568, 0.0220791790634, 0.0148467440158, 0.0512198507786, 0.0512748099864, 0.115178406239, 251658321, 0
1636524447034691447, 1465, 0, 160, 126, 0, 77, 180, 2183, 269355420, 33554432, 18205, 15990, 3, 56, 40.0068959334, 116.328064249, 50.3174495492, -9.69999980927, 0.00634487194449, 0.683266313324, 0.000361997462345, -1.15662293153, 1.64696885392, 89.1668764242, 0.0377404019237, 0.037574775517, 0.0360942296684, 0.0221617035568, 0.0220791790634, 0.0148467440158, 0.0512198507786, 0.0512748099864, 0.115178406239, 251658321, 0
1636524447055873525, 1465, 0, 160, 126, 0, 77, 180, 2183, 269355440, 33554432, 18205, 15990, 3, 56, 40.0068959309, 116.328064412, 50.3174373833, -9.69999980927, 0.00874985226032, 0.691502174717, 0.00836813952892, -1.15556635019, 1.64575449424, 89.2193092367, 0.0377404019237, 0.037574775517, 0.0360942296684, 0.0221617035568, 0.0220791790634, 0.0148467440158, 0.0512198507786, 0.0512748099864, 0.115178406239, 251658321, 0
1636524447075075183, 1465, 0, 160, 126, 0, 77, 180, 2183, 269355460, 33554432, 18205, 15990, 3, 56, 40.0068959257, 116.32806458, 50.3172620768, -9.69999980927, 0.00201696971735, 0.705529923518, 0.00432463660677, -1.15530149791, 1.6446657979, 89.2703398171, 0.0377404019237, 0.037574775517, 0.0360942296684, 0.0221617035568, 0.0220791790634, 0.0148467440158, 0.0512198507786, 0.0512748099864, 0.115178406239, 251658321, 0
1636524447095556329, 1465, 0, 160, 126, 0, 77, 180, 2183, 269355480, 33554432, 18205, 15990, 3, 56, 40.0068959228, 116.328064748, 50.3173148884, -9.69999980927, 0.00685025936192, 0.713786663278, 0.0120442851181, -1.15359977494, 1.64258189766, 89.3243897213, 0.0377404019237, 0.037574775517, 0.0360942296684, 0.0221617035568, 0.0220791790634, 0.0148467440158, 0.0512198507786, 0.0512748099864, 0.115178406239, 251658321, 0
1636524447116563757, 1465, 0, 160, 126, 0, 77, 180, 2183, 269355500, 33554432, 18205, 15990, 3, 56, 40.0068959172, 116.328064919, 50.3172054924, -9.69999980927, 0.00022886562876, 0.724443872503, 0.00859678239268, -1.15554691203, 1.64149264734, 89.3764298984, 0.0377404019237, 0.037574775517, 0.0360942296684, 0.0221617035568, 0.0220791790634, 0.0148467440158, 0.0512198507786, 0.0512748099864, 0.115178406239, 251658321, 0
1636524447135304368, 1465, 0, 160, 126, 0, 77, 180, 2183, 269355520, 33554432, 18205, 15990, 3, 56, 40.0068959139, 116.328065092, 50.3173524402, -9.69999980927, 0.00471098515724, 0.734724129756, 0.0168390961829, -1.15372573381, 1.63745120023, 89.4313255691, 0.0377404019237, 0.037574775517, 0.0360942296684, 0.0221617035568, 0.0220791790634, 0.0148467440158, 0.0512198507786, 0.0512748099864, 0.115178406239, 251658321, 0
1636524447155014795, 1465, 0, 160, 126, 0, 77, 180, 2183, 269355540, 33554432, 18205, 15990, 3, 56, 40.006895908, 116.328065268, 50.3173160702, -9.69999980927, -0.00150453272319, 0.740488948459, 0.0129538299239, -1.15365474464, 1.63343320281, 89.4854529052, 0.0377404019237, 0.037574775517, 0.0360942296684, 0.0221617035568, 0.0220791790634, 0.0148467440158, 0.0512198507786, 0.0512748099864, 0.115178406239, 251658321, 0
1636524447177242766, 1465, 0, 160, 126, 0, 77, 180, 2183, 269355560, 33554432, 18205, 15990, 3, 56, 40.0068959043, 116.328065445, 50.3175246967, -9.69999980927, 0.00211394959338, 0.751703052487, 0.01938469696, -1.14984008598, 1.63010477693, 89.5433814035, 0.0377404019237, 0.037574775517, 0.0360942296684, 0.0221617035568, 0.0220791790634, 0.0148467440158, 0.0512198507786, 0.0512748099864, 0.115178406239, 251658321, 0
1636524447194404167, 1465, 0, 160, 126, 0, 77, 180, 2183, 269355580, 33554432, 18205, 15990, 3, 56, 40.0068958978, 116.328065625, 50.3176078582, -9.69999980927, -0.00440788269598, 0.759367118074, 0.0191979913632, -1.14378763156, 1.62559268147, 89.6015767874, 0.0377404019237, 0.037574775517, 0.0360942296684, 0.0221617035568, 0.0220791790634, 0.0148467440158, 0.0512198507786, 0.0512748099864, 0.115178406239, 251658321, 0
1636524447215430984, 1465, 0, 160, 126, 0, 77, 180, 2183, 269355600, 33554432, 18205, 15990, 3, 56, 40.0068958937, 116.328065806, 50.3178520696, -9.69999980927, -0.000290111074186, 0.768405887267, 0.0196280228196, -1.13715235632, 1.62031542955, 89.6629517421, 0.0377404019237, 0.037574775517, 0.0360942296684, 0.0221617035568, 0.0220791790634, 0.0148467440158, 0.0512198507786, 0.0512748099864, 0.115178406239, 251658321, 0
1636524447236443134, 1465, 0, 160, 126, 0, 77, 180, 2183, 269355620, 33554432, 18205, 15990, 3, 56, 40.0068958867, 116.32806599, 50.3180073341, -9.69999980927, -0.00652670333803, 0.774962870518, 0.0220722876318, -1.13045882803, 1.61568909051, 89.7225437855, 0.0377404019237, 0.037574775517, 0.0360942296684, 0.0221617035568, 0.0220791790634, 0.0148467440158, 0.0512198507786, 0.0512748099864, 0.115178406239, 251658321, 0
1636524447255191555, 1465, 0, 160, 126, 0, 77, 180, 2183, 269355640, 33554432, 18205, 15990, 3, 56, 40.0068958826, 116.328066174, 50.3182662707, -9.69999980927, -0.000177272388168, 0.780443901872, 0.0197440403256, -1.12607753195, 1.61189425656, 89.7847835316, 0.0377404019237, 0.037574775517, 0.0360942296684, 0.0221617035568, 0.0220791790634, 0.0148467440158, 0.0512198507786, 0.0512748099864, 0.115178406239, 251658321, 0
1636524447276029716, 1465, 0, 160, 126, 0, 77, 180, 2183, 269355660, 33554432, 18205, 15990, 3, 56, 40.0068958758, 116.328066361, 50.3184893616, -9.69999980927, -0.0048352746183, 0.791457448425, 0.0255416545974, -1.12349324937, 1.60990643593, 89.8439650576, 0.0377404019237, 0.037574775517, 0.0360942296684, 0.0221617035568, 0.0220791790634, 0.0148467440158, 0.0512198507786, 0.0512748099864, 0.115178406239, 251658321, 0
1636524447296588099, 1465, 0, 160, 126, 0, 77, 180, 2183, 269355680, 33554432, 18205, 15990, 3, 56, 40.0068958713, 116.328066549, 50.3187517244, -9.69999980927, -0.00352912169636, 0.797342516801, 0.0188709230808, -1.12222088268, 1.60335385853, 89.9061634289, 0.0377404019237, 0.037574775517, 0.0360942296684, 0.0221617035568, 0.0220791790634, 0.0148467440158, 0.0512198507786, 0.0512748099864, 0.115178406239, 251658321, 0
1636524447314770860, 1465, 0, 160, 126, 0, 77, 180, 2183, 269355700, 33554432, 18205, 15990, 3, 56, 40.0068958642, 116.32806674, 50.318968582, -9.69999980927, -0.00675749729072, 0.804268229381, 0.0242416432319, -1.11858129864, 1.60250476694, 89.9640290543, 0.0377404019237, 0.037574775517, 0.0360942296684, 0.0221617035568, 0.0220791790634, 0.0148467440158, 0.0512198507786, 0.0512748099864, 0.115178406239, 251658321, 0
1636524447335615093, 1465, 0, 160, 126, 0, 77, 180, 2183, 269355720, 33554432, 18205, 15990, 3, 56, 40.0068958588, 116.328066931, 50.3191807587, -9.69999980927, -0.0104864604815, 0.810295811539, 0.0154900264573, -1.11573873885, 1.59781174954, 90.0249439134, 0.0377404019237, 0.037574775517, 0.0360942296684, 0.0221617035568, 0.0220791790634, 0.0148467440158, 0.0512198507786, 0.0512748099864, 0.115178406239, 251658321, 0
1636524447356656254, 1465, 0, 160, 126, 0, 77, 180, 2183, 269355740, 33554432, 18205, 15990, 3, 56, 40.0068958513, 116.328067124, 50.3193642069, -9.69999980927, -0.00883946937486, 0.814219656264, 0.0210541238539, -1.10990874146, 1.60039244636, 90.081627841, 0.0377404019237, 0.037574775517, 0.0360942296684, 0.0221617035568, 0.0220791790634, 0.0148467440158, 0.0512198507786, 0.0512748099864, 0.115178406239, 251658321, 0
1636524447376803711, 1465, 0, 160, 126, 0, 77, 180, 2183, 269355760, 33554432, 18205, 15990, 3, 56, 40.0068958452, 116.328067318, 50.3194962852, -9.69999980927, -0.0146962597183, 0.825143619529, 0.0110777258785, -1.10710518878, 1.60125847135, 90.1402592257, 0.0377404019237, 0.037574775517, 0.0360942296684, 0.0221617035568, 0.0220791790634, 0.0148467440158, 0.0512198507786, 0.0512748099864, 0.115178406239, 251658321, 0
1636524447395059075, 1465, 0, 160, 126, 0, 77, 180, 2183, 269355780, 33554432, 18205, 15990, 3, 56, 40.0068958377, 116.328067514, 50.3196256366, -9.69999980927, -0.00806763300744, 0.826456178025, 0.01747580442, -1.10397893213, 1.60499228848, 90.195759176, 0.0377404019237, 0.037574775517, 0.0360942296684, 0.0221617035568, 0.0220791790634, 0.0148467440158, 0.0512198507786, 0.0512748099864, 0.115178406239, 251658321, 0
1636524447415887303, 1465, 0, 160, 126, 0, 77, 180, 2183, 269355800, 33554432, 18205, 15990, 3, 56, 40.0068958317, 116.32806771, 50.3196621118, -9.69999980927, -0.0146243595321, 0.835265734871, 0.00607812412366, -1.10519811895, 1.6085958961, 90.2530644842, 0.0377404019237, 0.037574775517, 0.0360942296684, 0.0221617035568, 0.0220791790634, 0.0148467440158, 0.0512198507786, 0.0512748099864, 0.115178406239, 251658321, 0
1636524447434740536, 1465, 0, 160, 126, 0, 77, 180, 2183, 269355820, 33554432, 18205, 15990, 3, 56, 40.006895824, 116.328067909, 50.319781593, -9.69999980927, -0.00930741723505, 0.83986381764, 0.0164941533926, -1.10364332438, 1.61326597162, 90.3079841251, 0.0377404019237, 0.037574775517, 0.0360942296684, 0.0221617035568, 0.0220791790634, 0.0148467440158, 0.0512198507786, 0.0512748099864, 0.115178406239, 251658321, 0
1636524447455120265, 1465, 0, 160, 126, 0, 77, 180, 2183, 269355840, 33554432, 18205, 15990, 3, 56, 40.0068958179, 116.328068109, 50.3197882064, -9.69999980927, -0.0150568857889, 0.849310621343, 0.00504435097166, -1.10646687218, 1.61660934459, 90.365060446, 0.0377404019237, 0.037574775517, 0.0360942296684, 0.0221617035568, 0.0220791790634, 0.0148467440158, 0.0512198507786, 0.0512748099864, 0.115178406239, 251658321, 0
1636524447476399179, 1465, 0, 160, 126, 0, 77, 180, 2183, 269355860, 33554432, 18205, 15990, 3, 56, 40.0068958103, 116.328068312, 50.3198908633, -9.69999980927, -0.0102218605645, 0.855749112004, 0.0143455288139, -1.1067075188, 1.62060466536, 90.4204413077, 0.0377404019237, 0.037574775517, 0.0360942296684, 0.0221617035568, 0.0220791790634, 0.0148467440158, 0.0512198507786, 0.0512748099864, 0.115178406239, 251658321, 0
1636524447495511193, 1465, 0, 160, 126, 0, 77, 180, 2183, 269355880, 33554432, 18205, 15990, 3, 56, 40.0068958042, 116.328068515, 50.3198587587, -9.69999980927, -0.0145756382106, 0.863538260005, 0.00295484510166, -1.11142734976, 1.62609743385, 90.4780503766, 0.0377404019237, 0.037574775517, 0.0360942296684, 0.0221617035568, 0.0220791790634, 0.0148467440158, 0.0512198507786, 0.0512748099864, 0.115178406239, 251658321, 0
1636524447515924442, 1465, 0, 160, 126, 0, 77, 180, 2183, 269355900, 33554432, 18205, 15990, 3, 56, 40.0068957972, 116.328068721, 50.3199077128, -9.69999980927, -0.00786676616153, 0.871034632052, 0.0102123879105, -1.1145586884, 1.63002937639, 90.5345079591, 0.0377404019237, 0.037574775517, 0.0360942296684, 0.0221617035568, 0.0220791790634, 0.0148467440158, 0.0512198507786, 0.0512748099864, 0.115178406239, 251658321, 0
1636524447535752267, 1465, 0, 160, 126, 0, 77, 180, 2183, 269355920, 33554432, 18205, 15990, 3, 56, 40.0068957906, 116.328068928, 50.3198490413, -9.69999980927, -0.019885772951, 0.879279384439, 0.00218186201445, -1.11947562759, 1.633894666, 90.5926728387, 0.0377404019237, 0.037574775517, 0.0360942296684, 0.0221617035568, 0.0220791790634, 0.0148467440158, 0.0512198507786, 0.0512748099864, 0.115178406239, 251658321, 0
1636524447554574146, 1465, 0, 160, 126, 0, 77, 180, 2183, 269355940, 33554432, 18205, 15990, 3, 56, 40.0068957833, 116.328069137, 50.3198679434, -9.69999980927, -0.0109719170524, 0.885876595846, 0.00871869852697, -1.11974755114, 1.63843068906, 90.6503519185, 0.0377404019237, 0.037574775517, 0.0360942296684, 0.0221617035568, 0.0220791790634, 0.0148467440158, 0.0512198507786, 0.0512748099864, 0.115178406239, 251658321, 0
1636524447576215405, 1465, 0, 160, 126, 0, 77, 180, 2183, 269355960, 33554432, 18205, 15990, 3, 56, 40.006895776, 116.328069347, 50.319801149, -9.69999980927, -0.0245115151477, 0.894843205018, 0.00226541849286, -1.12234016919, 1.64227449647, 90.70854396, 0.0377404019237, 0.037574775517, 0.0360942296684, 0.0221617035568, 0.0220791790634, 0.0148467440158, 0.0512198507786, 0.0512748099864, 0.115178406239, 251658321, 0
1636524447596373919, 1465, 0, 160, 126, 0, 77, 180, 2183, 269355980, 33554432, 18205, 15990, 3, 56, 40.006895768, 116.32806956, 50.3198174899, -9.69999980927, -0.0153153978871, 0.902169126477, 0.00776727511751, -1.1218869478, 1.64582713135, 90.7660171495, 0.0377404019237, 0.037574775517, 0.0360942296684, 0.0221617035568, 0.0220791790634, 0.0148467440158, 0.0512198507786, 0.0512748099864, 0.115178406239, 251658321, 0
1636524447619464627, 1465, 0, 160, 126, 0, 77, 180, 2183, 269356000, 33554432, 18205, 15990, 3, 56, 40.0068957605, 116.328069775, 50.3197687138, -9.69999980927, -0.0237877717145, 0.910907706151, 0.0038725938557, -1.12464714918, 1.65102219086, 90.8243722681, 0.0377404019237, 0.037574775517, 0.0360942296684, 0.0221617035568, 0.0220791790634, 0.0148467440158, 0.0512198507786, 0.0512748099864, 0.115178406239, 251658321, 0
1636524447636842276, 1465, 0, 160, 126, 0, 77, 180, 2183, 269356020, 33554432, 18205, 15990, 3, 56, 40.0068957524, 116.328069991, 50.3198308293, -9.69999980927, -0.0170180610688, 0.919074306086, 0.00958001606567, -1.12514514094, 1.65118617745, 90.8820584481, 0.0562455877662, 0.0560029856861, 0.0487393289804, 0.0307351537049, 0.0306077990681, 0.0176174975932, 0.0671320483088, 0.0671752765775, 0.123546510935, 251658321, 0
1636524447656644711, 1465, 0, 160, 126, 0, 77, 180, 2183, 269356040, 33554432, 18205, 15990, 3, 56, 40.0068957424, 116.328070211, 50.3197946753, -9.69999980927, -0.0229559908307, 0.926811790727, 0.0086885784656, -1.12763916075, 1.65373077194, 90.9425592157, 0.0376744121313, 0.0374976582825, 0.0361763648689, 0.0252046678215, 0.0250605735928, 0.0149029074237, 0.0654000937939, 0.0654758960009, 0.123447060585, 251666497, 0
1636524447675517521, 1465, 0, 160, 126, 0, 77, 180, 2183, 269356060, 33554432, 18205, 15990, 3, 56, 40.0068957317, 116.328070434, 50.319786597, -9.69999980927, -0.0163321098638, 0.936986131082, 0.00927975856482, -1.12884648123, 1.65337426733, 91.0071319728, 0.0376744121313, 0.0374976582825, 0.0361763648689, 0.0252046678215, 0.0250605735928, 0.0149029074237, 0.0654000937939, 0.0654758960009, 0.123447060585, 251666497, 0
1636524447695696801, 1465, 0, 160, 126, 0, 71, 180, 2183, 269356080, 33554432, 18205, 15990, 3, 56, 40.0068957219, 116.328070658, 50.319749631, -9.69999980927, -0.0231651572774, 0.94439952404, 0.00771894021432, -1.13094904881, 1.65513758567, 91.0715847548, 0.0376744121313, 0.0374976582825, 0.0361763648689, 0.0252046678215, 0.0250605735928, 0.0149029074237, 0.0654000937939, 0.0654758960009, 0.123447060585, 251666497, 0
1636524447714246168, 1465, 0, 160, 126, 0, 71, 180, 2183, 269356100, 33554432, 18205, 15990, 3, 56, 40.0068957112, 116.328070884, 50.3196941344, -9.69999980927, -0.0174882533883, 0.952506659009, 0.00622245966418, -1.12997780225, 1.65536961772, 91.1401960382, 0.0376744121313, 0.0374976582825, 0.0361763648689, 0.0252046678215, 0.0250605735928, 0.0149029074237, 0.0654000937939, 0.0654758960009, 0.123447060585, 251666497, 0
1636524447736020678, 1465, 0, 160, 126, 0, 71, 180, 2183, 269356120, 33554432, 18205, 15990, 3, 56, 40.006895701, 116.328071112, 50.3196787992, -9.69999980927, -0.026762912491, 0.961393623962, 0.00972017606903, -1.12887868902, 1.65726742457, 91.2076720532, 0.0376744121313, 0.0374976582825, 0.0361763648689, 0.0252046678215, 0.0250605735928, 0.0149029074237, 0.0654000937939, 0.0654758960009, 0.123447060585, 251666497, 0
1636524447755874578, 1465, 0, 160, 126, 0, 71, 180, 2183, 269356140, 33554432, 18205, 15990, 3, 56, 40.0068956898, 116.328071343, 50.319592895, -9.69999980927, -0.0216359511282, 0.969510424057, 0.00475761769482, -1.12887087275, 1.6567633712, 91.2777425537, 0.0376744121313, 0.0374976582825, 0.0361763648689, 0.0252046678215, 0.0250605735928, 0.0149029074237, 0.0654000937939, 0.0654758960009, 0.123447060585, 251666497, 0
1636524447776057156, 1465, 0, 160, 126, 0, 71, 180, 2183, 269356160, 33554432, 18205, 15990, 3, 56, 40.0068956791, 116.328071574, 50.3195839692, -9.69999980927, -0.029575927391, 0.976944853749, 0.0101684923222, -1.12975099566, 1.65794150302, 91.3445024856, 0.0376744121313, 0.0374976582825, 0.0361763648689, 0.0252046678215, 0.0250605735928, 0.0149029074237, 0.0654000937939, 0.0654758960009, 0.123447060585, 251666497, 0
1636524447795114305, 1465, 0, 160, 126, 0, 71, 180, 2183, 269356180, 33554432, 18205, 15990, 3, 56, 40.0068956669, 116.328071808, 50.3194468869, -9.69999980927, -0.0294966986967, 0.98387654328, 0.00221021492933, -1.13275912318, 1.65721327171, 91.4120864372, 0.0376744121313, 0.0374976582825, 0.0361763648689, 0.0252046678215, 0.0250605735928, 0.0149029074237, 0.0654000937939, 0.0654758960009, 0.123447060585, 251666497, 0
1636524447815416756, 1465, 0, 160, 126, 0, 71, 180, 2183, 269356200, 33554432, 18205, 15990, 3, 56, 40.0068956552, 116.328072043, 50.3194013303, -9.69999980927, -0.0357079217475, 0.991069533094, 0.007925326647, -1.13516680327, 1.65894472745, 91.4759914937, 0.0376744121313, 0.0374976582825, 0.0361763648689, 0.0252046678215, 0.0250605735928, 0.0149029074237, 0.0654000937939, 0.0654758960009, 0.123447060585, 251666497, 0
1636524447835588447, 1465, 0, 160, 126, 0, 71, 180, 2183, 269356220, 33554432, 18205, 15990, 3, 56, 40.006895641, 116.32807228, 50.319213205, -9.69999980927, -0.0434788346775, 0.999968325201, 0.000113906820449, -1.13531425126, 1.6572097579, 91.5406981648, 0.0376744121313, 0.0374976582825, 0.0361763648689, 0.0252046678215, 0.0250605735928, 0.0149029074237, 0.0654000937939, 0.0654758960009, 0.123447060585, 251666497, 0
1636524447855673092, 1465, 0, 160, 126, 0, 71, 180, 2183, 269356240, 33554432, 18205, 15990, 3, 56, 40.006895627, 116.328072519, 50.3191682976, -9.69999980927, -0.0499265843872, 1.00810400209, 0.00857556685048, -1.12961015378, 1.65865896328, 91.6016150084, 0.0376744121313, 0.0374976582825, 0.0361763648689, 0.0252046678215, 0.0250605735928, 0.0149029074237, 0.0654000937939, 0.0654758960009, 0.123447060585, 251666497, 0
1636524447875488935, 1465, 0, 160, 126, 0, 71, 180, 2183, 269356260, 33554432, 18205, 15990, 3, 56, 40.0068956107, 116.32807276, 50.3189929202, -9.69999980927, -0.0567443131815, 1.0183649473, 0.00180633899155, -1.12354819941, 1.6568917677, 91.6647788483, 0.0376744121313, 0.0374976582825, 0.0361763648689, 0.0252046678215, 0.0250605735928, 0.0149029074237, 0.0654000937939, 0.0654758960009, 0.123447060585, 251666497, 0
1636524447896352936, 1465, 0, 160, 126, 0, 71, 180, 2183, 269356280, 33554432, 18205, 15990, 3, 56, 40.0068955943, 116.328073003, 50.3189843288, -9.69999980927, -0.0629882834173, 1.02530891017, 0.0106899353828, -1.11060690561, 1.65750763073, 91.7236856019, 0.0376744121313, 0.0374976582825, 0.0361763648689, 0.0252046678215, 0.0250605735928, 0.0149029074237, 0.0654000937939, 0.0654758960009, 0.123447060585, 251666497, 0
1636524447915328565, 1465, 0, 160, 126, 0, 71, 180, 2183, 269356300, 33554432, 18205, 15990, 3, 56, 40.0068955754, 116.328073249, 50.3187903352, -9.69999980927, -0.0705356696633, 1.03530462029, 0.00121046539045, -1.09797289508, 1.65489718188, 91.7830264108, 0.0376744121313, 0.0374976582825, 0.0361763648689, 0.0252046678215, 0.0250605735928, 0.0149029074237, 0.0654000937939, 0.0654758960009, 0.123447060585, 251666497, 0
1636524447935533087, 1465, 0, 160, 126, 0, 71, 180, 2183, 269356320, 33554432, 18205, 15990, 3, 56, 40.0068955578, 116.328073495, 50.3188521871, -9.69999980927, -0.0688782164204, 1.04329041167, 0.0150847565513, -1.08286752646, 1.65275250341, 91.8395692025, 0.0376744121313, 0.0374976582825, 0.0361763648689, 0.0252046678215, 0.0250605735928, 0.0149029074237, 0.0654000937939, 0.0654758960009, 0.123447060585, 251666497, 0
1636524447954663278, 1465, 0, 160, 126, 0, 71, 180, 2183, 269356340, 33554432, 18205, 15990, 3, 56, 40.0068955371, 116.328073745, 50.318737044, -9.69999980927, -0.0796012520191, 1.05165827673, 0.00743014195792, -1.06939557507, 1.64755773526, 91.8972898963, 0.0376744121313, 0.0374976582825, 0.0361763648689, 0.0252046678215, 0.0250605735928, 0.0149029074237, 0.0654000937939, 0.0654758960009, 0.123447060585, 251666497, 0
1636524447976834531, 1465, 0, 160, 126, 0, 71, 180, 2183, 269356360, 33554432, 18205, 15990, 3, 56, 40.0068955185, 116.328073995, 50.3189175501, -9.69999980927, -0.0730851661341, 1.06042722112, 0.021307945154, -1.05292487638, 1.64349682444, 91.9526901104, 0.0376744121313, 0.0374976582825, 0.0361763648689, 0.0252046678215, 0.0250605735928, 0.0149029074237, 0.0654000937939, 0.0654758960009, 0.123447060585, 251666497, 0
