time, .header.seq, .header.stamp.secs, .header.stamp.nsecs, .header.frame_id, .orientation.x, .orientation.y, .orientation.z, .orientation.w, .orientation_covariance, .angular_velocity.x, .angular_velocity.y, .angular_velocity.z, .angular_velocity_covariance, .linear_acceleration.x, .linear_acceleration.y, .linear_acceleration.z, .linear_acceleration_covariance
1637149726269311201, 20300, 1636513559, 680094957, base_link, -0.00810948854523, 0.00734448896195, -0.0266745754706, -0.999584294445, "(0.00018325629268276314, 0.0, 0.0, 0.0, 0.0001827315153806958, 0.0, 0.0, 0.0, 0.0035168039016831992)", -0.00178791573774, 0.000777438796211, 0.00018381009841, "(0.001, 0.0, 0.0, 0.0, 0.001, 0.0, 0.0, 0.0, 0.001)", 0.0637038613334, -0.0738678624052, 0.10615401693, "(0.001, 0.0, 0.0, 0.0, 0.001, 0.0, 0.0, 0.0, 0.001)"
1637149726278560481, 20301, 1636513559, 699734926, base_link, -0.00813426088598, 0.00735057771788, -0.0266749060831, -0.999584039585, "(0.00018325629268276314, 0.0, 0.0, 0.0, 0.0001827315153806958, 0.0, 0.0, 0.0, 0.0035168039016831992)", 0.00144775093157, 3.28832306381e-05, -8.48626523524e-05, "(0.001, 0.0, 0.0, 0.0, 0.001, 0.0, 0.0, 0.0, 0.001)", 0.0772502276055, -0.0633329647714, -0.0265955498735, "(0.001, 0.0, 0.0, 0.0, 0.001, 0.0, 0.0, 0.0, 0.001)"
1637149726297822619, 20302, 1636513559, 719064950, base_link, -0.00812131265358, 0.00735690746065, -0.0266806738268, -0.999583944368, "(0.00018325629268276314, 0.0, 0.0, 0.0, 0.0001827315153806958, 0.0, 0.0, 0.0, 0.0035168039016831992)", -0.000582913664811, -0.000530255009872, 0.00115109865725, "(0.001, 0.0, 0.0, 0.0, 0.001, 0.0, 0.0, 0.0, 0.001)", -0.161096785776, 0.0188730280806, -0.0870352776201, "(0.001, 0.0, 0.0, 0.0, 0.001, 0.0, 0.0, 0.0, 0.001)"
1637149726318590111, 20303, 1636513559, 740020990, base_link, -0.00813221753438, 0.00735507381127, -0.0266819760995, -0.999583834442, "(0.00018325629268276314, 0.0, 0.0, 0.0, 0.0001827315153806958, 0.0, 0.0, 0.0, 0.0035168039016831992)", 0.00140778538575, -0.000685173164629, 0.000154411061237, "(0.001, 0.0, 0.0, 0.0, 0.001, 0.0, 0.0, 0.0, 0.001)", 0.273136232204, -0.0271100921864, 0.230288622529, "(0.001, 0.0, 0.0, 0.0, 0.001, 0.0, 0.0, 0.0, 0.001)"
1637149726337629246, 20304, 1636513559, 759037017, base_link, -0.0081281972481, 0.00736246454652, -0.0266888304021, -0.999583629746, "(0.00018325629268276314, 0.0, 0.0, 0.0, 0.0001827315153806958, 0.0, 0.0, 0.0, 0.0035168039016831992)", -0.000614247038453, 0.000147132828533, 0.00123792314536, "(0.001, 0.0, 0.0, 0.0, 0.001, 0.0, 0.0, 0.0, 0.001)", -0.286188464842, -0.0502552368561, -0.252199080266, "(0.001, 0.0, 0.0, 0.0, 0.001, 0.0, 0.0, 0.0, 0.001)"
1637149726367296978, 20305, 1636513559, 780080080, base_link, -0.00813441933342, 0.00735245094034, -0.0266946225075, -0.999583498171, "(0.00018325629268276314, 0.0, 0.0, 0.0, 0.0001827315153806958, 0.0, 0.0, 0.0, 0.0035168039016831992)", 0.00176341142262, 2.47239879183e-05, 0.000658851150711, "(0.001, 0.0, 0.0, 0.0, 0.001, 0.0, 0.0, 0.0, 0.001)", 0.276634026248, 0.0255374112645, 0.33691797185, "(0.001, 0.0, 0.0, 0.0, 0.001, 0.0, 0.0, 0.0, 0.001)"
1637149726378428699, 20306, 1636513559, 799829959, base_link, -0.00814348736737, 0.00735409954115, -0.0266875401745, -0.999583601323, "(0.00018325629268276314, 0.0, 0.0, 0.0, 0.0001827315153806958, 0.0, 0.0, 0.0, 0.0035168039016831992)", 0.000686724001486, 0.000955243025963, -2.64252206689e-05, "(0.001, 0.0, 0.0, 0.0, 0.001, 0.0, 0.0, 0.0, 0.001)", -0.160457893118, -0.0587364044072, -0.257689282936, "(0.001, 0.0, 0.0, 0.0, 0.001, 0.0, 0.0, 0.0, 0.001)"
1637149726397298982, 20307, 1636513559, 818763017, base_link, -0.00812091412596, 0.00734961647267, -0.0266948598131, -0.99958362249, "(0.00018325629268276314, 0.0, 0.0, 0.0, 0.0001827315153806958, 0.0, 0.0, 0.0, 0.0035168039016831992)", -0.000547013875931, 0.000278216824681, 0.000298106131235, "(0.001, 0.0, 0.0, 0.0, 0.001, 0.0, 0.0, 0.0, 0.001)", 0.113715957339, -0.0675054415695, 0.199898317451, "(0.001, 0.0, 0.0, 0.0, 0.001, 0.0, 0.0, 0.0, 0.001)"
1637149726417384233, 20308, 1636513559, 838823080, base_link, -0.00813938108704, 0.00735328787939, -0.0266925757623, -0.999583506283, "(0.00018325629268276314, 0.0, 0.0, 0.0, 0.0001827315153806958, 0.0, 0.0, 0.0, 0.0035168039016831992)", 0.000587926839567, 0.000272733591259, 0.000146910080164, "(0.001, 0.0, 0.0, 0.0, 0.001, 0.0, 0.0, 0.0, 0.001)", 0.000178881563767, 0.021597167075, -0.129109556522, "(0.001, 0.0, 0.0, 0.0, 0.001, 0.0, 0.0, 0.0, 0.001)"
1637149726439124413, 20309, 1636513559, 860387086, base_link, -0.00811342644057, 0.00734960519819, -0.0267055176763, -0.999583398692, "(0.00018325629268276314, 0.0, 0.0, 0.0, 0.0001827315153806958, 0.0, 0.0, 0.0, 0.0035168039016831992)", -0.00147055356855, 0.000315822438789, 0.00127412752165, "(0.001, 0.0, 0.0, 0.0, 0.001, 0.0, 0.0, 0.0, 0.001)", -0.0607662402373, 0.0501864577007, 0.0410924197341, "(0.001, 0.0, 0.0, 0.0, 0.001, 0.0, 0.0, 0.0, 0.001)"
1637149726464331879, 20310, 1636513559, 878334999, base_link, -0.00812694116223, 0.00735901398734, -0.0267009111817, -0.99958334274, "(0.00018325629268276314, 0.0, 0.0, 0.0, 0.0001827315153806958, 0.0, 0.0, 0.0, 0.0035168039016831992)", 0.0010767828206, -0.000992576623196, 0.000110160390416, "(0.001, 0.0, 0.0, 0.0, 0.001, 0.0, 0.0, 0.0, 0.001)", 0.0777577725551, 0.0110464862909, 0.0688694457019, "(0.001, 0.0, 0.0, 0.0, 0.001, 0.0, 0.0, 0.0, 0.001)"
1637149726477895700, 20311, 1636513559, 899317026, base_link, -0.00812316194209, 0.00735206983784, -0.0267068668181, -0.999583265453, "(0.00018325629268276314, 0.0, 0.0, 0.0, 0.0001827315153806958, 0.0, 0.0, 0.0, 0.0035168039016831992)", -0.000706706995521, 0.000507204250941, 0.000854894028393, "(0.001, 0.0, 0.0, 0.0, 0.001, 0.0, 0.0, 0.0, 0.001)", -0.137910810483, -0.0481499134687, -0.201895053624, "(0.001, 0.0, 0.0, 0.0, 0.001, 0.0, 0.0, 0.0, 0.001)"
1637149726498150207, 20312, 1636513559, 919447898, base_link, -0.00812472541919, 0.00734859633209, -0.0267037987092, -0.999583360257, "(0.00018325629268276314, 0.0, 0.0, 0.0, 0.0001827315153806958, 0.0, 0.0, 0.0, 0.0035168039016831992)", 0.00108354463246, 0.000350826308945, -0.000323954336657, "(0.001, 0.0, 0.0, 0.0, 0.001, 0.0, 0.0, 0.0, 0.001)", 0.210248546229, 0.0780769941629, 0.183030904123, "(0.001, 0.0, 0.0, 0.0, 0.001, 0.0, 0.0, 0.0, 0.001)"
1637149726517355010, 20313, 1636513559, 938715934, base_link, -0.00812021008695, 0.00735209934184, -0.0267013141586, -0.999583437561, "(0.00018325629268276314, 0.0, 0.0, 0.0, 0.0001827315153806958, 0.0, 0.0, 0.0, 0.0035168039016831992)", -0.00105737716432, 0.000811105496242, 4.54694704037e-05, "(0.001, 0.0, 0.0, 0.0, 0.001, 0.0, 0.0, 0.0, 0.001)", -0.216918307301, 0.0395734140778, -0.281451876833, "(0.001, 0.0, 0.0, 0.0, 0.001, 0.0, 0.0, 0.0, 0.001)"
1637149726538262454, 20314, 1636513559, 959517955, base_link, -0.00810829092542, 0.00734374727724, -0.0267058004567, -0.999583475862, "(0.00018325629268276314, 0.0, 0.0, 0.0, 0.0001827315153806958, 0.0, 0.0, 0.0, 0.0035168039016831992)", -0.000647722210659, 0.00036693874421, 0.000340082923686, "(0.001, 0.0, 0.0, 0.0, 0.001, 0.0, 0.0, 0.0, 0.001)", 0.198032702282, -0.0127294385708, 0.265492922818, "(0.001, 0.0, 0.0, 0.0, 0.001, 0.0, 0.0, 0.0, 0.001)"
1637149726571549950, 20315, 1636513559, 978703975, base_link, -0.00811925740323, 0.00734209274376, -0.0266971629805, -0.999583629729, "(0.00018325629268276314, 0.0, 0.0, 0.0, 0.0001827315153806958, 0.0, 0.0, 0.0, 0.0035168039016831992)", 3.10311853841e-05, 0.00115784206774, -0.000753749305683, "(0.001, 0.0, 0.0, 0.0, 0.001, 0.0, 0.0, 0.0, 0.001)", -0.121164038393, 0.00931699075349, -0.226547043004, "(0.001, 0.0, 0.0, 0.0, 0.001, 0.0, 0.0, 0.0, 0.001)"
1637149726577059727, 20316, 1636513559, 998424053, base_link, -0.00810519743898, 0.00734220690646, -0.0267058115309, -0.99958351197, "(0.00018325629268276314, 0.0, 0.0, 0.0, 0.0001827315153806958, 0.0, 0.0, 0.0, 0.0035168039016831992)", -0.000787001237883, 0.000672615892562, 0.000544997275012, "(0.001, 0.0, 0.0, 0.0, 0.001, 0.0, 0.0, 0.0, 0.001)", -0.056987911253, 0.0313667671418, 0.112402609212, "(0.001, 0.0, 0.0, 0.0, 0.001, 0.0, 0.0, 0.0, 0.001)"
1637149726598225514, 20317, 1636513560, 19516944, base_link, -0.00811367327111, 0.00734197146097, -0.0266979749085, -0.999583654277, "(0.00018325629268276314, 0.0, 0.0, 0.0, 0.0001827315153806958, 0.0, 0.0, 0.0, 0.0035168039016831992)", 0.000407087815902, -0.000167142359034, -0.000610418517713, "(0.001, 0.0, 0.0, 0.0, 0.001, 0.0, 0.0, 0.0, 0.001)", 0.0981894136319, 0.0395077390577, 0.0357519179187, "(0.001, 0.0, 0.0, 0.0, 0.001, 0.0, 0.0, 0.0, 0.001)"
1637149726617116591, 20318, 1636513560, 38403987, base_link, -0.00810015162669, 0.00734058893048, -0.0267108671162, -0.999583429672, "(0.00018325629268276314, 0.0, 0.0, 0.0, 0.0001827315153806958, 0.0, 0.0, 0.0, 0.0035168039016831992)", -0.00192289734366, 0.00139235394674, 0.00135554919856, "(0.001, 0.0, 0.0, 0.0, 0.001, 0.0, 0.0, 0.0, 0.001)", -0.197980612763, -0.074572508731, -0.0637445942356, "(0.001, 0.0, 0.0, 0.0, 0.001, 0.0, 0.0, 0.0, 0.001)"
1637149726637950381, 20319, 1636513560, 59286117, base_link, -0.00811789119974, 0.00734362284427, -0.0267094893374, -0.999583300293, "(0.00018325629268276314, 0.0, 0.0, 0.0, 0.0001827315153806958, 0.0, 0.0, 0.0, 0.0035168039016831992)", 0.00227806230501, -0.000940720446251, 0.000298666575823, "(0.001, 0.0, 0.0, 0.0, 0.001, 0.0, 0.0, 0.0, 0.001)", 0.140984674651, 0.0530631306436, 0.224724352493, "(0.001, 0.0, 0.0, 0.0, 0.001, 0.0, 0.0, 0.0, 0.001)"
1637149726668292096, 20320, 1636513560, 79597949, base_link, -0.00810151522186, 0.00733785462146, -0.0267085512742, -0.999583500579, "(0.00018325629268276314, 0.0, 0.0, 0.0, 0.0001827315153806958, 0.0, 0.0, 0.0, 0.0035168039016831992)", -0.00204587256579, 0.00120817142355, 1.92182980117e-05, "(0.001, 0.0, 0.0, 0.0, 0.001, 0.0, 0.0, 0.0, 0.001)", -0.158799451076, -0.0426523631798, -0.257921227262, "(0.001, 0.0, 0.0, 0.0, 0.001, 0.0, 0.0, 0.0, 0.001)"
1637149726677362137, 20321, 1636513560, 98666906, base_link, -0.00809431097073, 0.00733771867783, -0.0267119469811, -0.999583469203, "(0.00018325629268276314, 0.0, 0.0, 0.0, 0.0001827315153806958, 0.0, 0.0, 0.0, 0.0035168039016831992)", 0.000136840914447, -0.000213698073799, 0.000133695942785, "(0.001, 0.0, 0.0, 0.0, 0.001, 0.0, 0.0, 0.0, 0.001)", 0.127932283644, -0.131389561116, 0.2971398437, "(0.001, 0.0, 0.0, 0.0, 0.001, 0.0, 0.0, 0.0, 0.001)"
1637149726696568943, 20322, 1636513560, 117991924, base_link, -0.00809431097073, 0.00733771867783, -0.0267119469811, -0.999583469203, "(0.00018325629268276314, 0.0, 0.0, 0.0, 0.0001827315153806958, 0.0, 0.0, 0.0, 0.0035168039016831992)", -0.00108455566314, 3.76435939424e-05, -9.57078954549e-05, "(0.001, 0.0, 0.0, 0.0, 0.001, 0.0, 0.0, 0.0, 0.001)", -0.0848607604074, -0.0306113661298, -0.305104811387, "(0.001, 0.0, 0.0, 0.0, 0.001, 0.0, 0.0, 0.0, 0.001)"
1637149726718398070, 20323, 1636513560, 139826059, base_link, -0.00808130158333, 0.0073375141023, -0.0267182488584, -0.99958340754, "(0.00018325629268276314, 0.0, 0.0, 0.0, 0.0001827315153806958, 0.0, 0.0, 0.0, 0.0035168039016831992)", -0.00050851667943, 0.000223321439763, 0.00067388087597, "(0.001, 0.0, 0.0, 0.0, 0.001, 0.0, 0.0, 0.0, 0.001)", 0.0379085129526, -0.0549218908115, 0.215639889924, "(0.001, 0.0, 0.0, 0.0, 0.001, 0.0, 0.0, 0.0, 0.001)"
1637149726736846623, 20324, 1636513560, 158288002, base_link, -0.00810857751093, 0.00735581512568, -0.0267165916678, -0.999583096438, "(0.00018325629268276314, 0.0, 0.0, 0.0, 0.0001827315153806958, 0.0, 0.0, 0.0, 0.0035168039016831992)", 0.00231853149301, -0.00243313576152, 0.000657281056019, "(0.001, 0.0, 0.0, 0.0, 0.001, 0.0, 0.0, 0.0, 0.001)", -0.0237745761117, 0.0415181907257, -0.164938250744, "(0.001, 0.0, 0.0, 0.0, 0.001, 0.0, 0.0, 0.0, 0.001)"
1637149726767136946, 20325, 1636513560, 179729938, base_link, -0.00809456020937, 0.00735287937954, -0.0267258369527, -0.999582984499, "(0.00018325629268276314, 0.0, 0.0, 0.0, 0.0001827315153806958, 0.0, 0.0, 0.0, 0.0035168039016831992)", -0.000287455846477, 0.000206891821268, 0.000914013569512, "(0.001, 0.0, 0.0, 0.0, 0.001, 0.0, 0.0, 0.0, 0.001)", -0.0381082265817, -0.0644474979005, 0.0097106617591, "(0.001, 0.0, 0.0, 0.0, 0.001, 0.0, 0.0, 0.0, 0.001)"
1637149726777902678, 20326, 1636513560, 199287891, base_link, -0.00811449537148, 0.0073661957232, -0.0267267533295, -0.999582700321, "(0.00018325629268276314, 0.0, 0.0, 0.0, 0.0001827315153806958, 0.0, 0.0, 0.0, 0.0035168039016831992)", 0.0026218212029, -0.0020118472025, 0.00068843798722, "(0.001, 0.0, 0.0, 0.0, 0.001, 0.0, 0.0, 0.0, 0.001)", 0.133641677881, 0.0431335479427, 0.0570329094351, "(0.001, 0.0, 0.0, 0.0, 0.001, 0.0, 0.0, 0.0, 0.001)"
1637149726797549353, 20327, 1636513560, 218811988, base_link, -0.00809034580441, 0.00735683531814, -0.0267307554505, -0.999582857992, "(0.00018325629268276314, 0.0, 0.0, 0.0, 0.0001827315153806958, 0.0, 0.0, 0.0, 0.0035168039016831992)", -0.00255499367425, 0.000619436170016, 0.000807677175284, "(0.001, 0.0, 0.0, 0.0, 0.001, 0.0, 0.0, 0.0, 0.001)", -0.133338928301, 0.0436225970315, -0.18862234166, "(0.001, 0.0, 0.0, 0.0, 0.001, 0.0, 0.0, 0.0, 0.001)"
1637149726817339409, 20328, 1636513560, 238745927, base_link, -0.00809831057464, 0.00735776547122, -0.026726371117, -0.999582903885, "(0.00018325629268276314, 0.0, 0.0, 0.0, 0.0001827315153806958, 0.0, 0.0, 0.0, 0.0035168039016831992)", 0.000997178016465, 9.49427441343e-05, -0.000337562581733, "(0.001, 0.0, 0.0, 0.0, 0.001, 0.0, 0.0, 0.0, 0.001)", 0.198577312679, -0.0390437857185, 0.242223192912, "(0.001, 0.0, 0.0, 0.0, 0.001, 0.0, 0.0, 0.0, 0.001)"
1637149726838603240, 20329, 1636513560, 259968042, base_link, -0.00809883398132, 0.00735322756275, -0.0267231630541, -0.999583018808, "(0.00018325629268276314, 0.0, 0.0, 0.0, 0.0001827315153806958, 0.0, 0.0, 0.0, 0.0035168039016831992)", -0.00112685367015, 0.00107560145857, -0.000219687304474, "(0.001, 0.0, 0.0, 0.0, 0.001, 0.0, 0.0, 0.0, 0.001)", -0.149263201934, 0.0428610222335, -0.214970864645, "(0.001, 0.0, 0.0, 0.0, 0.001, 0.0, 0.0, 0.0, 0.001)"
1637149726864325221, 20330, 1636513560, 278549909, base_link, -0.00808480467068, 0.00734660791589, -0.0267301662736, -0.999582993801, "(0.00018325629268276314, 0.0, 0.0, 0.0, 0.0001827315153806958, 0.0, 0.0, 0.0, 0.0035168039016831992)", -1.39197595148e-05, 0.00133075563554, 0.000524829983259, "(0.001, 0.0, 0.0, 0.0, 0.001, 0.0, 0.0, 0.0, 0.001)", 0.088267093261, 0.0315172330499, 0.196873960112, "(0.001, 0.0, 0.0, 0.0, 0.001, 0.0, 0.0, 0.0, 0.001)"
1637149726881826726, 20331, 1636513560, 302912950, base_link, -0.00808480467068, 0.00734660791589, -0.0267301662736, -0.999582993801, "(0.00018325629268276314, 0.0, 0.0, 0.0, 0.0001827315153806958, 0.0, 0.0, 0.0, 0.0035168039016831992)", 0.000773568679342, 0.000104927326997, -0.000843633852661, "(0.001, 0.0, 0.0, 0.0, 0.001, 0.0, 0.0, 0.0, 0.001)", -0.00929644288236, 0.0865806951587, -0.152934879371, "(0.001, 0.0, 0.0, 0.0, 0.001, 0.0, 0.0, 0.0, 0.001)"
1637149726899554853, 20332, 1636513560, 320982933, base_link, -0.0080855624076, 0.00734048734953, -0.0267265491551, -0.999583129358, "(0.00024456432761393865, 0.0, 0.0, 0.0, 0.00024406848193461814, 0.0, 0.0, 0.0, 0.003586299211801036)", -0.00119963031834, 0.00176300572009, 0.000119954475819, "(0.001, 0.0, 0.0, 0.0, 0.001, 0.0, 0.0, 0.0, 0.001)", -0.0256986616279, -0.0733942084795, 0.0673408837659, "(0.001, 0.0, 0.0, 0.0, 0.001, 0.0, 0.0, 0.0, 0.001)"
1637149726917169386, 20333, 1636513560, 338567972, base_link, -0.00810651576137, 0.00735348446132, -0.0267153595182, -0.999583163241, "(0.0001812398765466683, 0.0, 0.0, 0.0, 0.00018069015325274888, 0.0, 0.0, 0.0, 0.003534839422419944)", 0.00166091808877, -0.00122526647696, -0.000921150378201, "(0.001, 0.0, 0.0, 0.0, 0.001, 0.0, 0.0, 0.0, 0.001)", 0.100770501933, 0.065838611469, 0.0568280697145, "(0.001, 0.0, 0.0, 0.0, 0.001, 0.0, 0.0, 0.0, 0.001)"
1637149726937469757, 20334, 1636513560, 358808994, base_link, -0.00808006634571, 0.00733316875321, -0.0267210625328, -0.999583374202, "(0.0001812398765466683, 0.0, 0.0, 0.0, 0.00018069015325274888, 0.0, 0.0, 0.0, 0.003534839422419944)", -0.00294695006696, 0.00268670176226, 5.4784299146e-05, "(0.001, 0.0, 0.0, 0.0, 0.001, 0.0, 0.0, 0.0, 0.001)", -0.084661734738, 0.00724616397986, -0.12284307265, "(0.001, 0.0, 0.0, 0.0, 0.001, 0.0, 0.0, 0.0, 0.001)"
1637149726971441497, 20335, 1636513560, 380023956, base_link, -0.00808589467866, 0.00733959659683, -0.0267209597154, -0.999583282644, "(0.0001812398765466683, 0.0, 0.0, 0.0, 0.00018069015325274888, 0.0, 0.0, 0.0, 0.003534839422419944)", 0.000783103391434, -0.000296887800399, -7.91009928832e-05, "(0.001, 0.0, 0.0, 0.0, 0.001, 0.0, 0.0, 0.0, 0.001)", 0.149230108854, -0.0438877384215, 0.197088927856, "(0.001, 0.0, 0.0, 0.0, 0.001, 0.0, 0.0, 0.0, 0.001)"
1637149726977066551, 20336, 1636513560, 398488044, base_link, -0.00807269415308, 0.00733716694313, -0.0267184259801, -0.999583474905, "(0.0001812398765466683, 0.0, 0.0, 0.0, 0.00018069015325274888, 0.0, 0.0, 0.0, 0.003534839422419944)", -0.00239153034552, 0.000826858040124, 0.00017465023702, "(0.001, 0.0, 0.0, 0.0, 0.001, 0.0, 0.0, 0.0, 0.001)", -0.127138499068, -5.81783725501e-07, -0.25539199378, "(0.001, 0.0, 0.0, 0.0, 0.001, 0.0, 0.0, 0.0, 0.001)"
1637149726997634534, 20337, 1636513560, 419058084, base_link, -0.00806721770105, 0.00733140117017, -0.0267246964911, -0.999583393796, "(0.0001812398765466683, 0.0, 0.0, 0.0, 0.00018069015325274888, 0.0, 0.0, 0.0, 0.003534839422419944)", -5.64002525646e-05, 0.000355335446552, 0.000202191763388, "(0.001, 0.0, 0.0, 0.0, 0.001, 0.0, 0.0, 0.0, 0.001)", 0.117008025155, -0.111725460586, 0.245964006393, "(0.001, 0.0, 0.0, 0.0, 0.001, 0.0, 0.0, 0.0, 0.001)"
1637149727018107585, 20338, 1636513560, 439553976, base_link, -0.00808111344888, 0.00734635158945, -0.0267240259699, -0.999583189714, "(0.0001812398765466683, 0.0, 0.0, 0.0, 0.00018069015325274888, 0.0, 0.0, 0.0, 0.003534839422419944)", 0.000182312169881, -0.00125246491079, 0.000769974884492, "(0.001, 0.0, 0.0, 0.0, 0.001, 0.0, 0.0, 0.0, 0.001)", -0.139786890466, 0.0548763303302, -0.274789673988, "(0.001, 0.0, 0.0, 0.0, 0.001, 0.0, 0.0, 0.0, 0.001)"
1637149727037665735, 20339, 1636513560, 459000110, base_link, -0.00804740486936, 0.0073398608177, -0.0267323997931, -0.999583285434, "(0.0001812398765466683, 0.0, 0.0, 0.0, 0.00018069015325274888, 0.0, 0.0, 0.0, 0.003534839422419944)", -0.00176596304667, 0.000139984077922, 0.000459741869333, "(0.001, 0.0, 0.0, 0.0, 0.001, 0.0, 0.0, 0.0, 0.001)", 0.0618345350073, -0.0557667473139, 0.1828669726, "(0.001, 0.0, 0.0, 0.0, 0.001, 0.0, 0.0, 0.0, 0.001)"
1637149727068535616, 20340, 1636513560, 479461908, base_link, -0.00807898164775, 0.0073545333136, -0.0267311927192, -0.999582955152, "(0.0001812398765466683, 0.0, 0.0, 0.0, 0.00018069015325274888, 0.0, 0.0, 0.0, 0.003534839422419944)", 0.00149498217831, -0.00148029893131, 0.000775343763119, "(0.001, 0.0, 0.0, 0.0, 0.001, 0.0, 0.0, 0.0, 0.001)", -0.0639914519202, -0.0503170224553, -0.108883081398, "(0.001, 0.0, 0.0, 0.0, 0.001, 0.0, 0.0, 0.0, 0.001)"
1637149727077500815, 20341, 1636513560, 498876094, base_link, -0.00805315306477, 0.00734807500011, -0.0267380940039, -0.999583026491, "(0.0001812398765466683, 0.0, 0.0, 0.0, 0.00018069015325274888, 0.0, 0.0, 0.0, 0.003534839422419944)", -0.00142326489153, 0.000307791287437, 0.000631971881517, "(0.001, 0.0, 0.0, 0.0, 0.001, 0.0, 0.0, 0.0, 0.001)", -0.0459188543801, -0.0182075520876, 0.00312397088125, "(0.001, 0.0, 0.0, 0.0, 0.001, 0.0, 0.0, 0.0, 0.001)"
1637149727097098229, 20342, 1636513560, 518512010, base_link, -0.00806819798793, 0.00735799606413, -0.0267313646639, -0.99958301217, "(0.0001812398765466683, 0.0, 0.0, 0.0, 0.00018069015325274888, 0.0, 0.0, 0.0, 0.003534839422419944)", 0.00152026219602, -0.00102800482729, -0.000390405516719, "(0.001, 0.0, 0.0, 0.0, 0.001, 0.0, 0.0, 0.0, 0.001)", 0.0681424006589, -0.0503949191451, 0.111850836525, "(0.001, 0.0, 0.0, 0.0, 0.001, 0.0, 0.0, 0.0, 0.001)"
1637149727117582711, 20343, 1636513560, 538966894, base_link, -0.00805374772039, 0.00735643165012, -0.0267403070899, -0.999582901033, "(0.0001812398765466683, 0.0, 0.0, 0.0, 0.00018069015325274888, 0.0, 0.0, 0.0, 0.003534839422419944)", -0.0022107055242, -2.29880646385e-05, 0.000942630527061, "(0.001, 0.0, 0.0, 0.0, 0.001, 0.0, 0.0, 0.0, 0.001)", -0.14335572698, 0.0220992819408, -0.188094236704, "(0.001, 0.0, 0.0, 0.0, 0.001, 0.0, 0.0, 0.0, 0.001)"
1637149727138474309, 20344, 1636513560, 559873104, base_link, -0.00805624653502, 0.00735980219857, -0.0267398376965, -0.999582868642, "(0.0001812398765466683, 0.0, 0.0, 0.0, 0.00018069015325274888, 0.0, 0.0, 0.0, 0.003534839422419944)", 0.000652280498149, -0.000617239858775, 0.000287006564025, "(0.001, 0.0, 0.0, 0.0, 0.001, 0.0, 0.0, 0.0, 0.001)", 0.0946962761931, 0.0208672269906, 0.236141788492, "(0.001, 0.0, 0.0, 0.0, 0.001, 0.0, 0.0, 0.0, 0.001)"
1637149727167606865, 20345, 1636513560, 579536914, base_link, -0.00806831961849, 0.00736902670589, -0.0267421875657, -0.99958264044, "(0.0001812398765466683, 0.0, 0.0, 0.0, 0.00018069015325274888, 0.0, 0.0, 0.0, 0.003534839422419944)", 4.57928896767e-05, -0.000632876159758, 0.000661246660739, "(0.001, 0.0, 0.0, 0.0, 0.001, 0.0, 0.0, 0.0, 0.001)", -0.180670046452, 0.0484668085691, -0.290440101887, "(0.001, 0.0, 0.0, 0.0, 0.001, 0.0, 0.0, 0.0, 0.001)"
1637149727177222013, 20346, 1636513560, 598670959, base_link, -0.00805543807211, 0.00736503650819, -0.0267437488737, -0.999582731969, "(0.0001812398765466683, 0.0, 0.0, 0.0, 0.00018069015325274888, 0.0, 0.0, 0.0, 0.003534839422419944)", 0.000386912390555, -0.000313039238434, 0.00023838003802, "(0.001, 0.0, 0.0, 0.0, 0.001, 0.0, 0.0, 0.0, 0.001)", 0.135431051156, -0.00732053448054, 0.257805586166, "(0.001, 0.0, 0.0, 0.0, 0.001, 0.0, 0.0, 0.0, 0.001)"
1637149727201817082, 20347, 1636513560, 623183965, base_link, -0.00807070868242, 0.00738053902198, -0.0267383685185, -0.999582638382, "(0.0001812398765466683, 0.0, 0.0, 0.0, 0.00018069015325274888, 0.0, 0.0, 0.0, 0.003534839422419944)", 0.000503463806193, -0.00131908919033, -0.000331235872004, "(0.001, 0.0, 0.0, 0.0, 0.001, 0.0, 0.0, 0.0, 0.001)", -0.0758180875312, 0.0231949594216, -0.203845817408, "(0.001, 0.0, 0.0, 0.0, 0.001, 0.0, 0.0, 0.0, 0.001)"
1637149727217231853, 20348, 1636513560, 638658046, base_link, -0.00805338298742, 0.00737134559902, -0.0267441796484, -0.999582690497, "(0.0001812398765466683, 0.0, 0.0, 0.0, 0.00018069015325274888, 0.0, 0.0, 0.0, 0.003534839422419944)", -0.00091986186876, 0.000477017095168, 0.000562693893358, "(0.001, 0.0, 0.0, 0.0, 0.001, 0.0, 0.0, 0.0, 0.001)", 0.109029731452, 0.0330563700971, 0.107301591464, "(0.001, 0.0, 0.0, 0.0, 0.001, 0.0, 0.0, 0.0, 0.001)"
1637149727237786109, 20349, 1636513560, 659092903, base_link, -0.00807690059503, 0.00737510153409, -0.0267370749756, -0.999582663103, "(0.0001812398765466683, 0.0, 0.0, 0.0, 0.00018069015325274888, 0.0, 0.0, 0.0, 0.003534839422419944)", 0.0015658698318, -0.000426572029206, -0.000611334632946, "(0.001, 0.0, 0.0, 0.0, 0.001, 0.0, 0.0, 0.0, 0.001)", -0.0287412356709, 0.0221139335041, -0.00129076374616, "(0.001, 0.0, 0.0, 0.0, 0.001, 0.0, 0.0, 0.0, 0.001)"
1637149727264882232, 20350, 1636513560, 680135011, base_link, -0.00805916208577, 0.00736749965368, -0.0267410511522, -0.999582755973, "(0.0001812398765466683, 0.0, 0.0, 0.0, 0.00018069015325274888, 0.0, 0.0, 0.0, 0.003534839422419944)", -0.00152255218667, 0.00135849375359, 0.000385735152312, "(0.001, 0.0, 0.0, 0.0, 0.001, 0.0, 0.0, 0.0, 0.001)", -0.041661606432, 0.00582935079468, -0.129011797862, "(0.001, 0.0, 0.0, 0.0, 0.001, 0.0, 0.0, 0.0, 0.001)"
1637149727279969048, 20351, 1636513560, 701353073, base_link, -0.00807450249503, 0.00736348362817, -0.0267350494537, -0.999582822306, "(0.0001812398765466683, 0.0, 0.0, 0.0, 0.00018069015325274888, 0.0, 0.0, 0.0, 0.003534839422419944)", 0.00205528042538, 0.000664417989775, -0.000837732960228, "(0.001, 0.0, 0.0, 0.0, 0.001, 0.0, 0.0, 0.0, 0.001)", 0.108956158051, 0.0134002574422, 0.168397419876, "(0.001, 0.0, 0.0, 0.0, 0.001, 0.0, 0.0, 0.0, 0.001)"
1637149727298303639, 20352, 1636513560, 719738960, base_link, -0.00806709805732, 0.00737154725643, -0.0267376424495, -0.999582753301, "(0.0001812398765466683, 0.0, 0.0, 0.0, 0.00018069015325274888, 0.0, 0.0, 0.0, 0.003534839422419944)", -0.00139751552409, -0.00011598659646, 0.000358430967696, "(0.001, 0.0, 0.0, 0.0, 0.001, 0.0, 0.0, 0.0, 0.001)", -0.172687153274, 0.0462966184617, -0.278047376676, "(0.001, 0.0, 0.0, 0.0, 0.001, 0.0, 0.0, 0.0, 0.001)"
1637149727318701564, 20353, 1636513560, 740104913, base_link, -0.00806452697684, 0.00736241523638, -0.0267295736358, -0.999583057149, "(0.0001812398765466683, 0.0, 0.0, 0.0, 0.00018069015325274888, 0.0, 0.0, 0.0, 0.003534839422419944)", 0.000938227658962, 0.000362758624262, -0.00118448912803, "(0.001, 0.0, 0.0, 0.0, 0.001, 0.0, 0.0, 0.0, 0.001)", 0.14576946512, -0.0288584855536, 0.29831717689, "(0.001, 0.0, 0.0, 0.0, 0.001, 0.0, 0.0, 0.0, 0.001)"
1637149727337040199, 20354, 1636513560, 758455038, base_link, -0.0080801995448, 0.00737901808606, -0.0267279583741, -0.999582851348, "(0.0001812398765466683, 0.0, 0.0, 0.0, 0.00018069015325274888, 0.0, 0.0, 0.0, 0.003534839422419944)", 0.000982914775015, -0.00129685671468, -0.000548609649473, "(0.001, 0.0, 0.0, 0.0, 0.001, 0.0, 0.0, 0.0, 0.001)", -0.217312567194, 0.0463765694874, -0.246081117918, "(0.001, 0.0, 0.0, 0.0, 0.001, 0.0, 0.0, 0.0, 0.001)"
1637149727363987817, 20355, 1636513560, 779084920, base_link, -0.00805657629023, 0.0073708149815, -0.0267277803412, -0.999583107312, "(0.0001812398765466683, 0.0, 0.0, 0.0, 0.00018069015325274888, 0.0, 0.0, 0.0, 0.003534839422419944)", -0.00089268599012, 0.000196684472459, -0.000473992024526, "(0.001, 0.0, 0.0, 0.0, 0.001, 0.0, 0.0, 0.0, 0.001)", 0.113365571136, -0.0135146101892, 0.195994731017, "(0.001, 0.0, 0.0, 0.0, 0.001, 0.0, 0.0, 0.0, 0.001)"
1637149727378663708, 20356, 1636513560, 799993991, base_link, -0.00807452507696, 0.00738612462286, -0.0267141708553, -0.999583213286, "(0.0001812398765466683, 0.0, 0.0, 0.0, 0.00018069015325274888, 0.0, 0.0, 0.0, 0.003534839422419944)", 0.000694672231887, -0.00162985642412, -0.00180120406284, "(0.001, 0.0, 0.0, 0.0, 0.001, 0.0, 0.0, 0.0, 0.001)", -0.135018093, -0.0156587219365, -0.188330666546, "(0.001, 0.0, 0.0, 0.0, 0.001, 0.0, 0.0, 0.0, 0.001)"
1637149727398359384, 20357, 1636513560, 819643020, base_link, -0.00805601749223, 0.00738601467653, -0.0267188216201, -0.999583239125, "(0.0001812398765466683, 0.0, 0.0, 0.0, 0.00018069015325274888, 0.0, 0.0, 0.0, 0.003534839422419944)", -0.00142475328323, -0.00029464164386, -0.000108664319827, "(0.001, 0.0, 0.0, 0.0, 0.001, 0.0, 0.0, 0.0, 0.001)", 0.0513568884299, 0.00851189595415, -0.00522107922339, "(0.001, 0.0, 0.0, 0.0, 0.001, 0.0, 0.0, 0.0, 0.001)"
1637149727418009291, 20358, 1636513560, 839415073, base_link, -0.008093326625, 0.00739770469282, -0.0267052600885, -0.999583213701, "(0.0001812398765466683, 0.0, 0.0, 0.0, 0.00018069015325274888, 0.0, 0.0, 0.0, 0.003534839422419944)", 0.00410482451419, -0.00188221549651, -0.00181400427349, "(0.001, 0.0, 0.0, 0.0, 0.001, 0.0, 0.0, 0.0, 0.001)", -0.0265972104996, 0.0691542050935, -0.0933168543394, "(0.001, 0.0, 0.0, 0.0, 0.001, 0.0, 0.0, 0.0, 0.001)"
1637149727439011602, 20359, 1636513560, 860369920, base_link, -0.00810190104151, 0.00740896559476, -0.0267120567354, -0.999582879232, "(0.0001812398765466683, 0.0, 0.0, 0.0, 0.00018069015325274888, 0.0, 0.0, 0.0, 0.003534839422419944)", 0.00175700852349, -0.00113508198368, 0.000306129465066, "(0.001, 0.0, 0.0, 0.0, 0.001, 0.0, 0.0, 0.0, 0.001)", -0.104264895847, 0.1068113613, -0.227326245352, "(0.001, 0.0, 0.0, 0.0, 0.001, 0.0, 0.0, 0.0, 0.001)"
1637149727469153313, 20360, 1636513560, 878468990, base_link, -0.00813748399783, 0.00741982114563, -0.0267128011752, -0.999582489773, "(0.0001812398765466683, 0.0, 0.0, 0.0, 0.00018069015325274888, 0.0, 0.0, 0.0, 0.003534839422419944)", 0.00698356573306, -0.00328162202752, -3.20820565458e-05, "(0.001, 0.0, 0.0, 0.0, 0.001, 0.0, 0.0, 0.0, 0.001)", 0.146509468675, 0.18112396927, 0.0204120555229, "(0.001, 0.0, 0.0, 0.0, 0.001, 0.0, 0.0, 0.0, 0.001)"
1637149727480487989, 20361, 1636513560, 901678085, base_link, -0.00817689544856, 0.00744535678704, -0.0267207081845, -0.999581766939, "(0.0001812398765466683, 0.0, 0.0, 0.0, 0.00018069015325274888, 0.0, 0.0, 0.0, 0.003534839422419944)", 0.00448435027007, -0.00254011406995, 0.00128289395715, "(0.001, 0.0, 0.0, 0.0, 0.001, 0.0, 0.0, 0.0, 0.001)", -0.127974859313, 0.215958894133, -0.437860771994, "(0.001, 0.0, 0.0, 0.0, 0.001, 0.0, 0.0, 0.0, 0.001)"
1637149727498569876, 20362, 1636513560, 919764995, base_link, -0.00821817900678, 0.00747031168746, -0.0267379621073, -0.999580780807, "(0.0001812398765466683, 0.0, 0.0, 0.0, 0.00018069015325274888, 0.0, 0.0, 0.0, 0.003534839422419944)", 0.0107998872367, -0.00621138185366, 0.00233911423291, "(0.001, 0.0, 0.0, 0.0, 0.001, 0.0, 0.0, 0.0, 0.001)", 0.197513235059, 0.528192580328, 0.00211152502262, "(0.001, 0.0, 0.0, 0.0, 0.001, 0.0, 0.0, 0.0, 0.001)"
1637149727517852409, 20363, 1636513560, 938462018, base_link, -0.00829998494793, 0.00750600776442, -0.0267620642386, -0.999579192468, "(0.0001812398765466683, 0.0, 0.0, 0.0, 0.00018069015325274888, 0.0, 0.0, 0.0, 0.003534839422419944)", 0.00930703039019, -0.00459800595731, 0.00378537598, "(0.001, 0.0, 0.0, 0.0, 0.001, 0.0, 0.0, 0.0, 0.001)", -0.107424549802, 0.553613626594, -0.482112279164, "(0.001, 0.0, 0.0, 0.0, 0.001, 0.0, 0.0, 0.0, 0.001)"
1637149727537750630, 20364, 1636513560, 958746910, base_link, -0.00836698310921, 0.00753682257396, -0.0267779073481, -0.999577977737, "(0.0001812398765466683, 0.0, 0.0, 0.0, 0.00018069015325274888, 0.0, 0.0, 0.0, 0.003534839422419944)", 0.0170383956075, -0.00815739149275, 0.00398716537682, "(0.001, 0.0, 0.0, 0.0, 0.001, 0.0, 0.0, 0.0, 0.001)", 0.0985987495338, 1.09913256402, -0.0232711600834, "(0.001, 0.0, 0.0, 0.0, 0.001, 0.0, 0.0, 0.0, 0.001)"
1637149727600907702, 20365, 1636513560, 980185985, base_link, -0.00847087161237, 0.00756621311424, -0.0268005503775, -0.999576273854, "(0.0001812398765466683, 0.0, 0.0, 0.0, 0.00018069015325274888, 0.0, 0.0, 0.0, 0.003534839422419944)", 0.0139613702829, -0.00482231490624, 0.00368025692905, "(0.001, 0.0, 0.0, 0.0, 0.001, 0.0, 0.0, 0.0, 0.001)", -0.203152514818, 0.754899012255, -0.277506899755, "(0.001, 0.0, 0.0, 0.0, 0.001, 0.0, 0.0, 0.0, 0.001)"
1637149727600924396, 20366, 1636513560, 998404026, base_link, -0.00856208040612, 0.00759897284845, -0.0268210441731, -0.999574698549, "(0.0001812398765466683, 0.0, 0.0, 0.0, 0.00018069015325274888, 0.0, 0.0, 0.0, 0.003534839422419944)", 0.0219606104382, -0.00798176087736, 0.00470890099116, "(0.001, 0.0, 0.0, 0.0, 0.001, 0.0, 0.0, 0.0, 0.001)", 0.0269394732824, 1.44317258224, -0.0639937006937, "(0.001, 0.0, 0.0, 0.0, 0.001, 0.0, 0.0, 0.0, 0.001)"
1637149727600930087, 20367, 1636513561, 19566059, base_link, -0.008666775693, 0.00763719113128, -0.0268254398805, -0.999573387044, "(0.0001812398765466683, 0.0, 0.0, 0.0, 0.00018069015325274888, 0.0, 0.0, 0.0, 0.003534839422419944)", 0.0163638478917, -0.00573402457686, 0.0018861622778, "(0.001, 0.0, 0.0, 0.0, 0.001, 0.0, 0.0, 0.0, 0.001)", -0.378344511916, 1.01706633027, 0.035319962789, "(0.001, 0.0, 0.0, 0.0, 0.001, 0.0, 0.0, 0.0, 0.001)"
1637149727618611391, 20368, 1636513561, 39921998, base_link, -0.00874741111378, 0.0076771637817, -0.0268273900345, -0.999572326097, "(0.0001812398765466683, 0.0, 0.0, 0.0, 0.00018069015325274888, 0.0, 0.0, 0.0, 0.003534839422419944)", 0.0209718563499, -0.00998252459189, 0.000959538162649, "(0.001, 0.0, 0.0, 0.0, 0.001, 0.0, 0.0, 0.0, 0.001)", 0.0878598952092, 1.63050949804, -0.000742297711841, "(0.001, 0.0, 0.0, 0.0, 0.001, 0.0, 0.0, 0.0, 0.001)"
1637149727639742918, 20369, 1636513561, 59452056, base_link, -0.00884094207666, 0.00773799432195, -0.0268095351645, -0.999571513205, "(0.0001812398765466683, 0.0, 0.0, 0.0, 0.00018069015325274888, 0.0, 0.0, 0.0, 0.003534839422419944)", 0.0148683755902, -0.00845864823135, -0.00128839436797, "(0.001, 0.0, 0.0, 0.0, 0.001, 0.0, 0.0, 0.0, 0.001)", -0.455265901163, 1.13392930742, 0.265857808483, "(0.001, 0.0, 0.0, 0.0, 0.001, 0.0, 0.0, 0.0, 0.001)"
1637149727666059873, 20370, 1636513561, 80095052, base_link, -0.00890613840281, 0.00778844644594, -0.0267979501228, -0.999570853251, "(0.0001812398765466683, 0.0, 0.0, 0.0, 0.00018069015325274888, 0.0, 0.0, 0.0, 0.003534839422419944)", 0.0173297572437, -0.0132521020619, -0.00298560261983, "(0.001, 0.0, 0.0, 0.0, 0.001, 0.0, 0.0, 0.0, 0.001)", 0.206535745848, 1.74575269726, -0.0077895363128, "(0.001, 0.0, 0.0, 0.0, 0.001, 0.0, 0.0, 0.0, 0.001)"
1637149727677479055, 20371, 1636513561, 98840951, base_link, -0.00896411530254, 0.00785525995201, -0.0267719660233, -0.99957050845, "(0.0001812398765466683, 0.0, 0.0, 0.0, 0.00018069015325274888, 0.0, 0.0, 0.0, 0.003534839422419944)", 0.0108038232801, -0.00968008408223, -0.00303984726321, "(0.001, 0.0, 0.0, 0.0, 0.001, 0.0, 0.0, 0.0, 0.001)", -0.321082443155, 1.15215192032, 0.344014411201, "(0.001, 0.0, 0.0, 0.0, 0.001, 0.0, 0.0, 0.0, 0.001)"
1637149727697709480, 20372, 1636513561, 119081974, base_link, -0.00901204731196, 0.00791277430694, -0.0267542601289, -0.999570097878, "(0.0001812398765466683, 0.0, 0.0, 0.0, 0.00018069015325274888, 0.0, 0.0, 0.0, 0.003534839422419944)", 0.0119715447672, -0.014557235515, -0.00487967799736, "(0.001, 0.0, 0.0, 0.0, 0.001, 0.0, 0.0, 0.0, 0.001)", 0.230150089751, 1.83962981821, 0.0648389865906, "(0.001, 0.0, 0.0, 0.0, 0.001, 0.0, 0.0, 0.0, 0.001)"
1637149727718476045, 20373, 1636513561, 139889001, base_link, -0.00903832364586, 0.00798621449129, -0.0267285607636, -0.999569964096, "(0.0001812398765466683, 0.0, 0.0, 0.0, 0.00018069015325274888, 0.0, 0.0, 0.0, 0.003534839422419944)", 0.0061716717545, -0.0109454276192, -0.00359044830941, "(0.001, 0.0, 0.0, 0.0, 0.001, 0.0, 0.0, 0.0, 0.001)", -0.119762376482, 1.19928928955, 0.282507971797, "(0.001, 0.0, 0.0, 0.0, 0.001, 0.0, 0.0, 0.0, 0.001)"
1637149727737205062, 20374, 1636513561, 158373117, base_link, -0.00906387249323, 0.00802665773508, -0.0267145342708, -0.999569783777, "(0.0001812398765466683, 0.0, 0.0, 0.0, 0.00018069015325274888, 0.0, 0.0, 0.0, 0.003534839422419944)", 0.00705651955083, -0.0127455144781, -0.00428958616287, "(0.001, 0.0, 0.0, 0.0, 0.001, 0.0, 0.0, 0.0, 0.001)", 0.189699743861, 1.82360822408, 0.181772284452, "(0.001, 0.0, 0.0, 0.0, 0.001, 0.0, 0.0, 0.0, 0.001)"
1637149727762718316, 20375, 1636513561, 178867101, base_link, -0.00906066397459, 0.00809138323786, -0.0266914019077, -0.999569908986, "(0.0001812398765466683, 0.0, 0.0, 0.0, 0.00018069015325274888, 0.0, 0.0, 0.0, 0.003534839422419944)", 0.000988229117491, -0.00943705298806, -0.00342650044182, "(0.001, 0.0, 0.0, 0.0, 0.001, 0.0, 0.0, 0.0, 0.001)", 0.206323071997, 1.22448302415, 0.0619323633377, "(0.001, 0.0, 0.0, 0.0, 0.001, 0.0, 0.0, 0.0, 0.001)"
1637149727777305995, 20376, 1636513561, 198666095, base_link, -0.00906869770735, 0.00813827003692, -0.0266856782583, -0.999569608311, "(0.0001812398765466683, 0.0, 0.0, 0.0, 0.00018069015325274888, 0.0, 0.0, 0.0, 0.003534839422419944)", 0.00204154997069, -0.0125460281994, -0.00264706303211, "(0.001, 0.0, 0.0, 0.0, 0.001, 0.0, 0.0, 0.0, 0.001)", -0.0205096360717, 1.77507349243, 0.271683094634, "(0.001, 0.0, 0.0, 0.0, 0.001, 0.0, 0.0, 0.0, 0.001)"
1637149727797329337, 20377, 1636513561, 218723058, base_link, -0.00905486949141, 0.00818443697421, -0.0266730958726, -0.999569692561, "(0.0001812398765466683, 0.0, 0.0, 0.0, 0.00018069015325274888, 0.0, 0.0, 0.0, 0.003534839422419944)", -0.00230638509831, -0.00800773189759, -0.00204629586564, "(0.001, 0.0, 0.0, 0.0, 0.001, 0.0, 0.0, 0.0, 0.001)", 0.523618918592, 1.2125764372, -0.200009889499, "(0.001, 0.0, 0.0, 0.0, 0.001, 0.0, 0.0, 0.0, 0.001)"
1637149727818397088, 20378, 1636513561, 239584922, base_link, -0.00903857206185, 0.00823519087185, -0.0266692180497, -0.999569526674, "(0.0001812398765466683, 0.0, 0.0, 0.0, 0.00018069015325274888, 0.0, 0.0, 0.0, 0.003534839422419944)", -0.00254619947977, -0.0106989326757, -0.00126992435953, "(0.001, 0.0, 0.0, 0.0, 0.001, 0.0, 0.0, 0.0, 0.001)", -0.241105922272, 1.74278071591, 0.285111626625, "(0.001, 0.0, 0.0, 0.0, 0.001, 0.0, 0.0, 0.0, 0.001)"
1637149727838220745, 20379, 1636513561, 259594917, base_link, -0.00900022940333, 0.00826566429258, -0.0266714222563, -0.999569562311, "(0.0001812398765466683, 0.0, 0.0, 0.0, 0.00018069015325274888, 0.0, 0.0, 0.0, 0.003534839422419944)", -0.00521497156554, -0.00660604553123, -0.000334918704385, "(0.001, 0.0, 0.0, 0.0, 0.001, 0.0, 0.0, 0.0, 0.001)", 0.538461988975, 1.24429383057, -0.290225905484, "(0.001, 0.0, 0.0, 0.0, 0.001, 0.0, 0.0, 0.0, 0.001)"
1637149727865874085, 20380, 1636513561, 278542041, base_link, -0.00896909108813, 0.00832514768104, -0.026665017675, -0.99956951942, "(0.0001812398765466683, 0.0, 0.0, 0.0, 0.00018069015325274888, 0.0, 0.0, 0.0, 0.003534839422419944)", -0.00661133872197, -0.0109019396059, -0.000702267116771, "(0.001, 0.0, 0.0, 0.0, 0.001, 0.0, 0.0, 0.0, 0.001)", -0.246997762939, 1.7766186704, 0.202083458512, "(0.001, 0.0, 0.0, 0.0, 0.001, 0.0, 0.0, 0.0, 0.001)"
1637149727884203385, 20381, 1636513561, 304003953, base_link, -0.0089516309012, 0.00836461987303, -0.0266740163961, -0.999569106309, "(0.0001812398765466683, 0.0, 0.0, 0.0, 0.00018069015325274888, 0.0, 0.0, 0.0, 0.003534839422419944)", -0.0045412554381, -0.00703096224389, 0.000746027331657, "(0.001, 0.0, 0.0, 0.0, 0.001, 0.0, 0.0, 0.0, 0.001)", 0.256830761559, 1.18472596395, -0.205155155758, "(0.001, 0.0, 0.0, 0.0, 0.001, 0.0, 0.0, 0.0, 0.001)"
1637149727899474263, 20382, 1636513561, 320892095, base_link, -0.00889611678499, 0.00842526990352, -0.0266643049255, -0.999569351659, "(0.0002427390519162487, 0.0, 0.0, 0.0, 0.0002421135773517137, 0.0, 0.0, 0.0, 0.0036054432030668965)", -0.00972986561503, -0.0124410190356, -0.000661829671284, "(0.001, 0.0, 0.0, 0.0, 0.001, 0.0, 0.0, 0.0, 0.001)", -0.00856330186062, 1.75088441069, 0.0101876721196, "(0.001, 0.0, 0.0, 0.0, 0.001, 0.0, 0.0, 0.0, 0.001)"
1637149727917378370, 20383, 1636513561, 338670969, base_link, -0.00887073426167, 0.00847770466568, -0.0266702527865, -0.999568975216, "(0.00024273368321449384, 0.0, 0.0, 0.0, 0.00024210621578735214, 0.0, 0.0, 0.0, 0.0036054069659719468)", -0.00541964261322, -0.00799480448929, 0.000664004115182, "(0.001, 0.0, 0.0, 0.0, 0.001, 0.0, 0.0, 0.0, 0.001)", -0.113100829892, 1.22773791941, -0.0621224326402, "(0.001, 0.0, 0.0, 0.0, 0.001, 0.0, 0.0, 0.0, 0.001)"
1637149727937301798, 20384, 1636513561, 358580112, base_link, -0.00881417844983, 0.00854621952432, -0.0266537995601, -0.999569330942, "(0.00024273368321449384, 0.0, 0.0, 0.0, 0.00024210621578735214, 0.0, 0.0, 0.0, 0.0036054069659719468)", -0.0118419565567, -0.0149071021331, -0.00200239410664, "(0.001, 0.0, 0.0, 0.0, 0.001, 0.0, 0.0, 0.0, 0.001)", 0.0847925565231, 1.82564322928, -0.192652833504, "(0.001, 0.0, 0.0, 0.0, 0.001, 0.0, 0.0, 0.0, 0.001)"
1637149727973114926, 20385, 1636513561, 379987001, base_link, -0.00877937797427, 0.00861967297237, -0.0266367275109, -0.999569461572, "(0.00024273368321449384, 0.0, 0.0, 0.0, 0.00024210621578735214, 0.0, 0.0, 0.0, 0.0036054069659719468)", -0.00593249918348, -0.0105360303758, -0.00186648321625, "(0.001, 0.0, 0.0, 0.0, 0.001, 0.0, 0.0, 0.0, 0.001)", -0.448731606518, 1.19000528608, 0.122225854603, "(0.001, 0.0, 0.0, 0.0, 0.001, 0.0, 0.0, 0.0, 0.001)"
1637149727977049845, 20386, 1636513561, 398437023, base_link, -0.00872555586589, 0.00869967120088, -0.0266117097142, -0.999569906161, "(0.00024273368321449384, 0.0, 0.0, 0.0, 0.00024210621578735214, 0.0, 0.0, 0.0, 0.0036054069659719468)", -0.0123019594106, -0.0180781970039, -0.00477920587978, "(0.001, 0.0, 0.0, 0.0, 0.001, 0.0, 0.0, 0.0, 0.001)", 0.115014919097, 1.9323497323, -0.30689378117, "(0.001, 0.0, 0.0, 0.0, 0.001, 0.0, 0.0, 0.0, 0.001)"
1637149727997816263, 20387, 1636513561, 419154882, base_link, -0.00867480387891, 0.00880031715603, -0.0265716111619, -0.999570533617, "(0.00024273368321449384, 0.0, 0.0, 0.0, 0.00024210621578735214, 0.0, 0.0, 0.0, 0.0036054069659719468)", -0.0080960360049, -0.0142103121895, -0.00485766417713, "(0.001, 0.0, 0.0, 0.0, 0.001, 0.0, 0.0, 0.0, 0.001)", -0.647365933567, 1.23607759544, 0.13914881103, "(0.001, 0.0, 0.0, 0.0, 0.001, 0.0, 0.0, 0.0, 0.001)"
1637149728017810285, 20388, 1636513561, 439038991, base_link, -0.00862639228817, 0.00890341243261, -0.0265318306885, -0.999571096303, "(0.00024273368321449384, 0.0, 0.0, 0.0, 0.00024210621578735214, 0.0, 0.0, 0.0, 0.0036054069659719468)", -0.0125697648778, -0.0237037914485, -0.00865591223979, "(0.001, 0.0, 0.0, 0.0, 0.001, 0.0, 0.0, 0.0, 0.001)", -0.011797677619, 1.99659692066, -0.25399191205, "(0.001, 0.0, 0.0, 0.0, 0.001, 0.0, 0.0, 0.0, 0.001)"
1637149728037273459, 20389, 1636513561, 458705902, base_link, -0.00856356412227, 0.0090476181884, -0.0264676578778, -0.999572042957, "(0.00024273368321449384, 0.0, 0.0, 0.0, 0.00024210621578735214, 0.0, 0.0, 0.0, 0.0036054069659719468)", -0.00976286715666, -0.0201364765985, -0.00850010691584, "(0.001, 0.0, 0.0, 0.0, 0.001, 0.0, 0.0, 0.0, 0.001)", -0.574182393725, 1.37151523128, 0.0645421317105, "(0.001, 0.0, 0.0, 0.0, 0.001, 0.0, 0.0, 0.0, 0.001)"
1637149728072697180, 20390, 1636513561, 478930950, base_link, -0.00850304625449, 0.00920322626055, -0.0264096503482, -0.999572673296, "(0.00024273368321449384, 0.0, 0.0, 0.0, 0.00024210621578735214, 0.0, 0.0, 0.0, 0.0036054069659719468)", -0.0156223207568, -0.0342211533763, -0.0133924940076, "(0.001, 0.0, 0.0, 0.0, 0.001, 0.0, 0.0, 0.0, 0.001)", -0.394863211545, 2.09150349185, -0.18058086746, "(0.001, 0.0, 0.0, 0.0, 0.001, 0.0, 0.0, 0.0, 0.001)"
1637149728077361757, 20391, 1636513561, 498790025, base_link, -0.00841046566436, 0.00939595717134, -0.0263160036041, -0.999574133324, "(0.00024273368321449384, 0.0, 0.0, 0.0, 0.00024210621578735214, 0.0, 0.0, 0.0, 0.0036054069659719468)", -0.0134707187422, -0.0281138185575, -0.0125123983098, "(0.001, 0.0, 0.0, 0.0, 0.001, 0.0, 0.0, 0.0, 0.001)", -0.313481904658, 1.50076513076, -0.0810494675597, "(0.001, 0.0, 0.0, 0.0, 0.001, 0.0, 0.0, 0.0, 0.001)"
1637149728097072710, 20392, 1636513561, 518500089, base_link, -0.00834760325035, 0.00960368846095, -0.0262249532272, -0.999575078979, "(0.00024273368321449384, 0.0, 0.0, 0.0, 0.00024210621578735214, 0.0, 0.0, 0.0, 0.0036054069659719468)", -0.0186662289706, -0.0460506984753, -0.0199865025219, "(0.001, 0.0, 0.0, 0.0, 0.001, 0.0, 0.0, 0.0, 0.001)", -0.716909003478, 2.08660358344, -0.0475406597728, "(0.001, 0.0, 0.0, 0.0, 0.001, 0.0, 0.0, 0.0, 0.001)"
1637149728118267289, 20393, 1636513561, 539654970, base_link, -0.00826827313758, 0.00983813864801, -0.0261050368964, -0.999576597233, "(0.00024273368321449384, 0.0, 0.0, 0.0, 0.00024210621578735214, 0.0, 0.0, 0.0, 0.0036054069659719468)", -0.0136326991876, -0.0357605955859, -0.0171481022572, "(0.001, 0.0, 0.0, 0.0, 0.001, 0.0, 0.0, 0.0, 0.001)", 0.0965306889754, 1.57215785781, -0.200659224372, "(0.001, 0.0, 0.0, 0.0, 0.001, 0.0, 0.0, 0.0, 0.001)"
1637149728138310259, 20394, 1636513561, 559782028, base_link, -0.00817779712558, 0.0100903944933, -0.0259609346372, -0.999578579926, "(0.00024273368321449384, 0.0, 0.0, 0.0, 0.00024210621578735214, 0.0, 0.0, 0.0, 0.0036054069659719468)", -0.0214553957409, -0.0565496881706, -0.0301080805581, "(0.001, 0.0, 0.0, 0.0, 0.001, 0.0, 0.0, 0.0, 0.001)", -0.801511147428, 2.2653401829, 0.111259232778, "(0.001, 0.0, 0.0, 0.0, 0.001, 0.0, 0.0, 0.0, 0.001)"
1637149728171793443, 20395, 1636513561, 579747915, base_link, -0.00809944021024, 0.0103549017028, -0.0258074746964, -0.999580486669, "(0.00024273368321449384, 0.0, 0.0, 0.0, 0.00024210621578735214, 0.0, 0.0, 0.0, 0.0036054069659719468)", -0.0153096986506, -0.0415229421498, -0.0231973923665, "(0.001, 0.0, 0.0, 0.0, 0.001, 0.0, 0.0, 0.0, 0.001)", 0.267025678995, 1.50503608882, -0.348003465831, "(0.001, 0.0, 0.0, 0.0, 0.001, 0.0, 0.0, 0.0, 0.001)"
1637149728177709591, 20396, 1636513561, 599078893, base_link, -0.00799489084195, 0.0106475203077, -0.0256109954475, -0.999583307656, "(0.00024273368321449384, 0.0, 0.0, 0.0, 0.00024210621578735214, 0.0, 0.0, 0.0, 0.0036054069659719468)", -0.0235731822987, -0.0661768143336, -0.0409670522898, "(0.001, 0.0, 0.0, 0.0, 0.001, 0.0, 0.0, 0.0, 0.001)", -0.580013304183, 2.33624089656, 0.117710149566, "(0.001, 0.0, 0.0, 0.0, 0.001, 0.0, 0.0, 0.0, 0.001)"
1637149728199217958, 20397, 1636513561, 620503902, base_link, -0.00790698185121, 0.0109358653135, -0.0254176166007, -0.999585829859, "(0.00024273368321449384, 0.0, 0.0, 0.0, 0.00024210621578735214, 0.0, 0.0, 0.0, 0.0036054069659719468)", -0.0168486499019, -0.0458117986709, -0.0298856528957, "(0.001, 0.0, 0.0, 0.0, 0.001, 0.0, 0.0, 0.0, 0.001)", 0.301552884198, 1.48231535799, -0.257906661704, "(0.001, 0.0, 0.0, 0.0, 0.001, 0.0, 0.0, 0.0, 0.001)"
1637149728217693415, 20398, 1636513561, 639065027, base_link, -0.00780133708391, 0.011255622569, -0.0251740252163, -0.99958927493, "(0.00024273368321449384, 0.0, 0.0, 0.0, 0.00024210621578735214, 0.0, 0.0, 0.0, 0.0036054069659719468)", -0.0259386994699, -0.0731751822717, -0.0516095257146, "(0.001, 0.0, 0.0, 0.0, 0.001, 0.0, 0.0, 0.0, 0.001)", -0.112676635603, 2.36815533857, 0.0116623667745, "(0.001, 0.0, 0.0, 0.0, 0.001, 0.0, 0.0, 0.0, 0.001)"
1637149728240126160, 20399, 1636513561, 659122943, base_link, -0.00772205428552, 0.0115391272776, -0.0249416714654, -0.999592482687, "(0.00024273368321449384, 0.0, 0.0, 0.0, 0.00024210621578735214, 0.0, 0.0, 0.0, 0.0036054069659719468)", -0.0157867879282, -0.0467612198658, -0.0364972090142, "(0.001, 0.0, 0.0, 0.0, 0.001, 0.0, 0.0, 0.0, 0.001)", 0.392174028078, 1.4825848554, -0.0783008495387, "(0.001, 0.0, 0.0, 0.0, 0.001, 0.0, 0.0, 0.0, 0.001)"
1637149728268440016, 20400, 1636513561, 679706096, base_link, -0.00761198128488, 0.0118071542666, -0.0246725381499, -0.999596876101, "(0.00024273368321449384, 0.0, 0.0, 0.0, 0.00024210621578735214, 0.0, 0.0, 0.0, 0.0036054069659719468)", -0.0264701315793, -0.0672719220988, -0.0600971799629, "(0.001, 0.0, 0.0, 0.0, 0.001, 0.0, 0.0, 0.0, 0.001)", 0.589624770649, 2.21080001953, -0.15914426749, "(0.001, 0.0, 0.0, 0.0, 0.001, 0.0, 0.0, 0.0, 0.001)"
1637149728277112559, 20401, 1636513561, 698621988, base_link, -0.00752525375747, 0.0120486244095, -0.0244091253922, -0.999601118348, "(0.00024273368321449384, 0.0, 0.0, 0.0, 0.00024210621578735214, 0.0, 0.0, 0.0, 0.0036054069659719468)", -0.0158404414926, -0.0399949287007, -0.0409055599136, "(0.001, 0.0, 0.0, 0.0, 0.001, 0.0, 0.0, 0.0, 0.001)", 0.20266457072, 1.36134822604, 0.086883446223, "(0.001, 0.0, 0.0, 0.0, 0.001, 0.0, 0.0, 0.0, 0.001)"
1637149728298104356, 20402, 1636513561, 719480037, base_link, -0.00741327956749, 0.0122901541644, -0.0241254781355, -0.999605900694, "(0.00024273368321449384, 0.0, 0.0, 0.0, 0.00024210621578735214, 0.0, 0.0, 0.0, 0.0036054069659719468)", -0.0273116204916, -0.0592397064809, -0.0654347437606, "(0.001, 0.0, 0.0, 0.0, 0.001, 0.0, 0.0, 0.0, 0.001)", 0.954681699544, 2.12494485412, -0.148259256888, "(0.001, 0.0, 0.0, 0.0, 0.001, 0.0, 0.0, 0.0, 0.001)"
1637149728318488288, 20403, 1636513561, 739883899, base_link, -0.00731001595004, 0.0125148190007, -0.0238412874323, -0.999610692213, "(0.00024273368321449384, 0.0, 0.0, 0.0, 0.00024210621578735214, 0.0, 0.0, 0.0, 0.0036054069659719468)", -0.0170428446608, -0.0364655952577, -0.0439259034898, "(0.001, 0.0, 0.0, 0.0, 0.001, 0.0, 0.0, 0.0, 0.001)", -0.0374416293316, 1.30320885405, 0.332939669275, "(0.001, 0.0, 0.0, 0.0, 0.001, 0.0, 0.0, 0.0, 0.001)"
1637149728337219326, 20404, 1636513561, 758542060, base_link, -0.00718692949134, 0.0127361891807, -0.0235443216981, -0.999615827428, "(0.00024273368321449384, 0.0, 0.0, 0.0, 0.00024210621578735214, 0.0, 0.0, 0.0, 0.0036054069659719468)", -0.0303350900313, -0.0550168513252, -0.0695125283248, "(0.001, 0.0, 0.0, 0.0, 0.001, 0.0, 0.0, 0.0, 0.001)", 1.07630459979, 1.97751406519, -0.0803615596429, "(0.001, 0.0, 0.0, 0.0, 0.001, 0.0, 0.0, 0.0, 0.001)"
1637149728365627321, 20405, 1636513561, 780432939, base_link, -0.00703509646343, 0.0129173473626, -0.0232355362576, -0.99962180819, "(0.00024273368321449384, 0.0, 0.0, 0.0, 0.00024210621578735214, 0.0, 0.0, 0.0, 0.0036054069659719468)", -0.0227345137426, -0.0310002371668, -0.0475196429792, "(0.001, 0.0, 0.0, 0.0, 0.001, 0.0, 0.0, 0.0, 0.001)", 0.267414013644, 1.14918067418, 0.435597746745, "(0.001, 0.0, 0.0, 0.0, 0.001, 0.0, 0.0, 0.0, 0.001)"
1637149728378379402, 20406, 1636513561, 799753904, base_link, -0.00689941459619, 0.0130251928274, -0.0229514954772, -0.99962791642, "(0.00024273368321449384, 0.0, 0.0, 0.0, 0.00024210621578735214, 0.0, 0.0, 0.0, 0.0036054069659719468)", -0.035856199128, -0.0355598317728, -0.0700394481937, "(0.001, 0.0, 0.0, 0.0, 0.001, 0.0, 0.0, 0.0, 0.001)", 1.51418682795, 1.32222094722, 0.0555157764064, "(0.001, 0.0, 0.0, 0.0, 0.001, 0.0, 0.0, 0.0, 0.001)"
1637149728397195890, 20407, 1636513561, 818614959, base_link, -0.00673882928757, 0.0130907846488, -0.0226230183987, -0.99963564291, "(0.00024273368321449384, 0.0, 0.0, 0.0, 0.00024210621578735214, 0.0, 0.0, 0.0, 0.0036054069659719468)", -0.0247012640717, -0.014065235676, -0.04940849522, "(0.001, 0.0, 0.0, 0.0, 0.001, 0.0, 0.0, 0.0, 0.001)", 0.472647433139, 0.762002489849, 0.415535009514, "(0.001, 0.0, 0.0, 0.0, 0.001, 0.0, 0.0, 0.0, 0.001)"
1637149728417279664, 20408, 1636513561, 838804006, base_link, -0.00659894410789, 0.0130580280898, -0.0223031099311, -0.999644193264, "(0.00024273368321449384, 0.0, 0.0, 0.0, 0.00024210621578735214, 0.0, 0.0, 0.0, 0.0036054069659719468)", -0.0367584716878, -0.00483887331422, -0.0762022707483, "(0.001, 0.0, 0.0, 0.0, 0.001, 0.0, 0.0, 0.0, 0.001)", 1.53811179145, 1.16722854384, 0.188136984994, "(0.001, 0.0, 0.0, 0.0, 0.001, 0.0, 0.0, 0.0, 0.001)"
1637149728438911894, 20409, 1636513561, 860287904, base_link, -0.00644896823216, 0.0129971712959, -0.0219509162731, -0.99965376087, "(0.00024273368321449384, 0.0, 0.0, 0.0, 0.00024210621578735214, 0.0, 0.0, 0.0, 0.0036054069659719468)", -0.0239357000165, 0.00660884756122, -0.0540833667328, "(0.001, 0.0, 0.0, 0.0, 0.001, 0.0, 0.0, 0.0, 0.001)", 0.454734970268, 0.670582003625, 0.192420402833, "(0.001, 0.0, 0.0, 0.0, 0.001, 0.0, 0.0, 0.0, 0.001)"
1637149728462917758, 20410, 1636513561, 878319025, base_link, -0.00632734866557, 0.0128658583925, -0.0215905740245, -0.99966408431, "(0.00024273368321449384, 0.0, 0.0, 0.0, 0.00024210621578735214, 0.0, 0.0, 0.0, 0.0036054069659719468)", -0.0324734843107, 0.0219696789406, -0.0839689842664, "(0.001, 0.0, 0.0, 0.0, 0.001, 0.0, 0.0, 0.0, 0.001)", 0.889546924513, 0.807057320886, 0.123568942932, "(0.001, 0.0, 0.0, 0.0, 0.001, 0.0, 0.0, 0.0, 0.001)"
1637149728477491977, 20411, 1636513561, 898900032, base_link, -0.00620068925112, 0.012780663819, -0.0211951207681, -0.999674433474, "(0.00024273368321449384, 0.0, 0.0, 0.0, 0.00024210621578735214, 0.0, 0.0, 0.0, 0.0036054069659719468)", -0.0210571345215, 0.015488845581, -0.0608992540442, "(0.001, 0.0, 0.0, 0.0, 0.001, 0.0, 0.0, 0.0, 0.001)", 0.318589625113, 0.716636090072, -0.030421716131, "(0.001, 0.0, 0.0, 0.0, 0.001, 0.0, 0.0, 0.0, 0.001)"
1637149728497883264, 20412, 1636513561, 919346094, base_link, -0.00609407011599, 0.0126533303631, -0.020759710402, -0.999685845636, "(0.00024273368321449384, 0.0, 0.0, 0.0, 0.00024210621578735214, 0.0, 0.0, 0.0, 0.0036054069659719468)", -0.028194539856, 0.0272540867376, -0.0983317884545, "(0.001, 0.0, 0.0, 0.0, 0.001, 0.0, 0.0, 0.0, 0.001)", 0.110844649452, 0.85341188484, 0.142009982669, "(0.001, 0.0, 0.0, 0.0, 0.001, 0.0, 0.0, 0.0, 0.001)"
1637149728517237544, 20413, 1636513561, 938695907, base_link, -0.00600477273554, 0.0125597395773, -0.0202958116163, -0.999697091962, "(0.00024273368321449384, 0.0, 0.0, 0.0, 0.00024210621578735214, 0.0, 0.0, 0.0, 0.0036054069659719468)", -0.0173189277911, 0.0157088456021, -0.0717593808273, "(0.001, 0.0, 0.0, 0.0, 0.001, 0.0, 0.0, 0.0, 0.001)", 0.480578277307, 0.597179445151, -0.35869086302, "(0.001, 0.0, 0.0, 0.0, 0.001, 0.0, 0.0, 0.0, 0.001)"
1637149728537755209, 20414, 1636513561, 959084987, base_link, -0.00600477273554, 0.0125597395773, -0.0202958116163, -0.999697091962, "(0.00024273368321449384, 0.0, 0.0, 0.0, 0.00024210621578735214, 0.0, 0.0, 0.0, 0.0036054069659719468)", -0.0176124523476, 0.0242006296897, -0.114167664498, "(0.001, 0.0, 0.0, 0.0, 0.001, 0.0, 0.0, 0.0, 0.001)", -0.22271090556, 1.05132869735, 0.0844793847073, "(0.001, 0.0, 0.0, 0.0, 0.001, 0.0, 0.0, 0.0, 0.001)"
1637149728570871083, 20415, 1636513561, 980916976, base_link, -0.00592678466453, 0.0123340993536, -0.0192530001923, -0.999720993678, "(0.00024273368321449384, 0.0, 0.0, 0.0, 0.00024210621578735214, 0.0, 0.0, 0.0, 0.0036054069659719468)", -0.00835273413979, 0.0175010682181, -0.0837646080523, "(0.001, 0.0, 0.0, 0.0, 0.001, 0.0, 0.0, 0.0, 0.001)", 0.663681683244, 0.681061991976, -0.521670603217, "(0.001, 0.0, 0.0, 0.0, 0.001, 0.0, 0.0, 0.0, 0.001)"
1637149728577235693, 20416, 1636513561, 998514890, base_link, -0.00592327692867, 0.0121979639449, -0.0186459199652, -0.99973419174, "(0.00024273368321449384, 0.0, 0.0, 0.0, 0.00024210621578735214, 0.0, 0.0, 0.0, 0.0036054069659719468)", -0.00447279852687, 0.0304394333681, -0.136497599451, "(0.001, 0.0, 0.0, 0.0, 0.001, 0.0, 0.0, 0.0, 0.001)", -0.331031649865, 1.16174309954, -0.121958480135, "(0.001, 0.0, 0.0, 0.0, 0.001, 0.0, 0.0, 0.0, 0.001)"
1637149728598149672, 20417, 1636513562, 19521951, base_link, -0.00593583209669, 0.012073538222, -0.0180348666556, -0.999746837533, "(0.00024273368321449384, 0.0, 0.0, 0.0, 0.00024210621578735214, 0.0, 0.0, 0.0, 0.0036054069659719468)", -0.000734834155345, 0.0194973305814, -0.0967623514668, "(0.001, 0.0, 0.0, 0.0, 0.001, 0.0, 0.0, 0.0, 0.001)", 0.356628394087, 0.838845872138, -0.461056343093, "(0.001, 0.0, 0.0, 0.0, 0.001, 0.0, 0.0, 0.0, 0.001)"
1637149728618328450, 20418, 1636513562, 39665937, base_link, -0.0059631838224, 0.0119548455042, -0.0173732044148, -0.999759818094, "(0.00024273368321449384, 0.0, 0.0, 0.0, 0.00024210621578735214, 0.0, 0.0, 0.0, 0.0036054069659719468)", 0.0026506419199, 0.0282977871895, -0.152632938727, "(0.001, 0.0, 0.0, 0.0, 0.001, 0.0, 0.0, 0.0, 0.001)", -0.0865121308913, 1.37840093873, -0.324173568735, "(0.001, 0.0, 0.0, 0.0, 0.001, 0.0, 0.0, 0.0, 0.001)"
1637149728637756486, 20419, 1636513562, 59103965, base_link, -0.006017890868, 0.0118047879782, -0.0167084428835, -0.999772604099, "(0.00024273368321449384, 0.0, 0.0, 0.0, 0.00024210621578735214, 0.0, 0.0, 0.0, 0.0036054069659719468)", 0.00573280740826, 0.0212709701849, -0.105492582342, "(0.001, 0.0, 0.0, 0.0, 0.001, 0.0, 0.0, 0.0, 0.001)", 0.211429087206, 1.01114031045, -0.160034152928, "(0.001, 0.0, 0.0, 0.0, 0.001, 0.0, 0.0, 0.0, 0.001)"
1637149728667442776, 20420, 1636513562, 80130100, base_link, -0.00604372696391, 0.0116562921988, -0.0160245354514, -0.999785386211, "(0.00024273368321449384, 0.0, 0.0, 0.0, 0.00024210621578735214, 0.0, 0.0, 0.0, 0.0036054069659719468)", 0.00631136927679, 0.0338391567606, -0.162488256612, "(0.001, 0.0, 0.0, 0.0, 0.001, 0.0, 0.0, 0.0, 0.001)", 0.50663619061, 1.52961054272, -0.290833162961, "(0.001, 0.0, 0.0, 0.0, 0.001, 0.0, 0.0, 0.0, 0.001)"
1637149728677668472, 20421, 1636513562, 99092960, base_link, -0.00608017545928, 0.011497469555, -0.0153409179847, -0.999797727491, "(0.00024273368321449384, 0.0, 0.0, 0.0, 0.00024210621578735214, 0.0, 0.0, 0.0, 0.0036054069659719468)", 0.00575402923544, 0.0244157780452, -0.108582313406, "(0.001, 0.0, 0.0, 0.0, 0.001, 0.0, 0.0, 0.0, 0.001)", -0.142278238485, 1.13723820931, 0.163000341915, "(0.001, 0.0, 0.0, 0.0, 0.001, 0.0, 0.0, 0.0, 0.001)"
1637149728697121751, 20422, 1636513562, 118561029, base_link, -0.00608712137132, 0.0113494266536, -0.0146470383299, -0.999809782777, "(0.00024273368321449384, 0.0, 0.0, 0.0, 0.00024210621578735214, 0.0, 0.0, 0.0, 0.0036054069659719468)", 0.0025722225932, 0.0346720896562, -0.166078988622, "(0.001, 0.0, 0.0, 0.0, 0.001, 0.0, 0.0, 0.0, 0.001)", 0.544352709269, 1.57970884291, -0.142543665946, "(0.001, 0.0, 0.0, 0.0, 0.001, 0.0, 0.0, 0.0, 0.001)"
1637149728717419924, 20423, 1636513562, 138748884, base_link, -0.00611291102329, 0.0112609774362, -0.0139624131977, -0.999820420737, "(0.00024273368321449384, 0.0, 0.0, 0.0, 0.00024210621578735214, 0.0, 0.0, 0.0, 0.0036054069659719468)", 0.00329500595476, 0.0180667519885, -0.109655857649, "(0.001, 0.0, 0.0, 0.0, 0.001, 0.0, 0.0, 0.0, 0.001)", -0.334224005856, 1.09470862421, 0.169636178371, "(0.001, 0.0, 0.0, 0.0, 0.001, 0.0, 0.0, 0.0, 0.001)"
1637149728738271671, 20424, 1636513562, 159600019, base_link, -0.00611593690995, 0.011175891611, -0.0132739264069, -0.999830734495, "(0.00024273368321449384, 0.0, 0.0, 0.0, 0.00024210621578735214, 0.0, 0.0, 0.0, 0.0036054069659719468)", 0.00105771135495, 0.0217386478861, -0.165127423565, "(0.001, 0.0, 0.0, 0.0, 0.001, 0.0, 0.0, 0.0, 0.001)", 0.146687393293, 1.7105837408, 0.122546574349, "(0.001, 0.0, 0.0, 0.0, 0.001, 0.0, 0.0, 0.0, 0.001)"
1637149728766614366, 20425, 1636513562, 179791927, base_link, -0.00607529049128, 0.0111153959555, -0.0125622112319, -0.99984085217, "(0.00024273368321449384, 0.0, 0.0, 0.0, 0.00024210621578735214, 0.0, 0.0, 0.0, 0.0036054069659719468)", -0.00410832381932, 0.0101702178545, -0.112299759994, "(0.001, 0.0, 0.0, 0.0, 0.001, 0.0, 0.0, 0.0, 0.001)", 0.0227557565095, 1.08937368464, 0.177147458387, "(0.001, 0.0, 0.0, 0.0, 0.001, 0.0, 0.0, 0.0, 0.001)"
1637149728777128637, 20426, 1636513562, 198529958, base_link, -0.00606068584362, 0.0110677098117, -0.0118356806751, -0.999850334075, "(0.00024273368321449384, 0.0, 0.0, 0.0, 0.00024210621578735214, 0.0, 0.0, 0.0, 0.0036054069659719468)", -0.0058185023841, 0.01373684926, -0.17124382523, "(0.001, 0.0, 0.0, 0.0, 0.001, 0.0, 0.0, 0.0, 0.001)", -0.178113871105, 1.65794840082, 0.278849915664, "(0.001, 0.0, 0.0, 0.0, 0.001, 0.0, 0.0, 0.0, 0.001)"
1637149728798425480, 20427, 1636513562, 219813108, base_link, -0.00603382778983, 0.0109897370416, -0.0110825314988, -0.999859988247, "(0.00024273368321449384, 0.0, 0.0, 0.0, 0.00024210621578735214, 0.0, 0.0, 0.0, 0.0036054069659719468)", -0.00604071918472, 0.00956056002387, -0.119285324183, "(0.001, 0.0, 0.0, 0.0, 0.001, 0.0, 0.0, 0.0, 0.001)", 0.569625223338, 0.844788765634, -0.0376226915966, "(0.001, 0.0, 0.0, 0.0, 0.001, 0.0, 0.0, 0.0, 0.001)"
1637149728817494920, 20428, 1636513562, 238677024, base_link, -0.00600950112549, 0.0109241117741, -0.0102986939697, -0.999869234741, "(0.00024273368321449384, 0.0, 0.0, 0.0, 0.00024210621578735214, 0.0, 0.0, 0.0, 0.0036054069659719468)", -0.0070844659144, 0.015767595601, -0.182979365075, "(0.001, 0.0, 0.0, 0.0, 0.001, 0.0, 0.0, 0.0, 0.001)", -0.312373847511, 1.4347385115, 0.203675360596, "(0.001, 0.0, 0.0, 0.0, 0.001, 0.0, 0.0, 0.0, 0.001)"
1637149728838755433, 20429, 1636513562, 259994029, base_link, -0.00596152917138, 0.0108866838822, -0.00948540226064, -0.999877976269, "(0.00024273368321449384, 0.0, 0.0, 0.0, 0.00024210621578735214, 0.0, 0.0, 0.0, 0.0036054069659719468)", -0.00770358591837, 0.00717025551196, -0.128056842021, "(0.001, 0.0, 0.0, 0.0, 0.001, 0.0, 0.0, 0.0, 0.001)", -0.101774682141, 1.17726791042, 0.028882337628, "(0.001, 0.0, 0.0, 0.0, 0.001, 0.0, 0.0, 0.0, 0.001)"
1637149728863976154, 20430, 1636513562, 278304100, base_link, -0.00589614043101, 0.0108967277113, -0.00859267355935, -0.999886324946, "(0.00024273368321449384, 0.0, 0.0, 0.0, 0.00024210621578735214, 0.0, 0.0, 0.0, 0.0036054069659719468)", -0.0154274322435, 0.00261728354154, -0.203876809156, "(0.001, 0.0, 0.0, 0.0, 0.001, 0.0, 0.0, 0.0, 0.001)", -0.450668427875, 1.45966947108, 0.210230829247, "(0.001, 0.0, 0.0, 0.0, 0.001, 0.0, 0.0, 0.0, 0.001)"
1637149728881466030, 20431, 1636513562, 302541017, base_link, -0.00589614043101, 0.0108967277113, -0.00859267355935, -0.999886324946, "(0.00024273368321449384, 0.0, 0.0, 0.0, 0.00024210621578735214, 0.0, 0.0, 0.0, 0.0036054069659719468)", -0.0110631734484, -0.00376631281063, -0.142975484308, "(0.001, 0.0, 0.0, 0.0, 0.001, 0.0, 0.0, 0.0, 0.001)", -0.45982188598, 0.979570833181, 0.257551012332, "(0.001, 0.0, 0.0, 0.0, 0.001, 0.0, 0.0, 0.0, 0.001)"
