time, .header.id, .header.msg_type, .header.port_addr, .header.length, .header.sequence, .header.idle_time, .header.time_status, .header.gps_week, .header.gps_week_seconds, .header.receiver_status, .header.reserved, .header.software_version, .ins_status, .position_type, .latitude, .longitude, .altitude, .undulation, .north_velocity, .east_velocity, .up_velocity, .roll, .pitch, .azimuth, .latitude_std, .longitude_std, .altitude_std, .north_velocity_std, .east_velocity_std, .up_velocity_std, .roll_std, .pitch_std, .azimuth_std, .extended_status, .seconds_since_update
1637149726181132063, 1465, 0, 160, 126, 0, 73, 180, 2183, 270163280, 33554432, 18205, 15990, 3, 56, 40.0068209692, 116.327946128, 50.3050954519, -9.69999980927, -0.00245583745341, -0.00458195599306, -0.00680704979928, -0.866376330039, 0.908620979037, 356.936095415, 0.0173477847129, 0.0172595381737, 0.0180249493569, 0.00128954800311, 0.00128954532556, 0.00111824960914, 0.013517822139, 0.0135372187942, 0.0593026466668, 251658309, 0
1637149726181203346, 1465, 0, 160, 126, 0, 73, 180, 2183, 270163300, 33554432, 18205, 15990, 3, 56, 40.0068209696, 116.327946128, 50.3051171135, -9.69999980927, -0.00375472419517, -0.00125379798478, -0.000542302878343, -0.866092551016, 0.908346484866, 356.935935598, 0.0173477847129, 0.0172595381737, 0.0180249493569, 0.00128954800311, 0.00128954532556, 0.00111824960914, 0.013517822139, 0.0135372187942, 0.0593026466668, 251658309, 0
1637149726201612606, 1465, 0, 160, 126, 0, 73, 180, 2183, 270163320, 33554432, 18205, 15990, 3, 56, 40.0068209698, 116.327946127, 50.3050163444, -9.69999980927, -0.00252889088376, -0.00283344340871, -0.00771410037728, -0.86789541546, 0.909293860895, 356.93625368, 0.0173477847129, 0.0172595381737, 0.0180249493569, 0.00128954800311, 0.00128954532556, 0.00111824960914, 0.013517822139, 0.0135372187942, 0.0593026466668, 251658309, 0
1637149726216353781, 1465, 0, 160, 126, 0, 73, 180, 2183, 270163340, 33554432, 18205, 15990, 3, 56, 40.00682097, 116.327946128, 50.3050360577, -9.69999980927, -0.00336340307216, -0.00227832948653, -0.00297797852203, -0.865904328805, 0.9071961708, 356.93593339, 0.0173477847129, 0.0172595381737, 0.0180249493569, 0.00128954800311, 0.00128954532556, 0.00111824960914, 0.013517822139, 0.0135372187942, 0.0593026466668, 251658309, 0
1637149726237453359, 1465, 0, 160, 126, 0, 73, 180, 2183, 270163360, 33554432, 18205, 15990, 3, 56, 40.0068209704, 116.327946127, 50.3049578601, -9.69999980927, -0.00149221351468, -0.0011751942965, -0.00509756554236, -0.867970114213, 0.909364869931, 356.936111765, 0.0173477847129, 0.0172595381737, 0.0180249493569, 0.00128954800311, 0.00128954532556, 0.00111824960914, 0.013517822139, 0.0135372187942, 0.0593026466668, 251658309, 0
1637149726269304620, 1465, 0, 160, 126, 0, 73, 180, 2183, 270163380, 33554432, 18205, 15990, 3, 56, 40.0068209706, 116.327946127, 50.3049414614, -9.69999980927, -0.00342328536734, -0.00256238172709, -0.00571976744301, -0.866196092586, 0.906480683467, 356.935920825, 0.0173477847129, 0.0172595381737, 0.0180249493569, 0.00128954800311, 0.00128954532556, 0.00111824960914, 0.013517822139, 0.0135372187942, 0.0593026466668, 251658309, 0
1637149726277885173, 1465, 0, 160, 126, 0, 73, 180, 2183, 270163400, 33554432, 18205, 15990, 3, 56, 40.0068209706, 116.327946127, 50.3049051659, -9.69999980927, -0.00414822603014, 0.00112198845762, -0.00165498381442, -0.866970198421, 0.909299430992, 356.93585472, 0.0173477847129, 0.0172595381737, 0.0180249493569, 0.00128954800311, 0.00128954532556, 0.00111824960914, 0.013517822139, 0.0135372187942, 0.0593026466668, 251658309, 0
1637149726297219591, 1465, 0, 160, 126, 0, 73, 180, 2183, 270163420, 33554432, 18205, 15990, 3, 56, 40.0068209709, 116.327946127, 50.3048411552, -9.69999980927, -0.00281090082395, -0.00279893647074, -0.00671931402461, -0.867660744143, 0.907791801204, 356.935199626, 0.0173477847129, 0.0172595381737, 0.0180249493569, 0.00128954800311, 0.00128954532556, 0.00111824960914, 0.013517822139, 0.0135372187942, 0.0593026466668, 251658309, 0
1637149726318352193, 1465, 0, 160, 126, 0, 73, 180, 2183, 270163440, 33554432, 18205, 15990, 3, 56, 40.0068209709, 116.327946127, 50.3048514621, -9.69999980927, -0.00399569359564, 0.00304112019109, 0.000980172114451, -0.867485430924, 0.909045452288, 356.935042002, 0.0173477847129, 0.0172595381737, 0.0180249493569, 0.00128954800311, 0.00128954532556, 0.00111824960914, 0.013517822139, 0.0135372187942, 0.0593026466668, 251658309, 0
1637149726337375948, 1465, 0, 160, 126, 0, 73, 180, 2183, 270163460, 33554432, 18205, 15990, 3, 56, 40.0068209709, 116.327946127, 50.3047587322, -9.69999980927, -0.00344148986359, -0.00256286901849, -0.00589490373905, -0.868325998401, 0.90855632075, 356.934253202, 0.0173477847129, 0.0172595381737, 0.0180249493569, 0.00128954800311, 0.00128954532556, 0.00111824960914, 0.013517822139, 0.0135372187942, 0.0593026466668, 251658309, 0
1637149726367284348, 1465, 0, 160, 126, 0, 73, 180, 2183, 270163480, 33554432, 18205, 15990, 3, 56, 40.0068209709, 116.327946127, 50.3047865517, -9.69999980927, -0.00366396294067, 0.00250659671229, 0.00158801273553, -0.867203226071, 0.909294737345, 356.933592584, 0.0173477847129, 0.0172595381737, 0.0180249493569, 0.00128954800311, 0.00128954532556, 0.00111824960914, 0.013517822139, 0.0135372187942, 0.0593026466668, 251658309, 0
1637149726378165399, 1465, 0, 160, 126, 0, 73, 180, 2183, 270163500, 33554432, 18205, 15990, 3, 56, 40.0068209709, 116.327946127, 50.3047001995, -9.69999980927, -0.00434328599555, -0.0005181349444, -0.00359504719285, -0.86741358046, 0.910334577425, 356.934394693, 0.0173477847129, 0.0172595381737, 0.0180249493569, 0.00128954800311, 0.00128954532556, 0.00111824960914, 0.013517822139, 0.0135372187942, 0.0593026466668, 251658309, 0
1637149726397102578, 1465, 0, 160, 126, 0, 73, 180, 2183, 270163520, 33554432, 18205, 15990, 3, 56, 40.0068209706, 116.327946127, 50.3046945231, -9.69999980927, -0.00549084883681, 6.78094848441e-05, -0.00142918948556, -0.866837111599, 0.907756192125, 356.933580324, 0.0173477847129, 0.0172595381737, 0.0180249493569, 0.00128954800311, 0.00128954532556, 0.00111824960914, 0.013517822139, 0.0135372187942, 0.0593026466668, 251658309, 0
1637149726416924752, 1465, 0, 160, 126, 0, 73, 180, 2183, 270163540, 33554432, 18205, 15990, 3, 56, 40.0068209706, 116.327946127, 50.3046361478, -9.69999980927, -0.00434401214727, 0.00165002968052, -0.00171546587437, -0.867312530668, 0.90986231916, 356.933821915, 0.0173477847129, 0.0172595381737, 0.0180249493569, 0.00128954800311, 0.00128954532556, 0.00111824960914, 0.013517822139, 0.0135372187942, 0.0593026466668, 251658309, 0
1637149726438592669, 1465, 0, 160, 126, 0, 73, 180, 2183, 270163560, 33554432, 18205, 15990, 3, 56, 40.0068209705, 116.327946127, 50.3045925442, -9.69999980927, -0.00348595487745, -0.00281219525396, -0.00450641396054, -0.866822424554, 0.906889265481, 356.932365375, 0.0173477847129, 0.0172595381737, 0.0180249493569, 0.00128954800311, 0.00128954532556, 0.00111824960914, 0.013517822139, 0.0135372187942, 0.0593026466668, 251658309, 0
1637149726464301999, 1465, 0, 160, 126, 0, 73, 180, 2183, 270163580, 33554432, 18205, 15990, 3, 56, 40.0068209706, 116.327946127, 50.3045762992, -9.69999980927, -0.00417636694514, 0.00187063250616, -0.000182862809969, -0.867937797225, 0.908412523889, 356.932872546, 0.0173477847129, 0.0172595381737, 0.0180249493569, 0.00128954800311, 0.00128954532556, 0.00111824960914, 0.013517822139, 0.0135372187942, 0.0593026466668, 251658309, 0
1637149726477302446, 1465, 0, 160, 126, 0, 73, 180, 2183, 270163600, 33554432, 18205, 15990, 3, 56, 40.0068209704, 116.327946127, 50.3044855846, -9.69999980927, -0.00472323363995, -0.0031576504485, -0.00739226412199, -0.867136010604, 0.907995742773, 356.932199557, 0.0173477847129, 0.0172595381737, 0.0180249493569, 0.00128954800311, 0.00128954532556, 0.00111824960914, 0.013517822139, 0.0135372187942, 0.0593026466668, 251658309, 0
1637149726497391815, 1465, 0, 160, 126, 0, 73, 180, 2183, 270163620, 33554432, 18205, 15990, 3, 56, 40.0068209706, 116.327946127, 50.3044867096, -9.69999980927, -0.00301829706426, 0.00193053371168, -0.000925915309665, -0.866740101324, 0.908188155688, 356.932553004, 0.0173477847129, 0.0172595381737, 0.0180249493569, 0.00128954800311, 0.00128954532556, 0.00111824960914, 0.013517822139, 0.0135372187942, 0.0593026466668, 251658309, 0
1637149726516499301, 1465, 0, 160, 126, 0, 73, 180, 2183, 270163640, 33554432, 18205, 15990, 3, 56, 40.0068209706, 116.327946127, 50.3043771945, -9.69999980927, -0.00284079257625, -0.00321305913403, -0.0073972390451, -0.867125251981, 0.90766233211, 356.932838791, 0.0173477847129, 0.0172595381737, 0.0180249493569, 0.00128954800311, 0.00128954532556, 0.00111824960914, 0.013517822139, 0.0135372187942, 0.0593026466668, 251658309, 0
1637149726537854178, 1465, 0, 160, 126, 0, 73, 180, 2183, 270163660, 33554432, 18205, 15990, 3, 56, 40.0068209708, 116.327946128, 50.3043875303, -9.69999980927, -0.00293899738787, 0.000868305839416, -0.00265463211668, -0.866135746763, 0.906318712835, 356.932342964, 0.0173477847129, 0.0172595381737, 0.0180249493569, 0.00128954800311, 0.00128954532556, 0.00111824960914, 0.013517822139, 0.0135372187942, 0.0593026466668, 251658309, 0
1637149726571529918, 1465, 0, 160, 126, 0, 73, 180, 2183, 270163680, 33554432, 18205, 15990, 3, 56, 40.0068209708, 116.327946127, 50.3043013252, -9.69999980927, -0.00281844820403, -0.000883102373358, -0.00529388137888, -0.86597214796, 0.907587487675, 356.933324628, 0.0173477847129, 0.0172595381737, 0.0180249493569, 0.00128954800311, 0.00128954532556, 0.00111824960914, 0.013517822139, 0.0135372187942, 0.0593026466668, 251658309, 0
1637149726576518033, 1465, 0, 160, 126, 0, 73, 180, 2183, 270163700, 33554432, 18205, 15990, 3, 56, 40.0068209711, 116.327946128, 50.3042799067, -9.69999980927, -0.00208069950571, -0.00226431638026, -0.00522829366608, -0.865949752511, 0.905969067482, 356.932345919, 0.0173477847129, 0.0172595381737, 0.0180249493569, 0.00128954800311, 0.00128954532556, 0.00111824960914, 0.013517822139, 0.0135372187942, 0.0593026466668, 251658309, 0
1637149726597217341, 1465, 0, 160, 126, 0, 73, 180, 2183, 270163720, 33554432, 18205, 15990, 3, 56, 40.0068209712, 116.327946128, 50.3042544182, -9.69999980927, -0.00212953022364, 0.00185077050896, -0.000513608943901, -0.86594178752, 0.90694749023, 356.933236768, 0.0173477847129, 0.0172595381737, 0.0180249493569, 0.00128954800311, 0.00128954532556, 0.00111824960914, 0.013517822139, 0.0135372187942, 0.0593026466668, 251658309, 0
1637149726619320066, 1465, 0, 160, 126, 0, 73, 180, 2183, 270163740, 33554432, 18205, 15990, 3, 56, 40.0068209713, 116.327946127, 50.3042025985, -9.69999980927, -0.00258831828462, -0.00380866338361, -0.00605487549795, -0.86575342039, 0.905391651099, 356.931772427, 0.0173477847129, 0.0172595381737, 0.0180249493569, 0.00128954800311, 0.00128954532556, 0.00111824960914, 0.013517822139, 0.0135372187942, 0.0593026466668, 251658309, 0
1637149726637407611, 1465, 0, 160, 126, 0, 73, 180, 2183, 270163760, 33554432, 18205, 15990, 3, 56, 40.0068209715, 116.327946128, 50.3042261973, -9.69999980927, -0.00188429362714, 0.00136329910733, 0.00240432358986, -0.866154423779, 0.907415615629, 356.931911398, 0.0173477847129, 0.0172595381737, 0.0180249493569, 0.00128954800311, 0.00128954532556, 0.00111824960914, 0.013517822139, 0.0135372187942, 0.0593026466668, 251658309, 0
1637149726668286956, 1465, 0, 160, 126, 0, 73, 180, 2183, 270163780, 33554432, 18205, 15990, 3, 56, 40.0068209716, 116.327946127, 50.3041438498, -9.69999980927, -0.00279856868332, -0.00266549597099, -0.00540094280344, -0.865442271016, 0.905558245706, 356.932039142, 0.0173477847129, 0.0172595381737, 0.0180249493569, 0.00128954800311, 0.00128954532556, 0.00111824960914, 0.013517822139, 0.0135372187942, 0.0593026466668, 251658309, 0
1637149726676495011, 1465, 0, 160, 126, 0, 73, 180, 2183, 270163800, 33554432, 18205, 15990, 3, 56, 40.0068209713, 116.327946127, 50.3041708879, -9.69999980927, -0.0046260357174, -0.000121350007601, 0.00145567003424, -0.86540756784, 0.904730471601, 356.931656568, 0.0173477847129, 0.0172595381737, 0.0180249493569, 0.00128954800311, 0.00128954532556, 0.00111824960914, 0.013517822139, 0.0135372187942, 0.0593026466668, 251658309, 0
1637149726696243642, 1465, 0, 160, 126, 0, 73, 180, 2183, 270163820, 33554432, 18205, 15990, 3, 56, 40.0068209713, 116.327946127, 50.3040784597, -9.69999980927, -0.00417744634871, -0.000982740388078, -0.00376602418062, -0.866024679169, 0.905187544605, 356.932181566, 0.0173477847129, 0.0172595381737, 0.0180249493569, 0.00128954800311, 0.00128954532556, 0.00111824960914, 0.013517822139, 0.0135372187942, 0.0593026466668, 251658309, 0
1637149726718041202, 1465, 0, 160, 126, 0, 73, 180, 2183, 270163840, 33554432, 18205, 15990, 3, 56, 40.0068209709, 116.327946126, 50.3040687842, -9.69999980927, -0.00458937730397, -0.00205861364363, -0.00158774045483, -0.865349727676, 0.903235410858, 356.9309462, 0.0173477847129, 0.0172595381737, 0.0180249493569, 0.00128954800311, 0.00128954532556, 0.00111824960914, 0.013517822139, 0.0135372187942, 0.0593026466668, 251658309, 0
1637149726736846749, 1465, 0, 160, 126, 0, 73, 180, 2183, 270163860, 33554432, 18205, 15990, 3, 56, 40.0068209708, 116.327946126, 50.3039945224, -9.69999980927, -0.00406786891067, -0.000373715854024, -0.00164844801675, -0.867528958928, 0.906305158378, 356.93109467, 0.0173477847129, 0.0172595381737, 0.0180249493569, 0.00128954800311, 0.00128954532556, 0.00111824960914, 0.013517822139, 0.0135372187942, 0.0593026466668, 251658309, 0
1637149726767110089, 1465, 0, 160, 126, 0, 73, 180, 2183, 270163880, 33554432, 18205, 15990, 3, 56, 40.0068209703, 116.327946126, 50.3039281154, -9.69999980927, -0.00509994168805, -0.00341101014709, -0.00536132245967, -0.867157782101, 0.904700457271, 356.930050291, 0.0173477847129, 0.0172595381737, 0.0180249493569, 0.00128954800311, 0.00128954532556, 0.00111824960914, 0.013517822139, 0.0135372187942, 0.0593026466668, 251658309, 0
1637149726777579402, 1465, 0, 160, 126, 0, 73, 180, 2183, 270163900, 33554432, 18205, 15990, 3, 56, 40.0068209702, 116.327946126, 50.3038894776, -9.69999980927, -0.00380546460178, 0.000783738096113, -0.000334511443794, -0.86874566858, 0.906942366315, 356.929914908, 0.0173477847129, 0.0172595381737, 0.0180249493569, 0.00128954800311, 0.00128954532556, 0.00111824960914, 0.013517822139, 0.0135372187942, 0.0593026466668, 251658309, 0
1637149726796576817, 1465, 0, 160, 126, 0, 73, 180, 2183, 270163920, 33554432, 18205, 15990, 3, 56, 40.00682097, 116.327946125, 50.3037791029, -9.69999980927, -0.00313482564062, -0.00385156913969, -0.0079811905845, -0.867602443668, 0.904201282225, 356.929486722, 0.0173477847129, 0.0172595381737, 0.0180249493569, 0.00128954800311, 0.00128954532556, 0.00111824960914, 0.013517822139, 0.0135372187942, 0.0593026466668, 251658309, 0
1637149726817051829, 1465, 0, 160, 126, 0, 73, 180, 2183, 270163940, 33554432, 18205, 15990, 3, 56, 40.0068209698, 116.327946126, 50.3037755117, -9.69999980927, -0.00388305595992, 0.000956141630542, -0.000452308404192, -0.86772960277, 0.905114600798, 356.929981201, 0.0173477847129, 0.0172595381737, 0.0180249493569, 0.00128954800311, 0.00128954532556, 0.00111824960914, 0.013517822139, 0.0135372187942, 0.0593026466668, 251658309, 0
1637149726838090138, 1465, 0, 160, 126, 0, 73, 180, 2183, 270163960, 33554432, 18205, 15990, 3, 56, 40.0068209696, 116.327946125, 50.3036753377, -9.69999980927, -0.00272502950449, -0.00290671032896, -0.00654853559564, -0.867208429796, 0.905191271036, 356.930352597, 0.0173477847129, 0.0172595381737, 0.0180249493569, 0.00128954800311, 0.00128954532556, 0.00111824960914, 0.013517822139, 0.0135372187942, 0.0593026466668, 251658309, 0
1637149726864312795, 1465, 0, 160, 126, 0, 73, 180, 2183, 270163980, 33554432, 18205, 15990, 3, 56, 40.0068209695, 116.327946125, 50.3036718071, -9.69999980927, -0.00255306489677, -0.000963449642995, -0.00254788481587, -0.866413125875, 0.903598454502, 356.929568576, 0.0173477847129, 0.0172595381737, 0.0180249493569, 0.00128954800311, 0.00128954532556, 0.00111824960914, 0.013517822139, 0.0135372187942, 0.0593026466668, 251658309, 0
1637149726881821369, 1465, 0, 160, 126, 0, 73, 180, 2183, 270164000, 33554432, 18205, 15990, 3, 56, 40.0068209695, 116.327946125, 50.3036004789, -9.69999980927, -0.00155782494116, 0.000179668457231, -0.00357530372436, -0.866984580837, 0.90595575151, 356.930683901, 0.0173477847129, 0.0172595381737, 0.0180249493569, 0.00128954800311, 0.00128954532556, 0.00111824960914, 0.013517822139, 0.0135372187942, 0.0593026466668, 251658309, 0
1637149726899249189, 1465, 0, 160, 126, 0, 73, 180, 2183, 270164020, 33554432, 18205, 15990, 3, 56, 40.0068209695, 116.327946125, 50.3035711963, -9.69999980927, -0.00279764733011, -0.00251838079349, -0.00501219895802, -0.865710995116, 0.903707177845, 356.929988075, 0.0206327270716, 0.0205589309335, 0.0212109722197, 0.00945686548948, 0.00945685524493, 0.00917042046785, 0.0156226912513, 0.0156385526061, 0.0598857179284, 251658309, 0
1637149726916652969, 1465, 0, 160, 126, 0, 73, 180, 2183, 270164040, 33554432, 18205, 15990, 3, 56, 40.00682097, 116.327946126, 50.3035881259, -9.69999980927, -0.00147003994211, 0.00215127478137, 0.000197399959574, -0.867254475117, 0.906077204911, 356.931239923, 0.0174398366362, 0.0173538345844, 0.0181039702147, 0.00128260278143, 0.00128259963822, 0.00111715029925, 0.013442103751, 0.013462536037, 0.0594545155764, 251658309, 0
1637149726937187336, 1465, 0, 160, 126, 0, 73, 180, 2183, 270164060, 33554432, 18205, 15990, 3, 56, 40.0068209707, 116.327946126, 50.3035664214, -9.69999980927, -0.00184127766741, -0.00232704001221, -0.00610393088088, -0.864850640098, 0.903104814636, 356.93062869, 0.0174398366362, 0.0173538345844, 0.0181039702147, 0.00128260278143, 0.00128259963822, 0.00111715029925, 0.013442103751, 0.013462536037, 0.0594545155764, 251658309, 0
1637149726971441499, 1465, 0, 160, 126, 0, 75, 180, 2183, 270164080, 33554432, 18205, 15990, 3, 56, 40.0068209711, 116.327946126, 50.3036111901, -9.69999980927, -0.00268043043418, 0.00256232143075, 0.00154765884962, -0.865604918011, 0.903752814222, 356.930629348, 0.0174398366362, 0.0173538345844, 0.0181039702147, 0.00128260278143, 0.00128259963822, 0.00111715029925, 0.013442103751, 0.013462536037, 0.0594545155764, 251658309, 0
1637149726976539966, 1465, 0, 160, 126, 0, 75, 180, 2183, 270164100, 33554432, 18205, 15990, 3, 56, 40.0068209717, 116.327946126, 50.3035585862, -9.69999980927, -0.00213885926764, -0.000689344502236, -0.0054208493393, -0.865283579843, 0.902250336928, 356.930934076, 0.0174398366362, 0.0173538345844, 0.0181039702147, 0.00128260278143, 0.00128259963822, 0.00111715029925, 0.013442103751, 0.013462536037, 0.0594545155764, 251658309, 0
1637149726997247590, 1465, 0, 160, 126, 0, 75, 180, 2183, 270164120, 33554432, 18205, 15990, 3, 56, 40.0068209718, 116.327946126, 50.3035948835, -9.69999980927, -0.00450234929914, 0.000983590749346, 0.000232791206753, -0.864611801462, 0.901635277099, 356.930225424, 0.0174398366362, 0.0173538345844, 0.0181039702147, 0.00128260278143, 0.00128259963822, 0.00111715029925, 0.013442103751, 0.013462536037, 0.0594545155764, 251658309, 0
1637149727017813424, 1465, 0, 160, 126, 0, 75, 180, 2183, 270164140, 33554432, 18205, 15990, 3, 56, 40.0068209724, 116.327946126, 50.3035281608, -9.69999980927, -0.00218065679361, 2.29885723983e-05, -0.00373360612739, -0.866366827316, 0.903181731882, 356.93027611, 0.0174398366362, 0.0173538345844, 0.0181039702147, 0.00128260278143, 0.00128259963822, 0.00111715029925, 0.013442103751, 0.013462536037, 0.0594545155764, 251658309, 0
1637149727036560872, 1465, 0, 160, 126, 0, 75, 180, 2183, 270164160, 33554432, 18205, 15990, 3, 56, 40.0068209725, 116.327946126, 50.3035277789, -9.69999980927, -0.00409595884452, -0.00112917400536, -0.00262619929879, -0.8655268101, 0.899333069259, 356.929352812, 0.0174398366362, 0.0173538345844, 0.0181039702147, 0.00128260278143, 0.00128259963822, 0.00111715029925, 0.013442103751, 0.013462536037, 0.0594545155764, 251658309, 0
1637149727068523287, 1465, 0, 160, 126, 0, 75, 180, 2183, 270164180, 33554432, 18205, 15990, 3, 56, 40.0068209729, 116.327946126, 50.3034862159, -9.69999980927, -0.00381656466743, 0.000668567854897, -0.00152754192131, -0.867304059875, 0.902906200725, 356.929449085, 0.0174398366362, 0.0173538345844, 0.0181039702147, 0.00128260278143, 0.00128259963822, 0.00111715029925, 0.013442103751, 0.013462536037, 0.0594545155764, 251658309, 0
1637149727076909642, 1465, 0, 160, 126, 0, 75, 180, 2183, 270164200, 33554432, 18205, 15990, 3, 56, 40.006820973, 116.327946125, 50.3034409592, -9.69999980927, -0.00392627680809, -0.0032398956606, -0.00590976421435, -0.866490717039, 0.899961370691, 356.928687388, 0.0174398366362, 0.0173538345844, 0.0181039702147, 0.00128260278143, 0.00128259963822, 0.00111715029925, 0.013442103751, 0.013462536037, 0.0594545155764, 251658309, 0
1637149727096150728, 1465, 0, 160, 126, 0, 75, 180, 2183, 270164220, 33554432, 18205, 15990, 3, 56, 40.0068209732, 116.327946125, 50.3034442533, -9.69999980927, -0.00471970116923, 0.000882526236843, -3.61071705389e-05, -0.867667660926, 0.901660145928, 356.929436132, 0.0174398366362, 0.0173538345844, 0.0181039702147, 0.00128260278143, 0.00128259963822, 0.00111715029925, 0.013442103751, 0.013462536037, 0.0594545155764, 251658309, 0
1637149727117007150, 1465, 0, 160, 126, 0, 75, 180, 2183, 270164240, 33554432, 18205, 15990, 3, 56, 40.0068209732, 116.327946125, 50.3033684483, -9.69999980927, -0.00351769103696, -0.00414513281575, -0.00752827587905, -0.86745191621, 0.900001903969, 356.928425622, 0.0174398366362, 0.0173538345844, 0.0181039702147, 0.00128260278143, 0.00128259963822, 0.00111715029925, 0.013442103751, 0.013462536037, 0.0594545155764, 251658309, 0
1637149727138084140, 1465, 0, 160, 126, 0, 75, 180, 2183, 270164260, 33554432, 18205, 15990, 3, 56, 40.0068209735, 116.327946125, 50.3034005491, -9.69999980927, -0.00375708534047, -0.000884232360447, -0.000517665636684, -0.867845347148, 0.900278199587, 356.928474112, 0.0174398366362, 0.0173538345844, 0.0181039702147, 0.00128260278143, 0.00128259963822, 0.00111715029925, 0.013442103751, 0.013462536037, 0.0594545155764, 251658309, 0
1637149727167574625, 1465, 0, 160, 126, 0, 75, 180, 2183, 270164280, 33554432, 18205, 15990, 3, 56, 40.0068209737, 116.327946124, 50.3033145247, -9.69999980927, -0.00264995057815, -0.00402954910019, -0.00729867387919, -0.868941514387, 0.901630802528, 356.928185348, 0.0174398366362, 0.0173538345844, 0.0181039702147, 0.00128260278143, 0.00128259963822, 0.00111715029925, 0.013442103751, 0.013462536037, 0.0594545155764, 251658309, 0
1637149727176808393, 1465, 0, 160, 126, 0, 75, 180, 2183, 270164300, 33554432, 18205, 15990, 3, 56, 40.0068209739, 116.327946124, 50.3033529064, -9.69999980927, -0.00336402023916, -0.00221016173672, -0.0027454509896, -0.868446038796, 0.900166115529, 356.928021769, 0.0174398366362, 0.0173538345844, 0.0181039702147, 0.00128260278143, 0.00128259963822, 0.00111715029925, 0.013442103751, 0.013462536037, 0.0594545155764, 251658309, 0
1637149727200997562, 1465, 0, 160, 126, 0, 75, 180, 2183, 270164320, 33554432, 18205, 15990, 3, 56, 40.0068209742, 116.327946124, 50.3032978214, -9.69999980927, -0.00263006917023, -0.00160708177621, -0.00460768895013, -0.870264339317, 0.901872434127, 356.928610598, 0.0174398366362, 0.0173538345844, 0.0181039702147, 0.00128260278143, 0.00128259963822, 0.00111715029925, 0.013442103751, 0.013462536037, 0.0594545155764, 251658309, 0
1637149727217079054, 1465, 0, 160, 126, 0, 75, 180, 2183, 270164340, 33554432, 18205, 15990, 3, 56, 40.0068209746, 116.327946124, 50.3033074727, -9.69999980927, -0.00214273276353, -0.00274920568244, -0.00518535614003, -0.869162880227, 0.899910949919, 356.927968598, 0.0174398366362, 0.0173538345844, 0.0181039702147, 0.00128260278143, 0.00128259963822, 0.00111715029925, 0.013442103751, 0.013462536037, 0.0594545155764, 251658309, 0
1637149727236665683, 1465, 0, 160, 126, 0, 75, 180, 2183, 270164360, 33554432, 18205, 15990, 3, 56, 40.0068209748, 116.327946124, 50.30330016, -9.69999980927, -0.00229315671228, -0.00033984636146, -0.00077932629514, -0.869659333881, 0.90259954556, 356.928758102, 0.0174398366362, 0.0173538345844, 0.0181039702147, 0.00128260278143, 0.00128259963822, 0.00111715029925, 0.013442103751, 0.013462536037, 0.0594545155764, 251658309, 0
1637149727264864629, 1465, 0, 160, 126, 0, 75, 180, 2183, 270164380, 33554432, 18205, 15990, 3, 56, 40.0068209753, 116.327946123, 50.303257497, -9.69999980927, -0.00173778846336, -0.00330635518524, -0.00673039413118, -0.868737288028, 0.900587481175, 356.928325404, 0.0174398366362, 0.0173538345844, 0.0181039702147, 0.00128260278143, 0.00128259963822, 0.00111715029925, 0.013442103751, 0.013462536037, 0.0594545155764, 251658309, 0
1637149727279144661, 1465, 0, 160, 126, 0, 75, 180, 2183, 270164400, 33554432, 18205, 15990, 3, 56, 40.0068209756, 116.327946123, 50.3032718794, -9.69999980927, -0.00214072553645, 0.000689513416836, 0.000485775234498, -0.868319111261, 0.902362280663, 356.929002983, 0.0174398366362, 0.0173538345844, 0.0181039702147, 0.00128260278143, 0.00128259963822, 0.00111715029925, 0.013442103751, 0.013462536037, 0.0594545155764, 251658309, 0
1637149727298157788, 1465, 0, 160, 126, 0, 75, 180, 2183, 270164420, 33554432, 18205, 15990, 3, 56, 40.0068209762, 116.327946123, 50.3031876506, -9.69999980927, -0.00107360915245, -0.00327690789974, -0.00664076302004, -0.869222410784, 0.90148708218, 356.928705251, 0.0174398366362, 0.0173538345844, 0.0181039702147, 0.00128260278143, 0.00128259963822, 0.00111715029925, 0.013442103751, 0.013462536037, 0.0594545155764, 251658309, 0
1637149727317769642, 1465, 0, 160, 126, 0, 75, 180, 2183, 270164440, 33554432, 18205, 15990, 3, 56, 40.0068209765, 116.327946123, 50.3032066869, -9.69999980927, -0.00199946037979, -0.000106938258026, 0.000125332743627, -0.868161001989, 0.901227616771, 356.929640841, 0.0174398366362, 0.0173538345844, 0.0181039702147, 0.00128260278143, 0.00128259963822, 0.00111715029925, 0.013442103751, 0.013462536037, 0.0594545155764, 251658309, 0
1637149727336819676, 1465, 0, 160, 126, 0, 75, 180, 2183, 270164460, 33554432, 18205, 15990, 3, 56, 40.0068209771, 116.327946122, 50.3031233791, -9.69999980927, -0.000897817464348, -0.00321165823812, -0.00429639996096, -0.87010997303, 0.902973349345, 356.929796665, 0.0174398366362, 0.0173538345844, 0.0181039702147, 0.00128260278143, 0.00128259963822, 0.00111715029925, 0.013442103751, 0.013462536037, 0.0594545155764, 251658309, 0
1637149727363970837, 1465, 0, 160, 126, 0, 75, 180, 2183, 270164480, 33554432, 18205, 15990, 3, 56, 40.0068209775, 116.327946122, 50.3031122554, -9.69999980927, -0.00131934189637, -0.00238054136448, -0.00244749300798, -0.869097174933, 0.900292632231, 356.929846158, 0.0174398366362, 0.0173538345844, 0.0181039702147, 0.00128260278143, 0.00128259963822, 0.00111715029925, 0.013442103751, 0.013462536037, 0.0594545155764, 251658309, 0
1637149727377097306, 1465, 0, 160, 126, 0, 75, 180, 2183, 270164500, 33554432, 18205, 15990, 3, 56, 40.0068209781, 116.327946121, 50.3030365249, -9.69999980927, -0.00167021867431, -0.00236349495369, -0.00299444058913, -0.870894181729, 0.902313531185, 356.931376072, 0.0174398366362, 0.0173538345844, 0.0181039702147, 0.00128260278143, 0.00128259963822, 0.00111715029925, 0.013442103751, 0.013462536037, 0.0594545155764, 251658309, 0
1637149727396829034, 1465, 0, 160, 126, 0, 75, 180, 2183, 270164520, 33554432, 18205, 15990, 3, 56, 40.0068209785, 116.32794612, 50.3029629318, -9.69999980927, -0.00098815427148, -0.00405346109176, -0.00671762263163, -0.870828724153, 0.900189763522, 356.930860027, 0.0174398366362, 0.0173538345844, 0.0181039702147, 0.00128260278143, 0.00128259963822, 0.00111715029925, 0.013442103751, 0.013462536037, 0.0594545155764, 251658309, 0
1637149727417185831, 1465, 0, 160, 126, 0, 75, 180, 2183, 270164540, 33554432, 18205, 15990, 3, 56, 40.0068209792, 116.327946119, 50.3028875086, -9.69999980927, -0.000421628906508, -0.00238312023543, -0.00397650787232, -0.872270739057, 0.904439501215, 356.932369844, 0.0174398366362, 0.0173538345844, 0.0181039702147, 0.00128260278143, 0.00128259963822, 0.00111715029925, 0.013442103751, 0.013462536037, 0.0594545155764, 251658309, 0
1637149727439000160, 1465, 0, 160, 126, 0, 75, 180, 2183, 270164560, 33554432, 18205, 15990, 3, 56, 40.00682098, 116.327946118, 50.3027331783, -9.69999980927, 0.00194976901722, -0.00626603885806, -0.0115027043404, -0.873593416089, 0.905381223411, 356.931572593, 0.0174398366362, 0.0173538345844, 0.0181039702147, 0.00128260278143, 0.00128259963822, 0.00111715029925, 0.013442103751, 0.013462536037, 0.0594545155764, 251658309, 0
1637149727469141513, 1465, 0, 160, 126, 0, 75, 180, 2183, 270164580, 33554432, 18205, 15990, 3, 56, 40.0068209812, 116.327946118, 50.3026371561, -9.69999980927, 0.00317392713035, -0.00192841789226, -0.00657026639681, -0.874947437468, 0.909423311229, 356.931444555, 0.0174398366362, 0.0173538345844, 0.0181039702147, 0.00128260278143, 0.00128259963822, 0.00111715029925, 0.013442103751, 0.013462536037, 0.0594545155764, 251658309, 0
1637149727480478001, 1465, 0, 160, 126, 0, 75, 180, 2183, 270164600, 33554432, 18205, 15990, 3, 56, 40.0068209828, 116.327946117, 50.3023895472, -9.69999980927, 0.00691718886015, -0.00623209911921, -0.0163531849073, -0.878001639686, 0.91385261637, 356.930478353, 0.0174398366362, 0.0173538345844, 0.0181039702147, 0.00128260278143, 0.00128259963822, 0.00111715029925, 0.013442103751, 0.013462536037, 0.0594545155764, 251658309, 0
1637149727497365786, 1465, 0, 160, 126, 0, 75, 180, 2183, 270164620, 33554432, 18205, 15990, 3, 56, 40.0068209854, 116.327946116, 50.3022229113, -9.69999980927, 0.0127316198842, -0.00132089303636, -0.0121518759579, -0.881003753572, 0.918489868217, 356.928439165, 0.0174398366362, 0.0173538345844, 0.0181039702147, 0.00128260278143, 0.00128259963822, 0.00111715029925, 0.013442103751, 0.013462536037, 0.0594545155764, 251658309, 0
1637149727517832931, 1465, 0, 160, 126, 0, 75, 180, 2183, 270164640, 33554432, 18205, 15990, 3, 56, 40.0068209891, 116.327946115, 50.3018899458, -9.69999980927, 0.0207814074292, -0.00609032335768, -0.0199979522085, -0.885368093712, 0.927729795545, 356.92556683, 0.0174398366362, 0.0173538345844, 0.0181039702147, 0.00128260278143, 0.00128259963822, 0.00111715029925, 0.013442103751, 0.013462536037, 0.0594545155764, 251658309, 0
1637149727536854621, 1465, 0, 160, 126, 0, 75, 180, 2183, 270164660, 33554432, 18205, 15990, 3, 56, 40.0068209947, 116.327946115, 50.3016310455, -9.69999980927, 0.0318635592517, -0.00261885558229, -0.0180971036358, -0.889120179893, 0.935295640822, 356.923659065, 0.0174398366362, 0.0173538345844, 0.0181039702147, 0.00128260278143, 0.00128259963822, 0.00111715029925, 0.013442103751, 0.013462536037, 0.0594545155764, 251658309, 0
1637149727600903184, 1465, 0, 160, 126, 0, 75, 180, 2183, 270164680, 33554432, 18205, 15990, 3, 56, 40.0068210017, 116.327946113, 50.3012684043, -9.69999980927, 0.0405584247864, -0.00935314241355, -0.0199522720439, -0.892829913029, 0.94708548146, 356.920937751, 0.0174398366362, 0.0173538345844, 0.0181039702147, 0.00128260278143, 0.00128259963822, 0.00111715029925, 0.013442103751, 0.013462536037, 0.0594545155764, 251658309, 0
1637149727600918779, 1465, 0, 160, 126, 0, 75, 180, 2183, 270164700, 33554432, 18205, 15990, 3, 56, 40.0068210113, 116.327946112, 50.3009323245, -9.69999980927, 0.0555062809895, -0.00591394721848, -0.021253500346, -0.896884895188, 0.957414237021, 356.918470821, 0.0174398366362, 0.0173538345844, 0.0181039702147, 0.00128260278143, 0.00128259963822, 0.00111715029925, 0.013442103751, 0.013462536037, 0.0594545155764, 251658309, 0
1637149727600947565, 1465, 0, 160, 126, 0, 75, 180, 2183, 270164720, 33554432, 18205, 15990, 3, 56, 40.0068210229, 116.327946109, 50.3005976751, -9.69999980927, 0.0673122104128, -0.0157392582213, -0.0167603953694, -0.901591897605, 0.969285396691, 356.917830486, 0.0174398366362, 0.0173538345844, 0.0181039702147, 0.00128260278143, 0.00128259963822, 0.00111715029925, 0.013442103751, 0.013462536037, 0.0594545155764, 251658309, 0
1637149727617166349, 1465, 0, 160, 126, 0, 75, 180, 2183, 270164740, 33554432, 18205, 15990, 3, 56, 40.0068210371, 116.327946107, 50.3002571305, -9.69999980927, 0.0822076537649, -0.0105630355926, -0.0194821437829, -0.906423106467, 0.978397255661, 356.917490868, 0.0174398366362, 0.0173538345844, 0.0181039702147, 0.00128260278143, 0.00128259963822, 0.00111715029925, 0.013442103751, 0.013462536037, 0.0594545155764, 251658309, 0
1637149727639667570, 1465, 0, 160, 126, 0, 75, 180, 2183, 270164760, 33554432, 18205, 15990, 3, 56, 40.0068210537, 116.327946103, 50.2999957651, -9.69999980927, 0.0961681829863, -0.0207229451056, -0.0123212537816, -0.913664369478, 0.988940088232, 356.91938789, 0.0174398366362, 0.0173538345844, 0.0181039702147, 0.00128260278143, 0.00128259963822, 0.00111715029925, 0.013442103751, 0.013462536037, 0.0594545155764, 251658309, 0
1637149727657944424, 1465, 0, 160, 126, 0, 75, 180, 2183, 270164780, 33554432, 18205, 15990, 3, 56, 40.0068210731, 116.3279461, 50.2997014681, -9.69999980927, 0.110773278787, -0.0157939587027, -0.0153567069268, -0.919634849612, 0.996263604351, 356.920602716, 0.0174398366362, 0.0173538345844, 0.0181039702147, 0.00128260278143, 0.00128259963822, 0.00111715029925, 0.013442103751, 0.013462536037, 0.0594545155764, 251658309, 0
1637149727676505727, 1465, 0, 160, 126, 0, 75, 180, 2183, 270164800, 33554432, 18205, 15990, 3, 56, 40.0068210949, 116.327946095, 50.2995159561, -9.69999980927, 0.12574620386, -0.0206225380851, -0.0087351048735, -0.927442881125, 1.00272326255, 356.923458182, 0.0174398366362, 0.0173538345844, 0.0181039702147, 0.00128260278143, 0.00128259963822, 0.00111715029925, 0.013442103751, 0.013462536037, 0.0594545155764, 251658309, 0
1637149727697342509, 1465, 0, 160, 126, 0, 75, 180, 2183, 270164820, 33554432, 18205, 15990, 3, 56, 40.0068211197, 116.327946092, 50.2993097603, -9.69999980927, 0.140897094279, -0.019996950578, -0.00926444864323, -0.934162541055, 1.00805351349, 356.925383025, 0.0174398366362, 0.0173538345844, 0.0181039702147, 0.00128260278143, 0.00128259963822, 0.00111715029925, 0.013442103751, 0.013462536037, 0.0594545155764, 251658309, 0
1637149727718434592, 1465, 0, 160, 126, 0, 75, 180, 2183, 270164840, 33554432, 18205, 15990, 3, 56, 40.0068211469, 116.327946087, 50.2991899988, -9.69999980927, 0.156736477669, -0.0182471675263, -0.00638227168243, -0.942631627421, 1.01086192742, 356.928229091, 0.0174398366362, 0.0173538345844, 0.0181039702147, 0.00128260278143, 0.00128259963822, 0.00111715029925, 0.013442103751, 0.013462536037, 0.0594545155764, 251658309, 0
1637149727736585727, 1465, 0, 160, 126, 0, 75, 180, 2183, 270164860, 33554432, 18205, 15990, 3, 56, 40.0068211771, 116.327946083, 50.2990955273, -9.69999980927, 0.170976439736, -0.0216072951111, -0.00301050949159, -0.947329799647, 1.01367763191, 356.929770672, 0.0174398366362, 0.0173538345844, 0.0181039702147, 0.00128260278143, 0.00128259963822, 0.00111715029925, 0.013442103751, 0.013462536037, 0.0594545155764, 251658309, 0
1637149727762701468, 1465, 0, 160, 126, 0, 75, 180, 2183, 270164880, 33554432, 18205, 15990, 3, 56, 40.0068212099, 116.32794608, 50.2990128985, -9.69999980927, 0.187353334429, -0.0131683037697, -0.00577224091722, -0.954711892895, 1.01313347264, 356.932360304, 0.0174398366362, 0.0173538345844, 0.0181039702147, 0.00128260278143, 0.00128259963822, 0.00111715029925, 0.013442103751, 0.013462536037, 0.0594545155764, 251658309, 0
1637149727776728518, 1465, 0, 160, 126, 0, 75, 180, 2183, 270164900, 33554432, 18205, 15990, 3, 56, 40.0068212455, 116.327946076, 50.2990143793, -9.69999980927, 0.201383547689, -0.020415805294, 0.000887172201083, -0.960102584103, 1.01391541388, 356.932960864, 0.0174398366362, 0.0173538345844, 0.0181039702147, 0.00128260278143, 0.00128259963822, 0.00111715029925, 0.013442103751, 0.013462536037, 0.0594545155764, 251658309, 0
1637149727797006798, 1465, 0, 160, 126, 0, 75, 180, 2183, 270164920, 33554432, 18205, 15990, 3, 56, 40.0068212837, 116.327946073, 50.2989399163, -9.69999980927, 0.217057882499, -0.00847097487578, -0.00582915672672, -0.965336433639, 1.0122019429, 356.934370672, 0.0174398366362, 0.0173538345844, 0.0181039702147, 0.00128260278143, 0.00128259963822, 0.00111715029925, 0.013442103751, 0.013462536037, 0.0594545155764, 251658309, 0
1637149727818276920, 1465, 0, 160, 126, 0, 75, 180, 2183, 270164940, 33554432, 18205, 15990, 3, 56, 40.0068213245, 116.327946069, 50.2989888592, -9.69999980927, 0.231374661378, -0.0179913651852, 0.00107582781058, -0.971097030466, 1.01018324203, 356.934780626, 0.0174398366362, 0.0173538345844, 0.0181039702147, 0.00128260278143, 0.00128259963822, 0.00111715029925, 0.013442103751, 0.013462536037, 0.0594545155764, 251658309, 0
1637149727837252573, 1465, 0, 160, 126, 0, 75, 180, 2183, 270164960, 33554432, 18205, 15990, 3, 56, 40.0068213681, 116.327946067, 50.2989266813, -9.69999980927, 0.247543088372, -0.00898307288365, -0.00496819232274, -0.974472321773, 1.00569551416, 356.934536632, 0.0174398366362, 0.0173538345844, 0.0181039702147, 0.00128260278143, 0.00128259963822, 0.00111715029925, 0.013442103751, 0.013462536037, 0.0594545155764, 251658309, 0
1637149727865865368, 1465, 0, 160, 126, 0, 75, 180, 2183, 270164980, 33554432, 18205, 15990, 3, 56, 40.0068214145, 116.327946063, 50.2989754081, -9.69999980927, 0.26196425944, -0.0146510358709, -0.000954580262099, -0.981184778416, 1.00195255309, 356.935243341, 0.0174398366362, 0.0173538345844, 0.0181039702147, 0.00128260278143, 0.00128259963822, 0.00111715029925, 0.013442103751, 0.013462536037, 0.0594545155764, 251658309, 0
1637149727884203386, 1465, 0, 160, 126, 0, 75, 180, 2183, 270165000, 33554432, 18205, 15990, 3, 56, 40.0068214633, 116.327946059, 50.2989414148, -9.69999980927, 0.276288826376, -0.0146987771389, -0.00241440814348, -0.985662198941, 0.999822639534, 356.93419036, 0.0174398366362, 0.0173538345844, 0.0181039702147, 0.00128260278143, 0.00128259963822, 0.00111715029925, 0.013442103751, 0.013462536037, 0.0594545155764, 251658309, 0
1637149727899236201, 1465, 0, 160, 126, 0, 75, 180, 2183, 270165020, 33554432, 18205, 15990, 3, 56, 40.006821515, 116.327946056, 50.298950281, -9.69999980927, 0.291436473947, -0.0118133187261, -0.00374558025156, -0.992429906997, 0.993287185255, 356.935301201, 0.0205229185522, 0.0204502381384, 0.0210958179086, 0.00914729014039, 0.00914446823299, 0.00885082036257, 0.0155599992722, 0.0155800851062, 0.0600453428924, 251658309, 0
1637149727916405178, 1465, 0, 160, 126, 0, 75, 180, 2183, 270165040, 33554432, 18205, 15990, 3, 56, 40.0068215691, 116.327946052, 50.2989245402, -9.69999980927, 0.306374231284, -0.021510654421, -0.000665618919381, -0.998364884714, 0.990212978918, 356.934594004, 0.0190414339304, 0.0189609751105, 0.0196809116751, 0.00903945509344, 0.00903520360589, 0.00875312369317, 0.0155597627163, 0.0155799128115, 0.0600450411439, 251666497, 0
1637149727936734419, 1465, 0, 160, 126, 0, 75, 180, 2183, 270165060, 33554432, 18205, 15990, 3, 56, 40.0068216259, 116.327946048, 50.2988444259, -9.69999980927, 0.321920007561, -0.0144441175568, -0.00614760463753, -1.0060239078, 0.983541042186, 356.936472353, 0.0190414339304, 0.0189609751105, 0.0196809116751, 0.00903945509344, 0.00903520360589, 0.00875312369317, 0.0155597627163, 0.0155799128115, 0.0600450411439, 251666497, 0
1637149727973115158, 1465, 0, 160, 126, 0, 77, 180, 2183, 270165080, 33554432, 18205, 15990, 3, 56, 40.0068216852, 116.327946042, 50.2988181468, -9.69999980927, 0.336291358084, -0.0282631037677, -3.94116788505e-05, -1.01431532898, 0.979346948878, 356.938394473, 0.0190414339304, 0.0189609751105, 0.0196809116751, 0.00903945509344, 0.00903520360589, 0.00875312369317, 0.0155597627163, 0.0155799128115, 0.0600450411439, 251666497, 0
1637149727976421905, 1465, 0, 160, 126, 0, 77, 180, 2183, 270165100, 33554432, 18205, 15990, 3, 56, 40.0068217476, 116.327946037, 50.2986914534, -9.69999980927, 0.353056581417, -0.0220937741613, -0.00643258267366, -1.02329043606, 0.972962321221, 356.941242166, 0.0190414339304, 0.0189609751105, 0.0196809116751, 0.00903945509344, 0.00903520360589, 0.00875312369317, 0.0155597627163, 0.0155799128115, 0.0600450411439, 251666497, 0
1637149727997583126, 1465, 0, 160, 126, 0, 77, 180, 2183, 270165120, 33554432, 18205, 15990, 3, 56, 40.0068218127, 116.32794603, 50.2986326423, -9.69999980927, 0.368221493585, -0.0345436062195, -0.00265375055344, -1.03462626173, 0.966882345319, 356.9457964, 0.0190414339304, 0.0189609751105, 0.0196809116751, 0.00903945509344, 0.00903520360589, 0.00875312369317, 0.0155597627163, 0.0155799128115, 0.0600450411439, 251666497, 0
1637149728016931731, 1465, 0, 160, 126, 0, 77, 180, 2183, 270165140, 33554432, 18205, 15990, 3, 56, 40.0068218808, 116.327946023, 50.2984901303, -9.69999980927, 0.385602881836, -0.0334376068882, -0.00560661872886, -1.0462506635, 0.961063574123, 356.950310399, 0.0190414339304, 0.0189609751105, 0.0196809116751, 0.00903945509344, 0.00903520360589, 0.00875312369317, 0.0155597627163, 0.0155799128115, 0.0600450411439, 251666497, 0
1637149728037250862, 1465, 0, 160, 126, 0, 77, 180, 2183, 270165160, 33554432, 18205, 15990, 3, 56, 40.0068219519, 116.327946014, 50.2983868625, -9.69999980927, 0.402901747478, -0.0395486249109, -0.00570172746153, -1.06251802603, 0.953495058121, 356.957598659, 0.0190414339304, 0.0189609751105, 0.0196809116751, 0.00903945509344, 0.00903520360589, 0.00875312369317, 0.0155597627163, 0.0155799128115, 0.0600450411439, 251666497, 0
1637149728072683861, 1465, 0, 160, 126, 0, 77, 180, 2183, 270165180, 33554432, 18205, 15990, 3, 56, 40.0068220262, 116.327946005, 50.2982330639, -9.69999980927, 0.420083615205, -0.0472517997329, -0.00517487588411, -1.08010557596, 0.946152015128, 356.964168798, 0.0190414339304, 0.0189609751105, 0.0196809116751, 0.00903945509344, 0.00903520360589, 0.00875312369317, 0.0155597627163, 0.0155799128115, 0.0600450411439, 251666497, 0
1637149728076871946, 1465, 0, 160, 126, 0, 77, 180, 2183, 270165200, 33554432, 18205, 15990, 3, 56, 40.0068221037, 116.327945994, 50.2980683893, -9.69999980927, 0.439502508773, -0.0456736135527, -0.00959080887186, -1.10181600873, 0.935065070806, 356.974828789, 0.0190414339304, 0.0189609751105, 0.0196809116751, 0.00903945509344, 0.00903520360589, 0.00875312369317, 0.0155597627163, 0.0155799128115, 0.0600450411439, 251666497, 0
1637149728096383299, 1465, 0, 160, 126, 0, 77, 180, 2183, 270165220, 33554432, 18205, 15990, 3, 56, 40.0068221843, 116.327945982, 50.2979135225, -9.69999980927, 0.455382776298, -0.0597870889378, -0.00598072827023, -1.12533961006, 0.927338288912, 356.985146389, 0.0190414339304, 0.0189609751105, 0.0196809116751, 0.00903945509344, 0.00903520360589, 0.00875312369317, 0.0155597627163, 0.0155799128115, 0.0600450411439, 251666497, 0
1637149728117770869, 1465, 0, 160, 126, 0, 77, 180, 2183, 270165240, 33554432, 18205, 15990, 3, 56, 40.0068222685, 116.327945969, 50.2977000438, -9.69999980927, 0.476932277335, -0.0508089042693, -0.0122842265562, -1.15184948189, 0.917682407194, 356.998771269, 0.0190414339304, 0.0189609751105, 0.0196809116751, 0.00903945509344, 0.00903520360589, 0.00875312369317, 0.0155597627163, 0.0155799128115, 0.0600450411439, 251666497, 0
1637149728138028907, 1465, 0, 160, 126, 0, 77, 180, 2183, 270165260, 33554432, 18205, 15990, 3, 56, 40.0068223558, 116.327945954, 50.2975539109, -9.69999980927, 0.493964425555, -0.0669359329999, -0.00712101414477, -1.18034620023, 0.906731499078, 357.01517044, 0.0190414339304, 0.0189609751105, 0.0196809116751, 0.00903945509344, 0.00903520360589, 0.00875312369317, 0.0155597627163, 0.0155799128115, 0.0600450411439, 251666497, 0
1637149728171762893, 1465, 0, 160, 126, 0, 77, 180, 2183, 270165280, 33554432, 18205, 15990, 3, 56, 40.0068224467, 116.32794594, 50.297298532, -9.69999980927, 0.513243857686, -0.0589263214078, -0.0138905215663, -1.21027752397, 0.89715203434, 357.032621235, 0.0190414339304, 0.0189609751105, 0.0196809116751, 0.00903945509344, 0.00903520360589, 0.00875312369317, 0.0155597627163, 0.0155799128115, 0.0600450411439, 251666497, 0
1637149728177040606, 1465, 0, 160, 126, 0, 77, 180, 2183, 270165300, 33554432, 18205, 15990, 3, 56, 40.006822541, 116.327945924, 50.2971271025, -9.69999980927, 0.533065166143, -0.0683696185241, -0.010233188255, -1.24331670367, 0.884552007595, 357.055016958, 0.0190414339304, 0.0189609751105, 0.0196809116751, 0.00903945509344, 0.00903520360589, 0.00875312369317, 0.0155597627163, 0.0155799128115, 0.0600450411439, 251666497, 0
1637149728198359968, 1465, 0, 160, 126, 0, 77, 180, 2183, 270165320, 33554432, 18205, 15990, 3, 56, 40.0068226386, 116.327945909, 50.2968713557, -9.69999980927, 0.55072051559, -0.0655199356403, -0.0126981007673, -1.27592290666, 0.873879703849, 357.077045808, 0.0190414339304, 0.0189609751105, 0.0196809116751, 0.00903945509344, 0.00903520360589, 0.00875312369317, 0.0155597627163, 0.0155799128115, 0.0600450411439, 251666497, 0
1637149728216295981, 1465, 0, 160, 126, 0, 77, 180, 2183, 270165340, 33554432, 18205, 15990, 3, 56, 40.0068227399, 116.327945892, 50.2966551287, -9.69999980927, 0.57184583627, -0.0644816993587, -0.0133542365754, -1.31203718939, 0.861163186191, 357.104833123, 0.0190414339304, 0.0189609751105, 0.0196809116751, 0.00903945509344, 0.00903520360589, 0.00875312369317, 0.0155597627163, 0.0155799128115, 0.0600450411439, 251666497, 0
1637149728236785209, 1465, 0, 160, 126, 0, 77, 180, 2183, 270165360, 33554432, 18205, 15990, 3, 56, 40.0068228445, 116.327945877, 50.2964215465, -9.69999980927, 0.588901367543, -0.0652867077623, -0.0104838242517, -1.34408988669, 0.851572948983, 357.131333868, 0.0190414339304, 0.0189609751105, 0.0196809116751, 0.00903945509344, 0.00903520360589, 0.00875312369317, 0.0155597627163, 0.0155799128115, 0.0600450411439, 251666497, 0
1637149728268421082, 1465, 0, 160, 126, 0, 77, 180, 2183, 270165380, 33554432, 18205, 15990, 3, 56, 40.0068229525, 116.327945863, 50.2961574858, -9.69999980927, 0.608154861279, -0.0540052608095, -0.0156901085409, -1.37425480541, 0.838565157957, 357.162112091, 0.0190414339304, 0.0189609751105, 0.0196809116751, 0.00903945509344, 0.00903520360589, 0.00875312369317, 0.0155597627163, 0.0155799128115, 0.0600450411439, 251666497, 0
1637149728276679274, 1465, 0, 160, 126, 0, 77, 180, 2183, 270165400, 33554432, 18205, 15990, 3, 56, 40.0068230636, 116.327945849, 50.2959397659, -9.69999980927, 0.624282991938, -0.0604848960105, -0.00926775028507, -1.40145484259, 0.828314481733, 357.192229121, 0.0190414339304, 0.0189609751105, 0.0196809116751, 0.00903945509344, 0.00903520360589, 0.00875312369317, 0.0155597627163, 0.0155799128115, 0.0600450411439, 251666497, 0
1637149728297692540, 1465, 0, 160, 126, 0, 77, 180, 2183, 270165420, 33554432, 18205, 15990, 3, 56, 40.006823178, 116.327945838, 50.2956646634, -9.69999980927, 0.643462829623, -0.0442033309789, -0.014074155505, -1.42858007198, 0.815214914201, 357.224706963, 0.0190414339304, 0.0189609751105, 0.0196809116751, 0.00903945509344, 0.00903520360589, 0.00875312369317, 0.0155597627163, 0.0155799128115, 0.0600450411439, 251666497, 0
1637149728317717893, 1465, 0, 160, 126, 0, 77, 180, 2183, 270165440, 33554432, 18205, 15990, 3, 56, 40.0068232952, 116.327945825, 50.2955080755, -9.69999980927, 0.657983500168, -0.0538674745377, -0.00551380258166, -1.45380417237, 0.803175704464, 357.257253285, 0.0190414339304, 0.0189609751105, 0.0196809116751, 0.00903945509344, 0.00903520360589, 0.00875312369317, 0.0155597627163, 0.0155799128115, 0.0600450411439, 251666497, 0
1637149728336488523, 1465, 0, 160, 126, 0, 77, 180, 2183, 270165460, 33554432, 18205, 15990, 3, 56, 40.0068234157, 116.327945816, 50.2952845087, -9.69999980927, 0.675836863609, -0.0363812622645, -0.00918354834953, -1.47859353876, 0.788908002356, 357.291301385, 0.0190414339304, 0.0189609751105, 0.0196809116751, 0.00903945509344, 0.00903520360589, 0.00875312369317, 0.0155597627163, 0.0155799128115, 0.0600450411439, 251666497, 0
1637149728365611448, 1465, 0, 160, 126, 0, 77, 180, 2183, 270165480, 33554432, 18205, 15990, 3, 56, 40.0068235385, 116.327945807, 50.2952113897, -9.69999980927, 0.688820841539, -0.0366734214888, -0.00174964850023, -1.49869752751, 0.771487418265, 357.326785175, 0.0190414339304, 0.0189609751105, 0.0196809116751, 0.00903945509344, 0.00903520360589, 0.00875312369317, 0.0155597627163, 0.0155799128115, 0.0600450411439, 251666497, 0
1637149728377119558, 1465, 0, 160, 126, 0, 77, 180, 2183, 270165500, 33554432, 18205, 15990, 3, 56, 40.0068236635, 116.327945801, 50.2950975941, -9.69999980927, 0.697841377651, -0.0206684396801, -0.0013610732344, -1.51047403339, 0.756085566272, 357.359468603, 0.0190414339304, 0.0189609751105, 0.0196809116751, 0.00903945509344, 0.00903520360589, 0.00875312369317, 0.0155597627163, 0.0155799128115, 0.0600450411439, 251666497, 0
1637149728396417318, 1465, 0, 160, 126, 0, 77, 180, 2183, 270165520, 33554432, 18205, 15990, 3, 56, 40.0068237902, 116.327945797, 50.2951202057, -9.69999980927, 0.707926397862, -0.0147100995323, 0.00262493018891, -1.51731984184, 0.738015359524, 357.397317908, 0.0190414339304, 0.0189609751105, 0.0196809116751, 0.00903945509344, 0.00903520360589, 0.00875312369317, 0.0155597627163, 0.0155799128115, 0.0600450411439, 251666497, 0
1637149728416899335, 1465, 0, 160, 126, 0, 77, 180, 2183, 270165540, 33554432, 18205, 15990, 3, 56, 40.0068239188, 116.327945796, 50.295152735, -9.69999980927, 0.717615346128, -0.00361099437274, 0.0059322390654, -1.51296874674, 0.722560359528, 357.434225531, 0.0190414339304, 0.0189609751105, 0.0196809116751, 0.00903945509344, 0.00903520360589, 0.00875312369317, 0.0155597627163, 0.0155799128115, 0.0600450411439, 251666497, 0
1637149728437713193, 1465, 0, 160, 126, 0, 77, 180, 2183, 270165560, 33554432, 18205, 15990, 3, 56, 40.0068240488, 116.327945796, 50.2952445829, -9.69999980927, 0.726384132551, 0.00517848607138, 0.00454625709049, -1.50535958586, 0.706066373507, 357.474867303, 0.0190414339304, 0.0189609751105, 0.0196809116751, 0.00903945509344, 0.00903520360589, 0.00875312369317, 0.0155597627163, 0.0155799128115, 0.0600450411439, 251666497, 0
1637149728462912449, 1465, 0, 160, 126, 0, 77, 180, 2183, 270165580, 33554432, 18205, 15990, 3, 56, 40.0068241801, 116.327945798, 50.2953630751, -9.69999980927, 0.731837970717, 0.0058881117196, 0.00891748124084, -1.48975481394, 0.693002697062, 357.516445768, 0.0190414339304, 0.0189609751105, 0.0196809116751, 0.00903945509344, 0.00903520360589, 0.00875312369317, 0.0155597627163, 0.0155799128115, 0.0600450411439, 251666497, 0
1637149728476890247, 1465, 0, 160, 126, 0, 77, 180, 2183, 270165600, 33554432, 18205, 15990, 3, 56, 40.0068243131, 116.3279458, 50.2954711644, -9.69999980927, 0.742646190442, 0.0149519419678, 0.00491429157912, -1.47940784616, 0.679289786248, 357.56202063, 0.0190414339304, 0.0189609751105, 0.0196809116751, 0.00903945509344, 0.00903520360589, 0.00875312369317, 0.0155597627163, 0.0155799128115, 0.0600450411439, 251666497, 0
1637149728497517003, 1465, 0, 160, 126, 0, 77, 180, 2183, 270165620, 33554432, 18205, 15990, 3, 56, 40.0068244473, 116.327945803, 50.2956302259, -9.69999980927, 0.747186133943, 0.00830395664639, 0.00936859739476, -1.46426534575, 0.668023896654, 357.612170166, 0.0190414339304, 0.0189609751105, 0.0196809116751, 0.00903945509344, 0.00903520360589, 0.00875312369317, 0.0155597627163, 0.0155799128115, 0.0600450411439, 251666497, 0
1637149728516473827, 1465, 0, 160, 126, 0, 77, 180, 2183, 270165640, 33554432, 18205, 15990, 3, 56, 40.0068245829, 116.327945807, 50.2956814598, -9.69999980927, 0.75666061511, 0.0215810526292, 0.000794767373151, -1.45302140446, 0.658691802069, 357.665533405, 0.0190414339304, 0.0189609751105, 0.0196809116751, 0.00903945509344, 0.00903520360589, 0.00875312369317, 0.0155597627163, 0.0155799128115, 0.0600450411439, 251666497, 0
1637149728537244926, 1465, 0, 160, 126, 0, 77, 180, 2183, 270165660, 33554432, 18205, 15990, 3, 56, 40.0068247201, 116.32794581, 50.2958107451, -9.69999980927, 0.765398487356, 0.0104643805242, 0.00539578869629, -1.44081702254, 0.653374086427, 357.723291761, 0.0190414339304, 0.0189609751105, 0.0196809116751, 0.00903945509344, 0.00903520360589, 0.00875312369317, 0.0155597627163, 0.0155799128115, 0.0600450411439, 251666497, 0
1637149728570850922, 1465, 0, 160, 126, 0, 77, 180, 2183, 270165680, 33554432, 18205, 15990, 3, 56, 40.0068248588, 116.327945815, 50.2957773078, -9.69999980927, 0.774195906108, 0.0254405758036, -0.0038869102202, -1.42630477122, 0.651772185633, 357.785312714, 0.0190414339304, 0.0189609751105, 0.0196809116751, 0.00903945509344, 0.00903520360589, 0.00875312369317, 0.0155597627163, 0.0155799128115, 0.0600450411439, 251666497, 0
1637149728576093074, 1465, 0, 160, 126, 0, 77, 180, 2183, 270165700, 33554432, 18205, 15990, 3, 56, 40.0068249993, 116.327945818, 50.2957876157, -9.69999980927, 0.785352390813, 0.0153325409601, -0.00265149131328, -1.41030207786, 0.652528261171, 357.854983339, 0.0190414339304, 0.0189609751105, 0.0196809116751, 0.00903945509344, 0.00903520360589, 0.00875312369317, 0.0155597627163, 0.0155799128115, 0.0600450411439, 251666497, 0
1637149728597579202, 1465, 0, 160, 126, 0, 77, 180, 2183, 270165720, 33554432, 18205, 15990, 3, 56, 40.0068251417, 116.327945822, 50.2956598485, -9.69999980927, 0.795121940772, 0.0196463853345, -0.0074557391686, -1.39567179257, 0.655086627179, 357.925078242, 0.0190414339304, 0.0189609751105, 0.0196809116751, 0.00903945509344, 0.00903520360589, 0.00875312369317, 0.0155597627163, 0.0155799128115, 0.0600450411439, 251666497, 0
1637149728617402881, 1465, 0, 160, 126, 0, 77, 180, 2183, 270165740, 33554432, 18205, 15990, 3, 56, 40.0068252863, 116.327945826, 50.2955066152, -9.69999980927, 0.80829689704, 0.0209905342216, -0.0113011533038, -1.38169239544, 0.659380985901, 358.000948564, 0.0190414339304, 0.0189609751105, 0.0196809116751, 0.00903945509344, 0.00903520360589, 0.00875312369317, 0.0155597627163, 0.0155799128115, 0.0600450411439, 251666497, 0
1637149728637174412, 1465, 0, 160, 126, 0, 77, 180, 2183, 270165760, 33554432, 18205, 15990, 3, 56, 40.0068254331, 116.32794583, 50.2953189053, -9.69999980927, 0.820552714705, 0.0175781604528, -0.0088474831533, -1.3641648557, 0.666855743842, 358.077157158, 0.0190414339304, 0.0189609751105, 0.0196809116751, 0.00903945509344, 0.00903520360589, 0.00875312369317, 0.0155597627163, 0.0155799128115, 0.0600450411439, 251666497, 0
1637149728667433569, 1465, 0, 160, 126, 0, 77, 180, 2183, 270165780, 33554432, 18205, 15990, 3, 56, 40.0068255823, 116.327945836, 50.295068685, -9.69999980927, 0.834285797107, 0.02785427061, -0.0149025025376, -1.3467403433, 0.671022626263, 358.155599914, 0.0190414339304, 0.0189609751105, 0.0196809116751, 0.00903945509344, 0.00903520360589, 0.00875312369317, 0.0155597627163, 0.0155799128115, 0.0600450411439, 251666497, 0
1637149728677060521, 1465, 0, 160, 126, 0, 77, 180, 2183, 270165800, 33554432, 18205, 15990, 3, 56, 40.0068257341, 116.32794584, 50.2948849313, -9.69999980927, 0.849090875461, 0.0191534691323, -0.00764449263629, -1.32814652778, 0.6763997073, 358.234002513, 0.0190414339304, 0.0189609751105, 0.0196809116751, 0.00903945509344, 0.00903520360589, 0.00875312369317, 0.0155597627163, 0.0155799128115, 0.0600450411439, 251666497, 0
1637149728696909885, 1465, 0, 160, 126, 0, 77, 180, 2183, 270165820, 33554432, 18205, 15990, 3, 56, 40.0068258882, 116.327945847, 50.294628405, -9.69999980927, 0.860770599829, 0.027506100817, -0.0122796617889, -1.31072407624, 0.67836671025, 358.313614056, 0.0190414339304, 0.0189609751105, 0.0196809116751, 0.00903945509344, 0.00903520360589, 0.00875312369317, 0.0155597627163, 0.0155799128115, 0.0600450411439, 251666497, 0
1637149728717024998, 1465, 0, 160, 126, 0, 77, 180, 2183, 270165840, 33554432, 18205, 15990, 3, 56, 40.0068260447, 116.327945852, 50.2944453796, -9.69999980927, 0.875550406469, 0.0214381204828, -0.00790194729143, -1.30016550804, 0.682361062602, 358.392099395, 0.0190414339304, 0.0189609751105, 0.0196809116751, 0.00903945509344, 0.00903520360589, 0.00875312369317, 0.0155597627163, 0.0155799128115, 0.0600450411439, 251666497, 0
1637149728737709166, 1465, 0, 160, 126, 0, 77, 180, 2183, 270165860, 33554432, 18205, 15990, 3, 56, 40.0068262039, 116.327945858, 50.2942610523, -9.69999980927, 0.889347482146, 0.0212173863975, -0.00707948262082, -1.28994971029, 0.683732921745, 358.471054788, 0.0190414339304, 0.0189609751105, 0.0196809116751, 0.00903945509344, 0.00903520360589, 0.00875312369317, 0.0155597627163, 0.0155799128115, 0.0600450411439, 251666497, 0
1637149728758258924, 1465, 0, 160, 126, 0, 77, 180, 2183, 270165880, 33554432, 18205, 15990, 3, 56, 40.0068263655, 116.327945864, 50.2941334965, -9.69999980927, 0.903479908445, 0.0272486323682, -0.00576106386835, -1.28247078377, 0.680081310821, 358.552711597, 0.0190414339304, 0.0189609751105, 0.0196809116751, 0.00903945509344, 0.00903520360589, 0.00875312369317, 0.0155597627163, 0.0155799128115, 0.0600450411439, 251666497, 0
1637149728776968101, 1465, 0, 160, 126, 0, 77, 180, 2183, 270165900, 33554432, 18205, 15990, 3, 56, 40.0068265296, 116.327945869, 50.2940559266, -9.69999980927, 0.916716751234, 0.0187394817011, -0.00185661783812, -1.27649155701, 0.679404624827, 358.636022612, 0.0190414339304, 0.0189609751105, 0.0196809116751, 0.00903945509344, 0.00903520360589, 0.00875312369317, 0.0155597627163, 0.0155799128115, 0.0600450411439, 251666497, 0
1637149728797888343, 1465, 0, 160, 126, 0, 77, 180, 2183, 270165920, 33554432, 18205, 15990, 3, 56, 40.0068266955, 116.327945876, 50.2939681206, -9.69999980927, 0.925380372393, 0.0342025322989, -0.00385824943734, -1.26700932719, 0.677388129236, 358.722419516, 0.0190414339304, 0.0189609751105, 0.0196809116751, 0.00903945509344, 0.00903520360589, 0.00875312369317, 0.0155597627163, 0.0155799128115, 0.0600450411439, 251666497, 0
1637149728816431393, 1465, 0, 160, 126, 0, 77, 180, 2183, 270165940, 33554432, 18205, 15990, 3, 56, 40.0068268636, 116.327945881, 50.2939419718, -9.69999980927, 0.940160764475, 0.0223229462698, -0.00121374099688, -1.25892820574, 0.675671695184, 358.812320534, 0.0190414339304, 0.0189609751105, 0.0196809116751, 0.00903945509344, 0.00903520360589, 0.00875312369317, 0.0155597627163, 0.0155799128115, 0.0600450411439, 251666497, 0
1637149728837813052, 1465, 0, 160, 126, 0, 77, 180, 2183, 270165960, 33554432, 18205, 15990, 3, 56, 40.0068270344, 116.327945887, 50.2939186655, -9.69999980927, 0.954563171085, 0.0197888670676, 0.000234378877744, -1.25403588821, 0.671239668196, 358.905606819, 0.0190414339304, 0.0189609751105, 0.0196809116751, 0.00903945509344, 0.00903520360589, 0.00875312369317, 0.0155597627163, 0.0155799128115, 0.0600450411439, 251666497, 0
1637149728863976322, 1465, 0, 160, 126, 0, 77, 180, 2183, 270165980, 33554432, 18205, 15990, 3, 56, 40.0068272073, 116.327945891, 50.2939475905, -9.69999980927, 0.965044188174, 0.0183549363482, -0.000224314959709, -1.25452138642, 0.664856600837, 359.007985373, 0.0190414339304, 0.0189609751105, 0.0196809116751, 0.00903945509344, 0.00903520360589, 0.00875312369317, 0.0155597627163, 0.0155799128115, 0.0600450411439, 251666497, 0
1637149728881450020, 1465, 0, 160, 126, 0, 77, 180, 2183, 270166000, 33554432, 18205, 15990, 3, 56, 40.0068273824, 116.327945893, 50.294046158, -9.69999980927, 0.978049779132, 0.00644012289995, 0.00741599508301, -1.25817311339, 0.658863186507, 359.112327251, 0.0190414339304, 0.0189609751105, 0.0196809116751, 0.00903945509344, 0.00903520360589, 0.00875312369317, 0.0155597627163, 0.0155799128115, 0.0600450411439, 251666497, 0
1637149728896630094, 1465, 0, 160, 126, 0, 77, 180, 2183, 270166020, 33554432, 18205, 15990, 3, 56, 40.00682756, 116.327945895, 50.2940843217, -9.69999980927, 0.990991298196, 0.00833513941108, 0.00284246830133, -1.26696845018, 0.647092247765, 359.227332697, 0.0190414339304, 0.0189609751105, 0.0196809116751, 0.00903945509344, 0.00903520360589, 0.00875312369317, 0.0155597627163, 0.0155799128115, 0.0600450411439, 251666497, 0
