time, .header.id, .header.msg_type, .header.port_addr, .header.length, .header.sequence, .header.idle_time, .header.time_status, .header.gps_week, .header.gps_week_seconds, .header.receiver_status, .header.reserved, .header.software_version, .ins_status, .position_type, .latitude, .longitude, .altitude, .undulation, .north_velocity, .east_velocity, .up_velocity, .roll, .pitch, .azimuth, .latitude_std, .longitude_std, .altitude_std, .north_velocity_std, .east_velocity_std, .up_velocity_std, .roll_std, .pitch_std, .azimuth_std, .extended_status, .seconds_since_update
1.63715E+18,1465,0,160,126,0,73,180,2183,270163380,33554432,18205,15990,3,56,40.00682097,116.3279461,50.30494146,-9.699999809,-0.003423285,-0.002562382,-0.005719767,-0.866196093,0.906480683,356.9359208,0.017347785,0.017259538,0.018024949,0.001289548,0.001289545,0.00111825,0.013517822,0.013537219,0.059302647,251658309,0
1.63715E+18,1465,0,160,126,0,73,180,2183,270163400,33554432,18205,15990,3,56,40.00682097,116.3279461,50.30490517,-9.699999809,-0.004148226,0.001121988,-0.001654984,-0.866970198,0.909299431,356.9358547,0.017347785,0.017259538,0.018024949,0.001289548,0.001289545,0.00111825,0.013517822,0.013537219,0.059302647,251658309,0
1.63715E+18,1465,0,160,126,0,73,180,2183,270163420,33554432,18205,15990,3,56,40.00682097,116.3279461,50.30484116,-9.699999809,-0.002810901,-0.002798936,-0.006719314,-0.867660744,0.907791801,356.9351996,0.017347785,0.017259538,0.018024949,0.001289548,0.001289545,0.00111825,0.013517822,0.013537219,0.059302647,251658309,0
1.63715E+18,1465,0,160,126,0,73,180,2183,270163440,33554432,18205,15990,3,56,40.00682097,116.3279461,50.30485146,-9.699999809,-0.003995694,0.00304112,0.000980172,-0.867485431,0.909045452,356.935042,0.017347785,0.017259538,0.018024949,0.001289548,0.001289545,0.00111825,0.013517822,0.013537219,0.059302647,251658309,0
1.63715E+18,1465,0,160,126,0,73,180,2183,270163460,33554432,18205,15990,3,56,40.00682097,116.3279461,50.30475873,-9.699999809,-0.00344149,-0.002562869,-0.005894904,-0.868325998,0.908556321,356.9342532,0.017347785,0.017259538,0.018024949,0.001289548,0.001289545,0.00111825,0.013517822,0.013537219,0.059302647,251658309,0
1.63715E+18,1465,0,160,126,0,73,180,2183,270163480,33554432,18205,15990,3,56,40.00682097,116.3279461,50.30478655,-9.699999809,-0.003663963,0.002506597,0.001588013,-0.867203226,0.909294737,356.9335926,0.017347785,0.017259538,0.018024949,0.001289548,0.001289545,0.00111825,0.013517822,0.013537219,0.059302647,251658309,0
1.63715E+18,1465,0,160,126,0,73,180,2183,270163500,33554432,18205,15990,3,56,40.00682097,116.3279461,50.3047002,-9.699999809,-0.004343286,-0.000518135,-0.003595047,-0.86741358,0.910334577,356.9343947,0.017347785,0.017259538,0.018024949,0.001289548,0.001289545,0.00111825,0.013517822,0.013537219,0.059302647,251658309,0
1.63715E+18,1465,0,160,126,0,73,180,2183,270163520,33554432,18205,15990,3,56,40.00682097,116.3279461,50.30469452,-9.699999809,-0.005490849,6.78E-05,-0.001429189,-0.866837112,0.907756192,356.9335803,0.017347785,0.017259538,0.018024949,0.001289548,0.001289545,0.00111825,0.013517822,0.013537219,0.059302647,251658309,0
1.63715E+18,1465,0,160,126,0,73,180,2183,270163540,33554432,18205,15990,3,56,40.00682097,116.3279461,50.30463615,-9.699999809,-0.004344012,0.00165003,-0.001715466,-0.867312531,0.909862319,356.9338219,0.017347785,0.017259538,0.018024949,0.001289548,0.001289545,0.00111825,0.013517822,0.013537219,0.059302647,251658309,0
1.63715E+18,1465,0,160,126,0,73,180,2183,270163560,33554432,18205,15990,3,56,40.00682097,116.3279461,50.30459254,-9.699999809,-0.003485955,-0.002812195,-0.004506414,-0.866822425,0.906889265,356.9323654,0.017347785,0.017259538,0.018024949,0.001289548,0.001289545,0.00111825,0.013517822,0.013537219,0.059302647,251658309,0
1.63715E+18,1465,0,160,126,0,73,180,2183,270163580,33554432,18205,15990,3,56,40.00682097,116.3279461,50.3045763,-9.699999809,-0.004176367,0.001870633,-0.000182863,-0.867937797,0.908412524,356.9328725,0.017347785,0.017259538,0.018024949,0.001289548,0.001289545,0.00111825,0.013517822,0.013537219,0.059302647,251658309,0
1.63715E+18,1465,0,160,126,0,73,180,2183,270163600,33554432,18205,15990,3,56,40.00682097,116.3279461,50.30448558,-9.699999809,-0.004723234,-0.00315765,-0.007392264,-0.867136011,0.907995743,356.9321996,0.017347785,0.017259538,0.018024949,0.001289548,0.001289545,0.00111825,0.013517822,0.013537219,0.059302647,251658309,0
1.63715E+18,1465,0,160,126,0,73,180,2183,270163620,33554432,18205,15990,3,56,40.00682097,116.3279461,50.30448671,-9.699999809,-0.003018297,0.001930534,-0.000925915,-0.866740101,0.908188156,356.932553,0.017347785,0.017259538,0.018024949,0.001289548,0.001289545,0.00111825,0.013517822,0.013537219,0.059302647,251658309,0
1.63715E+18,1465,0,160,126,0,73,180,2183,270163640,33554432,18205,15990,3,56,40.00682097,116.3279461,50.30437719,-9.699999809,-0.002840793,-0.003213059,-0.007397239,-0.867125252,0.907662332,356.9328388,0.017347785,0.017259538,0.018024949,0.001289548,0.001289545,0.00111825,0.013517822,0.013537219,0.059302647,251658309,0
1.63715E+18,1465,0,160,126,0,73,180,2183,270163660,33554432,18205,15990,3,56,40.00682097,116.3279461,50.30438753,-9.699999809,-0.002938997,0.000868306,-0.002654632,-0.866135747,0.906318713,356.932343,0.017347785,0.017259538,0.018024949,0.001289548,0.001289545,0.00111825,0.013517822,0.013537219,0.059302647,251658309,0
1.63715E+18,1465,0,160,126,0,73,180,2183,270163680,33554432,18205,15990,3,56,40.00682097,116.3279461,50.30430133,-9.699999809,-0.002818448,-0.000883102,-0.005293881,-0.865972148,0.907587488,356.9333246,0.017347785,0.017259538,0.018024949,0.001289548,0.001289545,0.00111825,0.013517822,0.013537219,0.059302647,251658309,0
1.63715E+18,1465,0,160,126,0,73,180,2183,270163700,33554432,18205,15990,3,56,40.00682097,116.3279461,50.30427991,-9.699999809,-0.0020807,-0.002264316,-0.005228294,-0.865949753,0.905969067,356.9323459,0.017347785,0.017259538,0.018024949,0.001289548,0.001289545,0.00111825,0.013517822,0.013537219,0.059302647,251658309,0
1.63715E+18,1465,0,160,126,0,73,180,2183,270163720,33554432,18205,15990,3,56,40.00682097,116.3279461,50.30425442,-9.699999809,-0.00212953,0.001850771,-0.000513609,-0.865941788,0.90694749,356.9332368,0.017347785,0.017259538,0.018024949,0.001289548,0.001289545,0.00111825,0.013517822,0.013537219,0.059302647,251658309,0
1.63715E+18,1465,0,160,126,0,73,180,2183,270163740,33554432,18205,15990,3,56,40.00682097,116.3279461,50.3042026,-9.699999809,-0.002588318,-0.003808663,-0.006054875,-0.86575342,0.905391651,356.9317724,0.017347785,0.017259538,0.018024949,0.001289548,0.001289545,0.00111825,0.013517822,0.013537219,0.059302647,251658309,0
1.63715E+18,1465,0,160,126,0,73,180,2183,270163760,33554432,18205,15990,3,56,40.00682097,116.3279461,50.3042262,-9.699999809,-0.001884294,0.001363299,0.002404324,-0.866154424,0.907415616,356.9319114,0.017347785,0.017259538,0.018024949,0.001289548,0.001289545,0.00111825,0.013517822,0.013537219,0.059302647,251658309,0
1.63715E+18,1465,0,160,126,0,73,180,2183,270163780,33554432,18205,15990,3,56,40.00682097,116.3279461,50.30414385,-9.699999809,-0.002798569,-0.002665496,-0.005400943,-0.865442271,0.905558246,356.9320391,0.017347785,0.017259538,0.018024949,0.001289548,0.001289545,0.00111825,0.013517822,0.013537219,0.059302647,251658309,0
1.63715E+18,1465,0,160,126,0,73,180,2183,270163800,33554432,18205,15990,3,56,40.00682097,116.3279461,50.30417089,-9.699999809,-0.004626036,-0.00012135,0.00145567,-0.865407568,0.904730472,356.9316566,0.017347785,0.017259538,0.018024949,0.001289548,0.001289545,0.00111825,0.013517822,0.013537219,0.059302647,251658309,0
1.63715E+18,1465,0,160,126,0,73,180,2183,270163820,33554432,18205,15990,3,56,40.00682097,116.3279461,50.30407846,-9.699999809,-0.004177446,-0.00098274,-0.003766024,-0.866024679,0.905187545,356.9321816,0.017347785,0.017259538,0.018024949,0.001289548,0.001289545,0.00111825,0.013517822,0.013537219,0.059302647,251658309,0
1.63715E+18,1465,0,160,126,0,73,180,2183,270163840,33554432,18205,15990,3,56,40.00682097,116.3279461,50.30406878,-9.699999809,-0.004589377,-0.002058614,-0.00158774,-0.865349728,0.903235411,356.9309462,0.017347785,0.017259538,0.018024949,0.001289548,0.001289545,0.00111825,0.013517822,0.013537219,0.059302647,251658309,0
1.63715E+18,1465,0,160,126,0,73,180,2183,270163860,33554432,18205,15990,3,56,40.00682097,116.3279461,50.30399452,-9.699999809,-0.004067869,-0.000373716,-0.001648448,-0.867528959,0.906305158,356.9310947,0.017347785,0.017259538,0.018024949,0.001289548,0.001289545,0.00111825,0.013517822,0.013537219,0.059302647,251658309,0
1.63715E+18,1465,0,160,126,0,73,180,2183,270163880,33554432,18205,15990,3,56,40.00682097,116.3279461,50.30392812,-9.699999809,-0.005099942,-0.00341101,-0.005361322,-0.867157782,0.904700457,356.9300503,0.017347785,0.017259538,0.018024949,0.001289548,0.001289545,0.00111825,0.013517822,0.013537219,0.059302647,251658309,0
1.63715E+18,1465,0,160,126,0,73,180,2183,270163900,33554432,18205,15990,3,56,40.00682097,116.3279461,50.30388948,-9.699999809,-0.003805465,0.000783738,-0.000334511,-0.868745669,0.906942366,356.9299149,0.017347785,0.017259538,0.018024949,0.001289548,0.001289545,0.00111825,0.013517822,0.013537219,0.059302647,251658309,0
1.63715E+18,1465,0,160,126,0,73,180,2183,270163920,33554432,18205,15990,3,56,40.00682097,116.3279461,50.3037791,-9.699999809,-0.003134826,-0.003851569,-0.007981191,-0.867602444,0.904201282,356.9294867,0.017347785,0.017259538,0.018024949,0.001289548,0.001289545,0.00111825,0.013517822,0.013537219,0.059302647,251658309,0
1.63715E+18,1465,0,160,126,0,73,180,2183,270163940,33554432,18205,15990,3,56,40.00682097,116.3279461,50.30377551,-9.699999809,-0.003883056,0.000956142,-0.000452308,-0.867729603,0.905114601,356.9299812,0.017347785,0.017259538,0.018024949,0.001289548,0.001289545,0.00111825,0.013517822,0.013537219,0.059302647,251658309,0
1.63715E+18,1465,0,160,126,0,73,180,2183,270163960,33554432,18205,15990,3,56,40.00682097,116.3279461,50.30367534,-9.699999809,-0.00272503,-0.00290671,-0.006548536,-0.86720843,0.905191271,356.9303526,0.017347785,0.017259538,0.018024949,0.001289548,0.001289545,0.00111825,0.013517822,0.013537219,0.059302647,251658309,0
1.63715E+18,1465,0,160,126,0,73,180,2183,270163980,33554432,18205,15990,3,56,40.00682097,116.3279461,50.30367181,-9.699999809,-0.002553065,-0.00096345,-0.002547885,-0.866413126,0.903598455,356.9295686,0.017347785,0.017259538,0.018024949,0.001289548,0.001289545,0.00111825,0.013517822,0.013537219,0.059302647,251658309,0
1.63715E+18,1465,0,160,126,0,73,180,2183,270164000,33554432,18205,15990,3,56,40.00682097,116.3279461,50.30360048,-9.699999809,-0.001557825,0.000179668,-0.003575304,-0.866984581,0.905955752,356.9306839,0.017347785,0.017259538,0.018024949,0.001289548,0.001289545,0.00111825,0.013517822,0.013537219,0.059302647,251658309,0
1.63715E+18,1465,0,160,126,0,73,180,2183,270164020,33554432,18205,15990,3,56,40.00682097,116.3279461,50.3035712,-9.699999809,-0.002797647,-0.002518381,-0.005012199,-0.865710995,0.903707178,356.9299881,0.020632727,0.020558931,0.021210972,0.009456865,0.009456855,0.00917042,0.015622691,0.015638553,0.059885718,251658309,0
1.63715E+18,1465,0,160,126,0,73,180,2183,270164040,33554432,18205,15990,3,56,40.00682097,116.3279461,50.30358813,-9.699999809,-0.00147004,0.002151275,0.0001974,-0.867254475,0.906077205,356.9312399,0.017439837,0.017353835,0.01810397,0.001282603,0.0012826,0.00111715,0.013442104,0.013462536,0.059454516,251658309,0
1.63715E+18,1465,0,160,126,0,73,180,2183,270164060,33554432,18205,15990,3,56,40.00682097,116.3279461,50.30356642,-9.699999809,-0.001841278,-0.00232704,-0.006103931,-0.86485064,0.903104815,356.9306287,0.017439837,0.017353835,0.01810397,0.001282603,0.0012826,0.00111715,0.013442104,0.013462536,0.059454516,251658309,0
1.63715E+18,1465,0,160,126,0,75,180,2183,270164080,33554432,18205,15990,3,56,40.00682097,116.3279461,50.30361119,-9.699999809,-0.00268043,0.002562321,0.001547659,-0.865604918,0.903752814,356.9306293,0.017439837,0.017353835,0.01810397,0.001282603,0.0012826,0.00111715,0.013442104,0.013462536,0.059454516,251658309,0
1.63715E+18,1465,0,160,126,0,75,180,2183,270164100,33554432,18205,15990,3,56,40.00682097,116.3279461,50.30355859,-9.699999809,-0.002138859,-0.000689345,-0.005420849,-0.86528358,0.902250337,356.9309341,0.017439837,0.017353835,0.01810397,0.001282603,0.0012826,0.00111715,0.013442104,0.013462536,0.059454516,251658309,0
1.63715E+18,1465,0,160,126,0,75,180,2183,270164120,33554432,18205,15990,3,56,40.00682097,116.3279461,50.30359488,-9.699999809,-0.004502349,0.000983591,0.000232791,-0.864611801,0.901635277,356.9302254,0.017439837,0.017353835,0.01810397,0.001282603,0.0012826,0.00111715,0.013442104,0.013462536,0.059454516,251658309,0
1.63715E+18,1465,0,160,126,0,75,180,2183,270164140,33554432,18205,15990,3,56,40.00682097,116.3279461,50.30352816,-9.699999809,-0.002180657,2.30E-05,-0.003733606,-0.866366827,0.903181732,356.9302761,0.017439837,0.017353835,0.01810397,0.001282603,0.0012826,0.00111715,0.013442104,0.013462536,0.059454516,251658309,0
1.63715E+18,1465,0,160,126,0,75,180,2183,270164160,33554432,18205,15990,3,56,40.00682097,116.3279461,50.30352778,-9.699999809,-0.004095959,-0.001129174,-0.002626199,-0.86552681,0.899333069,356.9293528,0.017439837,0.017353835,0.01810397,0.001282603,0.0012826,0.00111715,0.013442104,0.013462536,0.059454516,251658309,0
1.63715E+18,1465,0,160,126,0,75,180,2183,270164180,33554432,18205,15990,3,56,40.00682097,116.3279461,50.30348622,-9.699999809,-0.003816565,0.000668568,-0.001527542,-0.86730406,0.902906201,356.9294491,0.017439837,0.017353835,0.01810397,0.001282603,0.0012826,0.00111715,0.013442104,0.013462536,0.059454516,251658309,0
1.63715E+18,1465,0,160,126,0,75,180,2183,270164200,33554432,18205,15990,3,56,40.00682097,116.3279461,50.30344096,-9.699999809,-0.003926277,-0.003239896,-0.005909764,-0.866490717,0.899961371,356.9286874,0.017439837,0.017353835,0.01810397,0.001282603,0.0012826,0.00111715,0.013442104,0.013462536,0.059454516,251658309,0
1.63715E+18,1465,0,160,126,0,75,180,2183,270164220,33554432,18205,15990,3,56,40.00682097,116.3279461,50.30344425,-9.699999809,-0.004719701,0.000882526,-3.61E-05,-0.867667661,0.901660146,356.9294361,0.017439837,0.017353835,0.01810397,0.001282603,0.0012826,0.00111715,0.013442104,0.013462536,0.059454516,251658309,0
1.63715E+18,1465,0,160,126,0,75,180,2183,270164240,33554432,18205,15990,3,56,40.00682097,116.3279461,50.30336845,-9.699999809,-0.003517691,-0.004145133,-0.007528276,-0.867451916,0.900001904,356.9284256,0.017439837,0.017353835,0.01810397,0.001282603,0.0012826,0.00111715,0.013442104,0.013462536,0.059454516,251658309,0
1.63715E+18,1465,0,160,126,0,75,180,2183,270164260,33554432,18205,15990,3,56,40.00682097,116.3279461,50.30340055,-9.699999809,-0.003757085,-0.000884232,-0.000517666,-0.867845347,0.9002782,356.9284741,0.017439837,0.017353835,0.01810397,0.001282603,0.0012826,0.00111715,0.013442104,0.013462536,0.059454516,251658309,0
1.63715E+18,1465,0,160,126,0,75,180,2183,270164280,33554432,18205,15990,3,56,40.00682097,116.3279461,50.30331452,-9.699999809,-0.002649951,-0.004029549,-0.007298674,-0.868941514,0.901630803,356.9281853,0.017439837,0.017353835,0.01810397,0.001282603,0.0012826,0.00111715,0.013442104,0.013462536,0.059454516,251658309,0
1.63715E+18,1465,0,160,126,0,75,180,2183,270164300,33554432,18205,15990,3,56,40.00682097,116.3279461,50.30335291,-9.699999809,-0.00336402,-0.002210162,-0.002745451,-0.868446039,0.900166116,356.9280218,0.017439837,0.017353835,0.01810397,0.001282603,0.0012826,0.00111715,0.013442104,0.013462536,0.059454516,251658309,0
1.63715E+18,1465,0,160,126,0,75,180,2183,270164320,33554432,18205,15990,3,56,40.00682097,116.3279461,50.30329782,-9.699999809,-0.002630069,-0.001607082,-0.004607689,-0.870264339,0.901872434,356.9286106,0.017439837,0.017353835,0.01810397,0.001282603,0.0012826,0.00111715,0.013442104,0.013462536,0.059454516,251658309,0
1.63715E+18,1465,0,160,126,0,75,180,2183,270164340,33554432,18205,15990,3,56,40.00682097,116.3279461,50.30330747,-9.699999809,-0.002142733,-0.002749206,-0.005185356,-0.86916288,0.89991095,356.9279686,0.017439837,0.017353835,0.01810397,0.001282603,0.0012826,0.00111715,0.013442104,0.013462536,0.059454516,251658309,0
1.63715E+18,1465,0,160,126,0,75,180,2183,270164360,33554432,18205,15990,3,56,40.00682097,116.3279461,50.30330016,-9.699999809,-0.002293157,-0.000339846,-0.000779326,-0.869659334,0.902599546,356.9287581,0.017439837,0.017353835,0.01810397,0.001282603,0.0012826,0.00111715,0.013442104,0.013462536,0.059454516,251658309,0
1.63715E+18,1465,0,160,126,0,75,180,2183,270164380,33554432,18205,15990,3,56,40.00682098,116.3279461,50.3032575,-9.699999809,-0.001737788,-0.003306355,-0.006730394,-0.868737288,0.900587481,356.9283254,0.017439837,0.017353835,0.01810397,0.001282603,0.0012826,0.00111715,0.013442104,0.013462536,0.059454516,251658309,0
1.63715E+18,1465,0,160,126,0,75,180,2183,270164400,33554432,18205,15990,3,56,40.00682098,116.3279461,50.30327188,-9.699999809,-0.002140726,0.000689513,0.000485775,-0.868319111,0.902362281,356.929003,0.017439837,0.017353835,0.01810397,0.001282603,0.0012826,0.00111715,0.013442104,0.013462536,0.059454516,251658309,0
1.63715E+18,1465,0,160,126,0,75,180,2183,270164420,33554432,18205,15990,3,56,40.00682098,116.3279461,50.30318765,-9.699999809,-0.001073609,-0.003276908,-0.006640763,-0.869222411,0.901487082,356.9287053,0.017439837,0.017353835,0.01810397,0.001282603,0.0012826,0.00111715,0.013442104,0.013462536,0.059454516,251658309,0
1.63715E+18,1465,0,160,126,0,75,180,2183,270164440,33554432,18205,15990,3,56,40.00682098,116.3279461,50.30320669,-9.699999809,-0.00199946,-0.000106938,0.000125333,-0.868161002,0.901227617,356.9296408,0.017439837,0.017353835,0.01810397,0.001282603,0.0012826,0.00111715,0.013442104,0.013462536,0.059454516,251658309,0
1.63715E+18,1465,0,160,126,0,75,180,2183,270164460,33554432,18205,15990,3,56,40.00682098,116.3279461,50.30312338,-9.699999809,-0.000897817,-0.003211658,-0.0042964,-0.870109973,0.902973349,356.9297967,0.017439837,0.017353835,0.01810397,0.001282603,0.0012826,0.00111715,0.013442104,0.013462536,0.059454516,251658309,0
1.63715E+18,1465,0,160,126,0,75,180,2183,270164480,33554432,18205,15990,3,56,40.00682098,116.3279461,50.30311226,-9.699999809,-0.001319342,-0.002380541,-0.002447493,-0.869097175,0.900292632,356.9298462,0.017439837,0.017353835,0.01810397,0.001282603,0.0012826,0.00111715,0.013442104,0.013462536,0.059454516,251658309,0
1.63715E+18,1465,0,160,126,0,75,180,2183,270164500,33554432,18205,15990,3,56,40.00682098,116.3279461,50.30303652,-9.699999809,-0.001670219,-0.002363495,-0.002994441,-0.870894182,0.902313531,356.9313761,0.017439837,0.017353835,0.01810397,0.001282603,0.0012826,0.00111715,0.013442104,0.013462536,0.059454516,251658309,0
1.63715E+18,1465,0,160,126,0,75,180,2183,270164520,33554432,18205,15990,3,56,40.00682098,116.3279461,50.30296293,-9.699999809,-0.000988154,-0.004053461,-0.006717623,-0.870828724,0.900189764,356.93086,0.017439837,0.017353835,0.01810397,0.001282603,0.0012826,0.00111715,0.013442104,0.013462536,0.059454516,251658309,0
1.63715E+18,1465,0,160,126,0,75,180,2183,270164540,33554432,18205,15990,3,56,40.00682098,116.3279461,50.30288751,-9.699999809,-0.000421629,-0.00238312,-0.003976508,-0.872270739,0.904439501,356.9323698,0.017439837,0.017353835,0.01810397,0.001282603,0.0012826,0.00111715,0.013442104,0.013462536,0.059454516,251658309,0
1.63715E+18,1465,0,160,126,0,75,180,2183,270164560,33554432,18205,15990,3,56,40.00682098,116.3279461,50.30273318,-9.699999809,0.001949769,-0.006266039,-0.011502704,-0.873593416,0.905381223,356.9315726,0.017439837,0.017353835,0.01810397,0.001282603,0.0012826,0.00111715,0.013442104,0.013462536,0.059454516,251658309,0
1.63715E+18,1465,0,160,126,0,75,180,2183,270164580,33554432,18205,15990,3,56,40.00682098,116.3279461,50.30263716,-9.699999809,0.003173927,-0.001928418,-0.006570266,-0.874947437,0.909423311,356.9314446,0.017439837,0.017353835,0.01810397,0.001282603,0.0012826,0.00111715,0.013442104,0.013462536,0.059454516,251658309,0
1.63715E+18,1465,0,160,126,0,75,180,2183,270164600,33554432,18205,15990,3,56,40.00682098,116.3279461,50.30238955,-9.699999809,0.006917189,-0.006232099,-0.016353185,-0.87800164,0.913852616,356.9304784,0.017439837,0.017353835,0.01810397,0.001282603,0.0012826,0.00111715,0.013442104,0.013462536,0.059454516,251658309,0
1.63715E+18,1465,0,160,126,0,75,180,2183,270164620,33554432,18205,15990,3,56,40.00682099,116.3279461,50.30222291,-9.699999809,0.01273162,-0.001320893,-0.012151876,-0.881003754,0.918489868,356.9284392,0.017439837,0.017353835,0.01810397,0.001282603,0.0012826,0.00111715,0.013442104,0.013462536,0.059454516,251658309,0
1.63715E+18,1465,0,160,126,0,75,180,2183,270164640,33554432,18205,15990,3,56,40.00682099,116.3279461,50.30188995,-9.699999809,0.020781407,-0.006090323,-0.019997952,-0.885368094,0.927729796,356.9255668,0.017439837,0.017353835,0.01810397,0.001282603,0.0012826,0.00111715,0.013442104,0.013462536,0.059454516,251658309,0
1.63715E+18,1465,0,160,126,0,75,180,2183,270164660,33554432,18205,15990,3,56,40.00682099,116.3279461,50.30163105,-9.699999809,0.031863559,-0.002618856,-0.018097104,-0.88912018,0.935295641,356.9236591,0.017439837,0.017353835,0.01810397,0.001282603,0.0012826,0.00111715,0.013442104,0.013462536,0.059454516,251658309,0
1.63715E+18,1465,0,160,126,0,75,180,2183,270164680,33554432,18205,15990,3,56,40.006821,116.3279461,50.3012684,-9.699999809,0.040558425,-0.009353142,-0.019952272,-0.892829913,0.947085481,356.9209378,0.017439837,0.017353835,0.01810397,0.001282603,0.0012826,0.00111715,0.013442104,0.013462536,0.059454516,251658309,0
1.63715E+18,1465,0,160,126,0,75,180,2183,270164700,33554432,18205,15990,3,56,40.00682101,116.3279461,50.30093232,-9.699999809,0.055506281,-0.005913947,-0.0212535,-0.896884895,0.957414237,356.9184708,0.017439837,0.017353835,0.01810397,0.001282603,0.0012826,0.00111715,0.013442104,0.013462536,0.059454516,251658309,0
1.63715E+18,1465,0,160,126,0,75,180,2183,270164720,33554432,18205,15990,3,56,40.00682102,116.3279461,50.30059768,-9.699999809,0.06731221,-0.015739258,-0.016760395,-0.901591898,0.969285397,356.9178305,0.017439837,0.017353835,0.01810397,0.001282603,0.0012826,0.00111715,0.013442104,0.013462536,0.059454516,251658309,0
1.63715E+18,1465,0,160,126,0,75,180,2183,270164740,33554432,18205,15990,3,56,40.00682104,116.3279461,50.30025713,-9.699999809,0.082207654,-0.010563036,-0.019482144,-0.906423106,0.978397256,356.9174909,0.017439837,0.017353835,0.01810397,0.001282603,0.0012826,0.00111715,0.013442104,0.013462536,0.059454516,251658309,0
1.63715E+18,1465,0,160,126,0,75,180,2183,270164760,33554432,18205,15990,3,56,40.00682105,116.3279461,50.29999577,-9.699999809,0.096168183,-0.020722945,-0.012321254,-0.913664369,0.988940088,356.9193879,0.017439837,0.017353835,0.01810397,0.001282603,0.0012826,0.00111715,0.013442104,0.013462536,0.059454516,251658309,0
1.63715E+18,1465,0,160,126,0,75,180,2183,270164780,33554432,18205,15990,3,56,40.00682107,116.3279461,50.29970147,-9.699999809,0.110773279,-0.015793959,-0.015356707,-0.91963485,0.996263604,356.9206027,0.017439837,0.017353835,0.01810397,0.001282603,0.0012826,0.00111715,0.013442104,0.013462536,0.059454516,251658309,0
1.63715E+18,1465,0,160,126,0,75,180,2183,270164800,33554432,18205,15990,3,56,40.00682109,116.3279461,50.29951596,-9.699999809,0.125746204,-0.020622538,-0.008735105,-0.927442881,1.002723263,356.9234582,0.017439837,0.017353835,0.01810397,0.001282603,0.0012826,0.00111715,0.013442104,0.013462536,0.059454516,251658309,0
1.63715E+18,1465,0,160,126,0,75,180,2183,270164820,33554432,18205,15990,3,56,40.00682112,116.3279461,50.29930976,-9.699999809,0.140897094,-0.019996951,-0.009264449,-0.934162541,1.008053513,356.925383,0.017439837,0.017353835,0.01810397,0.001282603,0.0012826,0.00111715,0.013442104,0.013462536,0.059454516,251658309,0
1.63715E+18,1465,0,160,126,0,75,180,2183,270164840,33554432,18205,15990,3,56,40.00682115,116.3279461,50.29919,-9.699999809,0.156736478,-0.018247168,-0.006382272,-0.942631627,1.010861927,356.9282291,0.017439837,0.017353835,0.01810397,0.001282603,0.0012826,0.00111715,0.013442104,0.013462536,0.059454516,251658309,0
1.63715E+18,1465,0,160,126,0,75,180,2183,270164860,33554432,18205,15990,3,56,40.00682118,116.3279461,50.29909553,-9.699999809,0.17097644,-0.021607295,-0.003010509,-0.9473298,1.013677632,356.9297707,0.017439837,0.017353835,0.01810397,0.001282603,0.0012826,0.00111715,0.013442104,0.013462536,0.059454516,251658309,0
1.63715E+18,1465,0,160,126,0,75,180,2183,270164880,33554432,18205,15990,3,56,40.00682121,116.3279461,50.2990129,-9.699999809,0.187353334,-0.013168304,-0.005772241,-0.954711893,1.013133473,356.9323603,0.017439837,0.017353835,0.01810397,0.001282603,0.0012826,0.00111715,0.013442104,0.013462536,0.059454516,251658309,0
1.63715E+18,1465,0,160,126,0,75,180,2183,270164900,33554432,18205,15990,3,56,40.00682125,116.3279461,50.29901438,-9.699999809,0.201383548,-0.020415805,0.000887172,-0.960102584,1.013915414,356.9329609,0.017439837,0.017353835,0.01810397,0.001282603,0.0012826,0.00111715,0.013442104,0.013462536,0.059454516,251658309,0
1.63715E+18,1465,0,160,126,0,75,180,2183,270164920,33554432,18205,15990,3,56,40.00682128,116.3279461,50.29893992,-9.699999809,0.217057882,-0.008470975,-0.005829157,-0.965336434,1.012201943,356.9343707,0.017439837,0.017353835,0.01810397,0.001282603,0.0012826,0.00111715,0.013442104,0.013462536,0.059454516,251658309,0
1.63715E+18,1465,0,160,126,0,75,180,2183,270164940,33554432,18205,15990,3,56,40.00682132,116.3279461,50.29898886,-9.699999809,0.231374661,-0.017991365,0.001075828,-0.97109703,1.010183242,356.9347806,0.017439837,0.017353835,0.01810397,0.001282603,0.0012826,0.00111715,0.013442104,0.013462536,0.059454516,251658309,0
1.63715E+18,1465,0,160,126,0,75,180,2183,270164960,33554432,18205,15990,3,56,40.00682137,116.3279461,50.29892668,-9.699999809,0.247543088,-0.008983073,-0.004968192,-0.974472322,1.005695514,356.9345366,0.017439837,0.017353835,0.01810397,0.001282603,0.0012826,0.00111715,0.013442104,0.013462536,0.059454516,251658309,0
1.63715E+18,1465,0,160,126,0,75,180,2183,270164980,33554432,18205,15990,3,56,40.00682141,116.3279461,50.29897541,-9.699999809,0.261964259,-0.014651036,-0.00095458,-0.981184778,1.001952553,356.9352433,0.017439837,0.017353835,0.01810397,0.001282603,0.0012826,0.00111715,0.013442104,0.013462536,0.059454516,251658309,0
1.63715E+18,1465,0,160,126,0,75,180,2183,270165000,33554432,18205,15990,3,56,40.00682146,116.3279461,50.29894141,-9.699999809,0.276288826,-0.014698777,-0.002414408,-0.985662199,0.99982264,356.9341904,0.017439837,0.017353835,0.01810397,0.001282603,0.0012826,0.00111715,0.013442104,0.013462536,0.059454516,251658309,0
1.63715E+18,1465,0,160,126,0,75,180,2183,270165020,33554432,18205,15990,3,56,40.00682152,116.3279461,50.29895028,-9.699999809,0.291436474,-0.011813319,-0.00374558,-0.992429907,0.993287185,356.9353012,0.020522919,0.020450238,0.021095818,0.00914729,0.009144468,0.00885082,0.015559999,0.015580085,0.060045343,251658309,0
1.63715E+18,1465,0,160,126,0,75,180,2183,270165040,33554432,18205,15990,3,56,40.00682157,116.3279461,50.29892454,-9.699999809,0.306374231,-0.021510654,-0.000665619,-0.998364885,0.990212979,356.934594,0.019041434,0.018960975,0.019680912,0.009039455,0.009035204,0.008753124,0.015559763,0.015579913,0.060045041,251666497,0
1.63715E+18,1465,0,160,126,0,75,180,2183,270165060,33554432,18205,15990,3,56,40.00682163,116.327946,50.29884443,-9.699999809,0.321920008,-0.014444118,-0.006147605,-1.006023908,0.983541042,356.9364724,0.019041434,0.018960975,0.019680912,0.009039455,0.009035204,0.008753124,0.015559763,0.015579913,0.060045041,251666497,0
1.63715E+18,1465,0,160,126,0,77,180,2183,270165080,33554432,18205,15990,3,56,40.00682169,116.327946,50.29881815,-9.699999809,0.336291358,-0.028263104,-3.94E-05,-1.014315329,0.979346949,356.9383945,0.019041434,0.018960975,0.019680912,0.009039455,0.009035204,0.008753124,0.015559763,0.015579913,0.060045041,251666497,0
1.63715E+18,1465,0,160,126,0,77,180,2183,270165100,33554432,18205,15990,3,56,40.00682175,116.327946,50.29869145,-9.699999809,0.353056581,-0.022093774,-0.006432583,-1.023290436,0.972962321,356.9412422,0.019041434,0.018960975,0.019680912,0.009039455,0.009035204,0.008753124,0.015559763,0.015579913,0.060045041,251666497,0
1.63715E+18,1465,0,160,126,0,77,180,2183,270165120,33554432,18205,15990,3,56,40.00682181,116.327946,50.29863264,-9.699999809,0.368221494,-0.034543606,-0.002653751,-1.034626262,0.966882345,356.9457964,0.019041434,0.018960975,0.019680912,0.009039455,0.009035204,0.008753124,0.015559763,0.015579913,0.060045041,251666497,0
1.63715E+18,1465,0,160,126,0,77,180,2183,270165140,33554432,18205,15990,3,56,40.00682188,116.327946,50.29849013,-9.699999809,0.385602882,-0.033437607,-0.005606619,-1.046250664,0.961063574,356.9503104,0.019041434,0.018960975,0.019680912,0.009039455,0.009035204,0.008753124,0.015559763,0.015579913,0.060045041,251666497,0
1.63715E+18,1465,0,160,126,0,77,180,2183,270165160,33554432,18205,15990,3,56,40.00682195,116.327946,50.29838686,-9.699999809,0.402901747,-0.039548625,-0.005701727,-1.062518026,0.953495058,356.9575987,0.019041434,0.018960975,0.019680912,0.009039455,0.009035204,0.008753124,0.015559763,0.015579913,0.060045041,251666497,0
1.63715E+18,1465,0,160,126,0,77,180,2183,270165180,33554432,18205,15990,3,56,40.00682203,116.327946,50.29823306,-9.699999809,0.420083615,-0.0472518,-0.005174876,-1.080105576,0.946152015,356.9641688,0.019041434,0.018960975,0.019680912,0.009039455,0.009035204,0.008753124,0.015559763,0.015579913,0.060045041,251666497,0
1.63715E+18,1465,0,160,126,0,77,180,2183,270165200,33554432,18205,15990,3,56,40.0068221,116.327946,50.29806839,-9.699999809,0.439502509,-0.045673614,-0.009590809,-1.101816009,0.935065071,356.9748288,0.019041434,0.018960975,0.019680912,0.009039455,0.009035204,0.008753124,0.015559763,0.015579913,0.060045041,251666497,0
1.63715E+18,1465,0,160,126,0,77,180,2183,270165220,33554432,18205,15990,3,56,40.00682218,116.327946,50.29791352,-9.699999809,0.455382776,-0.059787089,-0.005980728,-1.12533961,0.927338289,356.9851464,0.019041434,0.018960975,0.019680912,0.009039455,0.009035204,0.008753124,0.015559763,0.015579913,0.060045041,251666497,0
1.63715E+18,1465,0,160,126,0,77,180,2183,270165240,33554432,18205,15990,3,56,40.00682227,116.327946,50.29770004,-9.699999809,0.476932277,-0.050808904,-0.012284227,-1.151849482,0.917682407,356.9987713,0.019041434,0.018960975,0.019680912,0.009039455,0.009035204,0.008753124,0.015559763,0.015579913,0.060045041,251666497,0
1.63715E+18,1465,0,160,126,0,77,180,2183,270165260,33554432,18205,15990,3,56,40.00682236,116.327946,50.29755391,-9.699999809,0.493964426,-0.066935933,-0.007121014,-1.1803462,0.906731499,357.0151704,0.019041434,0.018960975,0.019680912,0.009039455,0.009035204,0.008753124,0.015559763,0.015579913,0.060045041,251666497,0
1.63715E+18,1465,0,160,126,0,77,180,2183,270165280,33554432,18205,15990,3,56,40.00682245,116.3279459,50.29729853,-9.699999809,0.513243858,-0.058926321,-0.013890522,-1.210277524,0.897152034,357.0326212,0.019041434,0.018960975,0.019680912,0.009039455,0.009035204,0.008753124,0.015559763,0.015579913,0.060045041,251666497,0
1.63715E+18,1465,0,160,126,0,77,180,2183,270165300,33554432,18205,15990,3,56,40.00682254,116.3279459,50.2971271,-9.699999809,0.533065166,-0.068369619,-0.010233188,-1.243316704,0.884552008,357.055017,0.019041434,0.018960975,0.019680912,0.009039455,0.009035204,0.008753124,0.015559763,0.015579913,0.060045041,251666497,0
1.63715E+18,1465,0,160,126,0,77,180,2183,270165320,33554432,18205,15990,3,56,40.00682264,116.3279459,50.29687136,-9.699999809,0.550720516,-0.065519936,-0.012698101,-1.275922907,0.873879704,357.0770458,0.019041434,0.018960975,0.019680912,0.009039455,0.009035204,0.008753124,0.015559763,0.015579913,0.060045041,251666497,0
1.63715E+18,1465,0,160,126,0,77,180,2183,270165340,33554432,18205,15990,3,56,40.00682274,116.3279459,50.29665513,-9.699999809,0.571845836,-0.064481699,-0.013354237,-1.312037189,0.861163186,357.1048331,0.019041434,0.018960975,0.019680912,0.009039455,0.009035204,0.008753124,0.015559763,0.015579913,0.060045041,251666497,0
1.63715E+18,1465,0,160,126,0,77,180,2183,270165360,33554432,18205,15990,3,56,40.00682284,116.3279459,50.29642155,-9.699999809,0.588901368,-0.065286708,-0.010483824,-1.344089887,0.851572949,357.1313339,0.019041434,0.018960975,0.019680912,0.009039455,0.009035204,0.008753124,0.015559763,0.015579913,0.060045041,251666497,0
1.63715E+18,1465,0,160,126,0,77,180,2183,270165380,33554432,18205,15990,3,56,40.00682295,116.3279459,50.29615749,-9.699999809,0.608154861,-0.054005261,-0.015690109,-1.374254805,0.838565158,357.1621121,0.019041434,0.018960975,0.019680912,0.009039455,0.009035204,0.008753124,0.015559763,0.015579913,0.060045041,251666497,0
1.63715E+18,1465,0,160,126,0,77,180,2183,270165400,33554432,18205,15990,3,56,40.00682306,116.3279458,50.29593977,-9.699999809,0.624282992,-0.060484896,-0.00926775,-1.401454843,0.828314482,357.1922291,0.019041434,0.018960975,0.019680912,0.009039455,0.009035204,0.008753124,0.015559763,0.015579913,0.060045041,251666497,0
1.63715E+18,1465,0,160,126,0,77,180,2183,270165420,33554432,18205,15990,3,56,40.00682318,116.3279458,50.29566466,-9.699999809,0.64346283,-0.044203331,-0.014074156,-1.428580072,0.815214914,357.224707,0.019041434,0.018960975,0.019680912,0.009039455,0.009035204,0.008753124,0.015559763,0.015579913,0.060045041,251666497,0
1.63715E+18,1465,0,160,126,0,77,180,2183,270165440,33554432,18205,15990,3,56,40.0068233,116.3279458,50.29550808,-9.699999809,0.6579835,-0.053867475,-0.005513803,-1.453804172,0.803175704,357.2572533,0.019041434,0.018960975,0.019680912,0.009039455,0.009035204,0.008753124,0.015559763,0.015579913,0.060045041,251666497,0
1.63715E+18,1465,0,160,126,0,77,180,2183,270165460,33554432,18205,15990,3,56,40.00682342,116.3279458,50.29528451,-9.699999809,0.675836864,-0.036381262,-0.009183548,-1.478593539,0.788908002,357.2913014,0.019041434,0.018960975,0.019680912,0.009039455,0.009035204,0.008753124,0.015559763,0.015579913,0.060045041,251666497,0
1.63715E+18,1465,0,160,126,0,77,180,2183,270165480,33554432,18205,15990,3,56,40.00682354,116.3279458,50.29521139,-9.699999809,0.688820842,-0.036673421,-0.001749649,-1.498697528,0.771487418,357.3267852,0.019041434,0.018960975,0.019680912,0.009039455,0.009035204,0.008753124,0.015559763,0.015579913,0.060045041,251666497,0
1.63715E+18,1465,0,160,126,0,77,180,2183,270165500,33554432,18205,15990,3,56,40.00682366,116.3279458,50.29509759,-9.699999809,0.697841378,-0.02066844,-0.001361073,-1.510474033,0.756085566,357.3594686,0.019041434,0.018960975,0.019680912,0.009039455,0.009035204,0.008753124,0.015559763,0.015579913,0.060045041,251666497,0
1.63715E+18,1465,0,160,126,0,77,180,2183,270165520,33554432,18205,15990,3,56,40.00682379,116.3279458,50.29512021,-9.699999809,0.707926398,-0.0147101,0.00262493,-1.517319842,0.73801536,357.3973179,0.019041434,0.018960975,0.019680912,0.009039455,0.009035204,0.008753124,0.015559763,0.015579913,0.060045041,251666497,0
1.63715E+18,1465,0,160,126,0,77,180,2183,270165540,33554432,18205,15990,3,56,40.00682392,116.3279458,50.29515274,-9.699999809,0.717615346,-0.003610994,0.005932239,-1.512968747,0.72256036,357.4342255,0.019041434,0.018960975,0.019680912,0.009039455,0.009035204,0.008753124,0.015559763,0.015579913,0.060045041,251666497,0
1.63715E+18,1465,0,160,126,0,77,180,2183,270165560,33554432,18205,15990,3,56,40.00682405,116.3279458,50.29524458,-9.699999809,0.726384133,0.005178486,0.004546257,-1.505359586,0.706066374,357.4748673,0.019041434,0.018960975,0.019680912,0.009039455,0.009035204,0.008753124,0.015559763,0.015579913,0.060045041,251666497,0
1.63715E+18,1465,0,160,126,0,77,180,2183,270165580,33554432,18205,15990,3,56,40.00682418,116.3279458,50.29536308,-9.699999809,0.731837971,0.005888112,0.008917481,-1.489754814,0.693002697,357.5164458,0.019041434,0.018960975,0.019680912,0.009039455,0.009035204,0.008753124,0.015559763,0.015579913,0.060045041,251666497,0
1.63715E+18,1465,0,160,126,0,77,180,2183,270165600,33554432,18205,15990,3,56,40.00682431,116.3279458,50.29547116,-9.699999809,0.74264619,0.014951942,0.004914292,-1.479407846,0.679289786,357.5620206,0.019041434,0.018960975,0.019680912,0.009039455,0.009035204,0.008753124,0.015559763,0.015579913,0.060045041,251666497,0
1.63715E+18,1465,0,160,126,0,77,180,2183,270165620,33554432,18205,15990,3,56,40.00682445,116.3279458,50.29563023,-9.699999809,0.747186134,0.008303957,0.009368597,-1.464265346,0.668023897,357.6121702,0.019041434,0.018960975,0.019680912,0.009039455,0.009035204,0.008753124,0.015559763,0.015579913,0.060045041,251666497,0
1.63715E+18,1465,0,160,126,0,77,180,2183,270165640,33554432,18205,15990,3,56,40.00682458,116.3279458,50.29568146,-9.699999809,0.756660615,0.021581053,0.000794767,-1.453021404,0.658691802,357.6655334,0.019041434,0.018960975,0.019680912,0.009039455,0.009035204,0.008753124,0.015559763,0.015579913,0.060045041,251666497,0
1.63715E+18,1465,0,160,126,0,77,180,2183,270165660,33554432,18205,15990,3,56,40.00682472,116.3279458,50.29581075,-9.699999809,0.765398487,0.010464381,0.005395789,-1.440817023,0.653374086,357.7232918,0.019041434,0.018960975,0.019680912,0.009039455,0.009035204,0.008753124,0.015559763,0.015579913,0.060045041,251666497,0
1.63715E+18,1465,0,160,126,0,77,180,2183,270165680,33554432,18205,15990,3,56,40.00682486,116.3279458,50.29577731,-9.699999809,0.774195906,0.025440576,-0.00388691,-1.426304771,0.651772186,357.7853127,0.019041434,0.018960975,0.019680912,0.009039455,0.009035204,0.008753124,0.015559763,0.015579913,0.060045041,251666497,0
1.63715E+18,1465,0,160,126,0,77,180,2183,270165700,33554432,18205,15990,3,56,40.006825,116.3279458,50.29578762,-9.699999809,0.785352391,0.015332541,-0.002651491,-1.410302078,0.652528261,357.8549833,0.019041434,0.018960975,0.019680912,0.009039455,0.009035204,0.008753124,0.015559763,0.015579913,0.060045041,251666497,0
1.63715E+18,1465,0,160,126,0,77,180,2183,270165720,33554432,18205,15990,3,56,40.00682514,116.3279458,50.29565985,-9.699999809,0.795121941,0.019646385,-0.007455739,-1.395671793,0.655086627,357.9250782,0.019041434,0.018960975,0.019680912,0.009039455,0.009035204,0.008753124,0.015559763,0.015579913,0.060045041,251666497,0
1.63715E+18,1465,0,160,126,0,77,180,2183,270165740,33554432,18205,15990,3,56,40.00682529,116.3279458,50.29550662,-9.699999809,0.808296897,0.020990534,-0.011301153,-1.381692395,0.659380986,358.0009486,0.019041434,0.018960975,0.019680912,0.009039455,0.009035204,0.008753124,0.015559763,0.015579913,0.060045041,251666497,0
1.63715E+18,1465,0,160,126,0,77,180,2183,270165760,33554432,18205,15990,3,56,40.00682543,116.3279458,50.29531891,-9.699999809,0.820552715,0.01757816,-0.008847483,-1.364164856,0.666855744,358.0771572,0.019041434,0.018960975,0.019680912,0.009039455,0.009035204,0.008753124,0.015559763,0.015579913,0.060045041,251666497,0
1.63715E+18,1465,0,160,126,0,77,180,2183,270165780,33554432,18205,15990,3,56,40.00682558,116.3279458,50.29506869,-9.699999809,0.834285797,0.027854271,-0.014902503,-1.346740343,0.671022626,358.1555999,0.019041434,0.018960975,0.019680912,0.009039455,0.009035204,0.008753124,0.015559763,0.015579913,0.060045041,251666497,0
1.63715E+18,1465,0,160,126,0,77,180,2183,270165800,33554432,18205,15990,3,56,40.00682573,116.3279458,50.29488493,-9.699999809,0.849090875,0.019153469,-0.007644493,-1.328146528,0.676399707,358.2340025,0.019041434,0.018960975,0.019680912,0.009039455,0.009035204,0.008753124,0.015559763,0.015579913,0.060045041,251666497,0
1.63715E+18,1465,0,160,126,0,77,180,2183,270165820,33554432,18205,15990,3,56,40.00682589,116.3279458,50.29462841,-9.699999809,0.8607706,0.027506101,-0.012279662,-1.310724076,0.67836671,358.3136141,0.019041434,0.018960975,0.019680912,0.009039455,0.009035204,0.008753124,0.015559763,0.015579913,0.060045041,251666497,0
1.63715E+18,1465,0,160,126,0,77,180,2183,270165840,33554432,18205,15990,3,56,40.00682604,116.3279459,50.29444538,-9.699999809,0.875550406,0.02143812,-0.007901947,-1.300165508,0.682361063,358.3920994,0.019041434,0.018960975,0.019680912,0.009039455,0.009035204,0.008753124,0.015559763,0.015579913,0.060045041,251666497,0
1.63715E+18,1465,0,160,126,0,77,180,2183,270165860,33554432,18205,15990,3,56,40.0068262,116.3279459,50.29426105,-9.699999809,0.889347482,0.021217386,-0.007079483,-1.28994971,0.683732922,358.4710548,0.019041434,0.018960975,0.019680912,0.009039455,0.009035204,0.008753124,0.015559763,0.015579913,0.060045041,251666497,0
1.63715E+18,1465,0,160,126,0,77,180,2183,270165880,33554432,18205,15990,3,56,40.00682637,116.3279459,50.2941335,-9.699999809,0.903479908,0.027248632,-0.005761064,-1.282470784,0.680081311,358.5527116,0.019041434,0.018960975,0.019680912,0.009039455,0.009035204,0.008753124,0.015559763,0.015579913,0.060045041,251666497,0
1.63715E+18,1465,0,160,126,0,77,180,2183,270165900,33554432,18205,15990,3,56,40.00682653,116.3279459,50.29405593,-9.699999809,0.916716751,0.018739482,-0.001856618,-1.276491557,0.679404625,358.6360226,0.019041434,0.018960975,0.019680912,0.009039455,0.009035204,0.008753124,0.015559763,0.015579913,0.060045041,251666497,0
1.63715E+18,1465,0,160,126,0,77,180,2183,270165920,33554432,18205,15990,3,56,40.0068267,116.3279459,50.29396812,-9.699999809,0.925380372,0.034202532,-0.003858249,-1.267009327,0.677388129,358.7224195,0.019041434,0.018960975,0.019680912,0.009039455,0.009035204,0.008753124,0.015559763,0.015579913,0.060045041,251666497,0
1.63715E+18,1465,0,160,126,0,77,180,2183,270165940,33554432,18205,15990,3,56,40.00682686,116.3279459,50.29394197,-9.699999809,0.940160764,0.022322946,-0.001213741,-1.258928206,0.675671695,358.8123205,0.019041434,0.018960975,0.019680912,0.009039455,0.009035204,0.008753124,0.015559763,0.015579913,0.060045041,251666497,0
1.63715E+18,1465,0,160,126,0,77,180,2183,270165960,33554432,18205,15990,3,56,40.00682703,116.3279459,50.29391867,-9.699999809,0.954563171,0.019788867,0.000234379,-1.254035888,0.671239668,358.9056068,0.019041434,0.018960975,0.019680912,0.009039455,0.009035204,0.008753124,0.015559763,0.015579913,0.060045041,251666497,0
1.63715E+18,1465,0,160,126,0,77,180,2183,270165980,33554432,18205,15990,3,56,40.00682721,116.3279459,50.29394759,-9.699999809,0.965044188,0.018354936,-0.000224315,-1.254521386,0.664856601,359.0079854,0.019041434,0.018960975,0.019680912,0.009039455,0.009035204,0.008753124,0.015559763,0.015579913,0.060045041,251666497,0
1.63715E+18,1465,0,160,126,0,77,180,2183,270166000,33554432,18205,15990,3,56,40.00682738,116.3279459,50.29404616,-9.699999809,0.978049779,0.006440123,0.007415995,-1.258173113,0.658863187,359.1123273,0.019041434,0.018960975,0.019680912,0.009039455,0.009035204,0.008753124,0.015559763,0.015579913,0.060045041,251666497,0
1.63715E+18,1465,0,160,126,0,77,180,2183,270166020,33554432,18205,15990,3,56,40.00682756,116.3279459,50.29408432,-9.699999809,0.990991298,0.008335139,0.002842468,-1.26696845,0.647092248,359.2273327,0.019041434,0.018960975,0.019680912,0.009039455,0.009035204,0.008753124,0.015559763,0.015579913,0.060045041,251666497,0
1.63715E+18,1465,0,160,126,0,77,180,2183,270166040,33554432,18205,15990,3,56,40.00682774,116.3279459,50.2941694,-9.699999809,1.005242634,0.003205071,0.008971231,-1.276656368,0.636723932,359.346531,0.023326969,0.023241526,0.023936572,0.013129412,0.013112367,0.011920868,0.027791575,0.027805666,0.064402372,251666497,0
1.63715E+18,1465,0,160,126,0,71,180,2183,270166060,33554432,18205,15990,3,56,40.00682792,116.3279459,50.29411625,-9.699999809,1.012549676,0.015542655,0.004564003,-1.277209257,0.627144529,359.4716411,0.023326969,0.023241526,0.023936572,0.013129412,0.013112367,0.011920868,0.027791575,0.027805666,0.064402372,251666497,0
1.63715E+18,1465,0,160,126,0,71,180,2183,270166080,33554432,18205,15990,3,56,40.00682811,116.3279459,50.2941586,-9.699999809,1.023899524,0.029034548,0.006075064,-1.272343351,0.617679463,359.6010641,0.023326969,0.023241526,0.023936572,0.013129412,0.013112367,0.011920868,0.027791575,0.027805666,0.064402372,251666497,0
1.63715E+18,1465,0,160,126,0,71,180,2183,270166100,33554432,18205,15990,3,56,40.00682829,116.3279459,50.29414068,-9.699999809,1.031827439,0.02894759,0.005745776,-1.261846764,0.611059638,359.7325601,0.023326969,0.023241526,0.023936572,0.013129412,0.013112367,0.011920868,0.027791575,0.027805666,0.064402372,251666497,0
1.63715E+18,1465,0,160,126,0,71,180,2183,270166120,33554432,18205,15990,3,56,40.00682848,116.3279459,50.29412368,-9.699999809,1.042493395,0.042053556,0.002774592,-1.254204474,0.604667626,359.8645592,0.023326969,0.023241526,0.023936572,0.013129412,0.013112367,0.011920868,0.027791575,0.027805666,0.064402372,251666497,0
1.63715E+18,1465,0,160,126,0,71,180,2183,270166140,33554432,18205,15990,3,56,40.00682867,116.3279459,50.29411293,-9.699999809,1.051594096,0.043532965,0.005047542,-1.25230074,0.597652567,359.9966573,0.023326969,0.023241526,0.023936572,0.013129412,0.013112367,0.011920868,0.027791575,0.027805666,0.064402372,251666497,0
1.63715E+18,1465,0,160,126,0,71,180,2183,270166160,33554432,18205,15990,3,56,40.00682886,116.3279459,50.29404671,-9.699999809,1.060751076,0.053179143,-0.000226591,-1.244997763,0.594633435,0.128104821,0.023326969,0.023241526,0.023936572,0.013129412,0.013112367,0.011920868,0.027791575,0.027805666,0.064402372,251666497,0
1.63715E+18,1465,0,160,126,0,71,180,2183,270166180,33554432,18205,15990,3,56,40.00682905,116.327946,50.29396304,-9.699999809,1.077723338,0.061945016,-0.000879726,-1.239299321,0.592174252,0.264317474,0.023326969,0.023241526,0.023936572,0.013129412,0.013112367,0.011920868,0.027791575,0.027805666,0.064402372,251666497,0
1.63715E+18,1465,0,160,126,0,71,180,2183,270166200,33554432,18205,15990,3,56,40.00682925,116.327946,50.29386883,-9.699999809,1.089726664,0.060463765,-0.001247021,-1.229519849,0.588924648,0.399010771,0.023326969,0.023241526,0.023936572,0.013129412,0.013112367,0.011920868,0.027791575,0.027805666,0.064402372,251666497,0
1.63715E+18,1465,0,160,126,0,71,180,2183,270166220,33554432,18205,15990,3,56,40.00682944,116.327946,50.29363827,-9.699999809,1.105041709,0.069938632,-0.006819527,-1.222348258,0.58614786,0.533563685,0.023326969,0.023241526,0.023936572,0.013129412,0.013112367,0.011920868,0.027791575,0.027805666,0.064402372,251666497,0
1.63715E+18,1465,0,160,126,0,71,180,2183,270166240,33554432,18205,15990,3,56,40.00682964,116.327946,50.29343222,-9.699999809,1.116760943,0.065556015,-0.006994449,-1.217581059,0.584109886,0.669145299,0.023326969,0.023241526,0.023936572,0.013129412,0.013112367,0.011920868,0.027791575,0.027805666,0.064402372,251666497,0
1.63715E+18,1465,0,160,126,0,71,180,2183,270166260,33554432,18205,15990,3,56,40.00682985,116.327946,50.29309982,-9.699999809,1.131675349,0.067479658,-0.010131146,-1.212600061,0.585551019,0.803857373,0.023326969,0.023241526,0.023936572,0.013129412,0.013112367,0.011920868,0.027791575,0.027805666,0.064402372,251666497,0
1.63715E+18,1465,0,160,126,0,71,180,2183,270166280,33554432,18205,15990,3,56,40.00683005,116.327946,50.29276416,-9.699999809,1.147966642,0.075614457,-0.014553548,-1.209359155,0.582658162,0.941096676,0.023326969,0.023241526,0.023936572,0.013129412,0.013112367,0.011920868,0.027791575,0.027805666,0.064402372,251666497,0
1.63715E+18,1465,0,160,126,0,71,180,2183,270166300,33554432,18205,15990,3,56,40.00683026,116.3279461,50.29237503,-9.699999809,1.161725598,0.06897727,-0.014633629,-1.206376241,0.581042738,1.076638606,0.023326969,0.023241526,0.023936572,0.013129412,0.013112367,0.011920868,0.027791575,0.027805666,0.064402372,251666497,0
1.63715E+18,1465,0,160,126,0,71,180,2183,270166320,33554432,18205,15990,3,56,40.00683047,116.3279461,50.2919397,-9.699999809,1.180261885,0.072251593,-0.019184677,-1.206389662,0.579963445,1.214299997,0.023326969,0.023241526,0.023936572,0.013129412,0.013112367,0.011920868,0.027791575,0.027805666,0.064402372,251666497,0
1.63715E+18,1465,0,160,126,0,71,180,2183,270166340,33554432,18205,15990,3,56,40.00683069,116.3279461,50.29147676,-9.699999809,1.193182884,0.065447859,-0.019531216,-1.214035524,0.574928947,1.356319941,0.023326969,0.023241526,0.023936572,0.013129412,0.013112367,0.011920868,0.027791575,0.027805666,0.064402372,251666497,0
1.63715E+18,1465,0,160,126,0,71,180,2183,270166360,33554432,18205,15990,3,56,40.0068309,116.3279461,50.29098446,-9.699999809,1.206570613,0.062770264,-0.021021749,-1.22099823,0.574394276,1.498734338,0.023326969,0.023241526,0.023936572,0.013129412,0.013112367,0.011920868,0.027791575,0.027805666,0.064402372,251666497,0
1.63715E+18,1465,0,160,126,0,71,180,2183,270166380,33554432,18205,15990,3,56,40.00683112,116.3279461,50.29046515,-9.699999809,1.221285019,0.062503463,-0.021783824,-1.233567288,0.571294571,1.648479461,0.023326969,0.023241526,0.023936572,0.013129412,0.013112367,0.011920868,0.027791575,0.027805666,0.064402372,251666497,0
1.63715E+18,1465,0,160,126,0,71,180,2183,270166400,33554432,18205,15990,3,56,40.00683134,116.3279461,50.28995453,-9.699999809,1.234927082,0.052132687,-0.022064375,-1.249564887,0.56749271,1.80223295,0.023326969,0.023241526,0.023936572,0.013129412,0.013112367,0.011920868,0.027791575,0.027805666,0.064402372,251666497,0
1.63715E+18,1465,0,160,126,0,71,180,2183,270166420,33554432,18205,15990,3,56,40.00683157,116.3279462,50.28939765,-9.699999809,1.249364507,0.052513728,-0.021062687,-1.271172355,0.562759416,1.962236571,0.023326969,0.023241526,0.023936572,0.013129412,0.013112367,0.011920868,0.027791575,0.027805666,0.064402372,251666497,0
1.63715E+18,1465,0,160,126,0,71,180,2183,270166440,33554432,18205,15990,3,56,40.00683179,116.3279462,50.28887507,-9.699999809,1.262313152,0.052764409,-0.022834055,-1.295851309,0.554621856,2.127180945,0.023326969,0.023241526,0.023936572,0.013129412,0.013112367,0.011920868,0.027791575,0.027805666,0.064402372,251666497,0
1.63715E+18,1465,0,160,126,0,71,180,2183,270166460,33554432,18205,15990,3,56,40.00683202,116.3279462,50.28835963,-9.699999809,1.275317723,0.050403397,-0.018125105,-1.324319301,0.548384149,2.297573887,0.023326969,0.023241526,0.023936572,0.013129412,0.013112367,0.011920868,0.027791575,0.027805666,0.064402372,251666497,0
1.63715E+18,1465,0,160,126,0,71,180,2183,270166480,33554432,18205,15990,3,56,40.00683225,116.3279462,50.28784664,-9.699999809,1.285115992,0.062128431,-0.022584613,-1.353233488,0.540434981,2.474156783,0.023326969,0.023241526,0.023936572,0.013129412,0.013112367,0.011920868,0.027791575,0.027805666,0.064402372,251666497,0
1.63715E+18,1465,0,160,126,0,71,180,2183,270166500,33554432,18205,15990,3,56,40.00683249,116.3279462,50.28736016,-9.699999809,1.28795811,0.070672433,-0.019174542,-1.378141153,0.535318873,2.655277059,0.023326969,0.023241526,0.023936572,0.013129412,0.013112367,0.011920868,0.027791575,0.027805666,0.064402372,251666497,0
1.63715E+18,1465,0,160,126,0,71,180,2183,270166520,33554432,18205,15990,3,56,40.00683272,116.3279462,50.2868882,-9.699999809,1.292951913,0.088739433,-0.019398246,-1.39593201,0.530048893,2.835612105,0.023326969,0.023241526,0.023936572,0.013129412,0.013112367,0.011920868,0.027791575,0.027805666,0.064402372,251666497,0
1.63715E+18,1465,0,160,126,0,71,180,2183,270166540,33554432,18205,15990,3,56,40.00683295,116.3279463,50.28642732,-9.699999809,1.303919113,0.096037199,-0.017899145,-1.411876495,0.524202084,3.023072718,0.023326969,0.023241526,0.023936572,0.013129412,0.013112367,0.011920868,0.027791575,0.027805666,0.064402372,251666497,0
1.63715E+18,1465,0,160,126,0,71,180,2183,270166560,33554432,18205,15990,3,56,40.00683319,116.3279463,50.28605681,-9.699999809,1.309295465,0.102085469,-0.012640385,-1.424199539,0.519660299,3.211023444,0.023326969,0.023241526,0.023936572,0.013129412,0.013112367,0.011920868,0.027791575,0.027805666,0.064402372,251666497,0
1.63715E+18,1465,0,160,126,0,71,180,2183,270166580,33554432,18205,15990,3,56,40.00683342,116.3279463,50.28564721,-9.699999809,1.310786633,0.120861843,-0.015244698,-1.43253488,0.515435868,3.408845191,0.023326969,0.023241526,0.023936572,0.013129412,0.013112367,0.011920868,0.027791575,0.027805666,0.064402372,251666497,0
1.63715E+18,1465,0,160,126,0,71,180,2183,270166600,33554432,18205,15990,3,56,40.00683366,116.3279463,50.28533951,-9.699999809,1.318290166,0.12721145,-0.010589393,-1.436501621,0.514608411,3.609778917,0.023326969,0.023241526,0.023936572,0.013129412,0.013112367,0.011920868,0.027791575,0.027805666,0.064402372,251666497,0
1.63715E+18,1465,0,160,126,0,71,180,2183,270166620,33554432,18205,15990,3,56,40.0068339,116.3279464,50.28502452,-9.699999809,1.328604372,0.133554051,-0.008517517,-1.438725921,0.512864306,3.817266721,0.023326969,0.023241526,0.023936572,0.013129412,0.013112367,0.011920868,0.027791575,0.027805666,0.064402372,251666497,0
1.63715E+18,1465,0,160,126,0,71,180,2183,270166640,33554432,18205,15990,3,56,40.00683414,116.3279464,50.28478804,-9.699999809,1.337290329,0.140558384,-0.007866295,-1.446613724,0.506362123,4.029870439,0.023326969,0.023241526,0.023936572,0.013129412,0.013112367,0.011920868,0.027791575,0.027805666,0.064402372,251666497,0
1.63715E+18,1465,0,160,126,0,71,180,2183,270166660,33554432,18205,15990,3,56,40.00683438,116.3279464,50.2845117,-9.699999809,1.342008492,0.148647853,-0.007161842,-1.449164755,0.504910211,4.247961016,0.023326969,0.023241526,0.023936572,0.013129412,0.013112367,0.011920868,0.027791575,0.027805666,0.064402372,251666497,0
1.63715E+18,1465,0,160,126,0,71,180,2183,270166680,33554432,18205,15990,3,56,40.00683463,116.3279465,50.28425454,-9.699999809,1.349485363,0.163549866,-0.009694001,-1.450392514,0.502498068,4.471031128,0.023326969,0.023241526,0.023936572,0.013129412,0.013112367,0.011920868,0.027791575,0.027805666,0.064402372,251666497,0
1.63715E+18,1465,0,160,126,0,71,180,2183,270166700,33554432,18205,15990,3,56,40.00683487,116.3279465,50.28397373,-9.699999809,1.358014686,0.165180605,-0.009768851,-1.451363734,0.499471584,4.700086367,0.023326969,0.023241526,0.023936572,0.013129412,0.013112367,0.011920868,0.027791575,0.027805666,0.064402372,251666497,0
1.63715E+18,1465,0,160,126,0,71,180,2183,270166720,33554432,18205,15990,3,56,40.00683511,116.3279466,50.28366492,-9.699999809,1.366237618,0.177176153,-0.012435462,-1.450632315,0.498618655,4.930351109,0.023326969,0.023241526,0.023936572,0.013129412,0.013112367,0.011920868,0.027791575,0.027805666,0.064402372,251666497,0
1.63715E+18,1465,0,160,126,0,71,180,2183,270166740,33554432,18205,15990,3,56,40.00683536,116.3279466,50.28329278,-9.699999809,1.37147841,0.189832295,-0.016490381,-1.445726535,0.497809625,5.167635957,0.023326969,0.023241526,0.023936572,0.013129412,0.013112367,0.011920868,0.027791575,0.027805666,0.064402372,251666497,0
1.63715E+18,1465,0,160,126,0,71,180,2183,270166760,33554432,18205,15990,3,56,40.00683561,116.3279466,50.28290715,-9.699999809,1.381367757,0.200702692,-0.016371707,-1.433957109,0.500172902,5.406490677,0.023326969,0.023241526,0.023936572,0.013129412,0.013112367,0.011920868,0.027791575,0.027805666,0.064402372,251666497,0
1.63715E+18,1465,0,160,126,0,71,180,2183,270166780,33554432,18205,15990,3,56,40.00683586,116.3279467,50.28242655,-9.699999809,1.394552677,0.225436045,-0.02123847,-1.412399233,0.497504269,5.649092234,0.023326969,0.023241526,0.023936572,0.013129412,0.013112367,0.011920868,0.027791575,0.027805666,0.064402372,251666497,0
1.63715E+18,1465,0,160,126,0,71,180,2183,270166800,33554432,18205,15990,3,56,40.00683611,116.3279468,50.28201073,-9.699999809,1.408068644,0.223370423,-0.017237223,-1.393873286,0.493930748,5.892338384,0.023326969,0.023241526,0.023936572,0.013129412,0.013112367,0.011920868,0.027791575,0.027805666,0.064402372,251666497,0
1.63715E+18,1465,0,160,126,0,71,180,2183,270166820,33554432,18205,15990,3,56,40.00683637,116.3279468,50.28147189,-9.699999809,1.416114576,0.238097874,-0.02167587,-1.377651909,0.488847108,6.137204763,0.023326969,0.023241526,0.023936572,0.013129412,0.013112367,0.011920868,0.027791575,0.027805666,0.064402372,251666497,0
1.63715E+18,1465,0,160,126,0,71,180,2183,270166840,33554432,18205,15990,3,56,40.00683662,116.3279469,50.28100344,-9.699999809,1.436161084,0.24949568,-0.019154413,-1.363014629,0.482484226,6.384261472,0.023326969,0.023241526,0.023936572,0.013129412,0.013112367,0.011920868,0.027791575,0.027805666,0.064402372,251666497,0
1.63715E+18,1465,0,160,126,0,71,180,2183,270166860,33554432,18205,15990,3,56,40.00683688,116.3279469,50.28059479,-9.699999809,1.438633819,0.259180692,-0.013376675,-1.340487196,0.465520999,6.631513545,0.023326969,0.023241526,0.023936572,0.013129412,0.013112367,0.011920868,0.027791575,0.027805666,0.064402372,251666497,0
1.63715E+18,1465,0,160,126,0,71,180,2183,270166880,33554432,18205,15990,3,56,40.00683714,116.327947,50.28017463,-9.699999809,1.447806763,0.263601333,-0.017764466,-1.319916868,0.455093531,6.878314102,0.023326969,0.023241526,0.023936572,0.013129412,0.013112367,0.011920868,0.027791575,0.027805666,0.064402372,251666497,0
1.63715E+18,1465,0,160,126,0,71,180,2183,270166900,33554432,18205,15990,3,56,40.00683741,116.3279471,50.27985065,-9.699999809,1.459356287,0.269944645,-0.011494811,-1.312804195,0.43941538,7.124417492,0.023326969,0.023241526,0.023936572,0.013129412,0.013112367,0.011920868,0.027791575,0.027805666,0.064402372,251666497,0
1.63715E+18,1465,0,160,126,0,71,180,2183,270166920,33554432,18205,15990,3,56,40.00683767,116.3279471,50.27953043,-9.699999809,1.461030517,0.267452902,-0.012680343,-1.305098521,0.426104061,7.371075495,0.023326969,0.023241526,0.023936572,0.013129412,0.013112367,0.011920868,0.027791575,0.027805666,0.064402372,251666497,0
1.63715E+18,1465,0,160,126,0,71,180,2183,270166940,33554432,18205,15990,3,56,40.00683793,116.3279472,50.27923409,-9.699999809,1.477820041,0.276420262,-0.010152155,-1.301062556,0.415321738,7.622520265,0.023326969,0.023241526,0.023936572,0.013129412,0.013112367,0.011920868,0.027791575,0.027805666,0.064402372,251666497,0
1.63715E+18,1465,0,160,126,0,71,180,2183,270166960,33554432,18205,15990,3,56,40.0068382,116.3279472,50.27898317,-9.699999809,1.482090563,0.266657557,-0.008536147,-1.300544279,0.403081313,7.875415076,0.023326969,0.023241526,0.023936572,0.013129412,0.013112367,0.011920868,0.027791575,0.027805666,0.064402372,251666497,0
1.63715E+18,1465,0,160,126,0,71,180,2183,270166980,33554432,18205,15990,3,56,40.00683847,116.3279473,50.27865828,-9.699999809,1.488568818,0.276470953,-0.011022913,-1.30123919,0.396676384,8.130423095,0.023326969,0.023241526,0.023936572,0.013129412,0.013112367,0.011920868,0.027791575,0.027805666,0.064402372,251666497,0
1.63715E+18,1465,0,160,126,0,71,180,2183,270167000,33554432,18205,15990,3,56,40.00683874,116.3279474,50.27835085,-9.699999809,1.496854698,0.272091525,-0.013493095,-1.306228087,0.389409193,8.390185095,0.023326969,0.023241526,0.023936572,0.013129412,0.013112367,0.011920868,0.027791575,0.027805666,0.064402372,251666497,0
1.63715E+18,1465,0,160,126,0,71,180,2183,270167020,33554432,18205,15990,3,56,40.00683901,116.3279474,50.27798099,-9.699999809,1.500141261,0.274592794,-0.014288085,-1.31130082,0.388774216,8.650419313,0.034633137,0.034551103,0.034515284,0.018242471,0.018229017,0.014904986,0.035941254,0.035953518,0.068515018,251666497,0
1.63715E+18,1465,0,160,126,0,71,180,2183,270167040,33554432,18205,15990,3,56,40.00683928,116.3279475,50.2776438,-9.699999809,1.50898552,0.282804111,-0.01599069,-1.318807638,0.388303244,8.91549465,0.028665693,0.028542185,0.029236799,0.016667662,0.016645867,0.0135912,0.035848625,0.03585735,0.06848684,251666497,0
1.63715E+18,1465,0,160,126,0,71,180,2183,270167060,33554432,18205,15990,3,56,40.00683955,116.3279476,50.27730733,-9.699999809,1.510894354,0.277805451,-0.016072449,-1.330637816,0.390922061,9.184503364,0.028665693,0.028542185,0.029236799,0.016667662,0.016645867,0.0135912,0.035848625,0.03585735,0.06848684,251666497,0
1.63715E+18,1465,0,160,126,0,75,180,2183,270167080,33554432,18205,15990,3,56,40.00683982,116.3279476,50.27689964,-9.699999809,1.517000782,0.290176865,-0.020611387,-1.345269576,0.400385075,9.454363659,0.028665693,0.028542185,0.029236799,0.016667662,0.016645867,0.0135912,0.035848625,0.03585735,0.06848684,251666497,0
