time, .header.seq, .header.stamp.secs, .header.stamp.nsecs, .header.frame_id, .orientation.x, .orientation.y, .orientation.z, .orientation.w, .orientation_covariance, .angular_velocity.x, .angular_velocity.y, .angular_velocity.z, .angular_velocity_covariance, .linear_acceleration.x, .linear_acceleration.y, .linear_acceleration.z, .linear_acceleration_covariance
1636558244847459544, 3695, 1636512861, 102406978, base_link, 0.00309775948805, -0.0139921463079, -0.697413884411, 0.71652529443, "(0.001414238201746798, 0.0, 0.0, 0.0, 0.0014145694047763002, 0.0, 0.0, 0.0, 0.0015535758502994157)", -0.000754141233917, 0.000560506556536, -0.00019734474681, "(0.001, 0.0, 0.0, 0.0, 0.001, 0.0, 0.0, 0.0, 0.001)", -0.396610441782, 0.0220266653888, -0.0833625635347, "(0.001, 0.0, 0.0, 0.0, 0.001, 0.0, 0.0, 0.0, 0.001)"
1636558245018262582, 3696, 1636512861, 120440959, base_link, 0.00309775948805, -0.0139921463079, -0.697413884411, 0.71652529443, "(0.001414238201746798, 0.0, 0.0, 0.0, 0.0014145694047763002, 0.0, 0.0, 0.0, 0.0015535758502994157)", -0.000971135978911, -0.00158333683607, -0.00100537918214, "(0.001, 0.0, 0.0, 0.0, 0.001, 0.0, 0.0, 0.0, 0.001)", 0.342732457702, -0.0179603050709, 0.113030663781, "(0.001, 0.0, 0.0, 0.0, 0.001, 0.0, 0.0, 0.0, 0.001)"
1636558245018298442, 3697, 1636512861, 141756057, base_link, 0.0030927426414, -0.0139913609645, -0.697417162497, 0.716522140772, "(0.001414238201746798, 0.0, 0.0, 0.0, 0.0014145694047763002, 0.0, 0.0, 0.0, 0.0015535758502994157)", -0.000236316904179, 0.00030771752975, -0.000222004644934, "(0.001, 0.0, 0.0, 0.0, 0.001, 0.0, 0.0, 0.0, 0.001)", -0.33729659751, 0.0454062382042, -0.0956880388202, "(0.001, 0.0, 0.0, 0.0, 0.001, 0.0, 0.0, 0.0, 0.001)"
1636558245018309088, 3698, 1636512861, 162249088, base_link, 0.00307735048362, -0.013997692096, -0.697417275307, 0.716521973588, "(0.001414238201746798, 0.0, 0.0, 0.0, 0.0014145694047763002, 0.0, 0.0, 0.0, 0.0015535758502994157)", -0.000222792487413, -0.00298103337285, -0.000356342336792, "(0.001, 0.0, 0.0, 0.0, 0.001, 0.0, 0.0, 0.0, 0.001)", 0.220933692637, 0.0129797724587, 0.0730196965715, "(0.001, 0.0, 0.0, 0.0, 0.001, 0.0, 0.0, 0.0, 0.001)"
1636558245018339790, 3699, 1636512861, 183856010, base_link, 0.0030778845997, -0.01399041285, -0.697420438092, 0.716519034993, "(0.001414238201746798, 0.0, 0.0, 0.0, 0.0014145694047763002, 0.0, 0.0, 0.0, 0.0015535758502994157)", -0.00092052847676, 0.000294328958866, -0.000175898019738, "(0.001, 0.0, 0.0, 0.0, 0.001, 0.0, 0.0, 0.0, 0.001)", -0.213377717839, -0.0570127850893, -0.0484950043593, "(0.001, 0.0, 0.0, 0.0, 0.001, 0.0, 0.0, 0.0, 0.001)"
1636558245018359930, 3700, 1636512861, 202209949, base_link, 0.0030779133086, -0.013990185001, -0.697422072802, 0.716517448176, "(0.001414238201746798, 0.0, 0.0, 0.0, 0.0014145694047763002, 0.0, 0.0, 0.0, 0.0015535758502994157)", -0.00101725799789, -0.000338394958763, -0.000962907034745, "(0.001, 0.0, 0.0, 0.0, 0.001, 0.0, 0.0, 0.0, 0.001)", 0.222051666159, -0.0403376730241, -0.0034963577795, "(0.001, 0.0, 0.0, 0.0, 0.001, 0.0, 0.0, 0.0, 0.001)"
1636558245018378931, 3701, 1636512861, 222409009, base_link, 0.00308109427054, -0.013994066955, -0.697421681219, 0.716517739846, "(0.001414238201746798, 0.0, 0.0, 0.0, 0.0014145694047763002, 0.0, 0.0, 0.0, 0.0015535758502994157)", 0.000523894087738, 0.000282938545682, 0.000192974814859, "(0.001, 0.0, 0.0, 0.0, 0.001, 0.0, 0.0, 0.0, 0.001)", -0.292600453305, 0.00415401731754, -0.0384528376623, "(0.001, 0.0, 0.0, 0.0, 0.001, 0.0, 0.0, 0.0, 0.001)"
1636558245105770363, 3702, 1636512861, 240852117, base_link, 0.00308102344833, -0.0139984852023, -0.697425526724, 0.716513910807, "(0.001414238201746798, 0.0, 0.0, 0.0, 0.0014145694047763002, 0.0, 0.0, 0.0, 0.0015535758502994157)", 0.0012082450384, -0.00118248684061, -0.0012221989251, "(0.001, 0.0, 0.0, 0.0, 0.001, 0.0, 0.0, 0.0, 0.001)", 0.348231774266, 0.0639388289882, 0.0532889155583, "(0.001, 0.0, 0.0, 0.0, 0.001, 0.0, 0.0, 0.0, 0.001)"
1636558245105811392, 3703, 1636512861, 262212991, base_link, 0.00307884156195, -0.0139922442367, -0.697425198712, 0.716514361361, "(0.001414238201746798, 0.0, 0.0, 0.0, 0.0014145694047763002, 0.0, 0.0, 0.0, 0.0015535758502994157)", -0.000872595647693, 0.000476501640292, 0.000278024579494, "(0.001, 0.0, 0.0, 0.0, 0.001, 0.0, 0.0, 0.0, 0.001)", -0.344444342494, -0.115032670416, -0.0537162210411, "(0.001, 0.0, 0.0, 0.0, 0.001, 0.0, 0.0, 0.0, 0.001)"
1636558245105819605, 3704, 1636512861, 282563924, base_link, 0.00307645388656, -0.0139952781075, -0.69742196794, 0.716517457049, "(0.001414238201746798, 0.0, 0.0, 0.0, 0.0014145694047763002, 0.0, 0.0, 0.0, 0.0015535758502994157)", 0.000403920647941, -0.0012070033416, 0.000154980149249, "(0.001, 0.0, 0.0, 0.0, 0.001, 0.0, 0.0, 0.0, 0.001)", 0.383389124766, -0.0542801596546, 0.0681889624182, "(0.001, 0.0, 0.0, 0.0, 0.001, 0.0, 0.0, 0.0, 0.001)"
1636558245105830793, 3705, 1636512861, 305269002, base_link, 0.00308130339664, -0.0139842166969, -0.697424862188, 0.716514835056, "(0.001414238201746798, 0.0, 0.0, 0.0, 0.0014145694047763002, 0.0, 0.0, 0.0, 0.0015535758502994157)", -0.00087098399341, 0.00143949484814, 6.54106562619e-05, "(0.001, 0.0, 0.0, 0.0, 0.001, 0.0, 0.0, 0.0, 0.001)", -0.22585186046, 0.00823163591713, -0.0548675610688, "(0.001, 0.0, 0.0, 0.0, 0.001, 0.0, 0.0, 0.0, 0.001)"
1636558245105835817, 3706, 1636512861, 322803020, base_link, 0.00306813551548, -0.0139954386174, -0.697420243362, 0.716519168196, "(0.0015597022089547524, 0.0, 0.0, 0.0, 0.0015600126542119619, 0.0, 0.0, 0.0, 0.0016993155187328274)", -0.000261259349968, -0.00188100624462, 0.000495688375673, "(0.001, 0.0, 0.0, 0.0, 0.001, 0.0, 0.0, 0.0, 0.001)", 0.163427521801, 0.0415485117093, 0.0619325991559, "(0.001, 0.0, 0.0, 0.0, 0.001, 0.0, 0.0, 0.0, 0.001)"
1636558245105843977, 3707, 1636512861, 341660022, base_link, 0.00306871460134, -0.0139866384963, -0.697418354056, 0.716521176491, "(0.001367942488112242, 0.0, 0.0, 0.0, 0.0013682153110514822, 0.0, 0.0, 0.0, 0.0014524912931444117)", -0.000625778526483, 0.000323204332653, 0.000735548951117, "(0.001, 0.0, 0.0, 0.0, 0.001, 0.0, 0.0, 0.0, 0.001)", -0.184583191145, -0.0460481836813, -0.0332841813687, "(0.001, 0.0, 0.0, 0.0, 0.001, 0.0, 0.0, 0.0, 0.001)"
1636558245107177701, 3708, 1636512861, 361191034, base_link, 0.00308204220814, -0.0139977846627, -0.697418176812, 0.716521074144, "(0.001367942488112242, 0.0, 0.0, 0.0, 0.0013682153110514822, 0.0, 0.0, 0.0, 0.0014524912931444117)", 0.00167259699353, 7.50585855167e-05, -0.000277242132875, "(0.001, 0.0, 0.0, 0.0, 0.001, 0.0, 0.0, 0.0, 0.001)", 0.218462221898, -0.0416312245083, -0.0457374930081, "(0.001, 0.0, 0.0, 0.0, 0.001, 0.0, 0.0, 0.0, 0.001)"
1636558245107237914, 3709, 1636512861, 381937026, base_link, 0.00308281950273, -0.0139890823989, -0.697415842558, 0.716523512766, "(0.001367942488112242, 0.0, 0.0, 0.0, 0.0013682153110514822, 0.0, 0.0, 0.0, 0.0014524912931444117)", 0.000320618019248, 0.000632930288424, 0.000727041895772, "(0.001, 0.0, 0.0, 0.0, 0.001, 0.0, 0.0, 0.0, 0.001)", -0.293252951761, 0.0505336301196, -0.0124377994535, "(0.001, 0.0, 0.0, 0.0, 0.001, 0.0, 0.0, 0.0, 0.001)"
1636558245107244683, 3710, 1636512861, 401371955, base_link, 0.00307853499176, -0.0139918037163, -0.697417008686, 0.71652234302, "(0.001367942488112242, 0.0, 0.0, 0.0, 0.0013682153110514822, 0.0, 0.0, 0.0, 0.0014524912931444117)", 0.000163228586014, -0.000857334885218, -1.52988253529e-05, "(0.001, 0.0, 0.0, 0.0, 0.001, 0.0, 0.0, 0.0, 0.001)", 0.301230390196, -0.0512265508064, -0.000155846579854, "(0.001, 0.0, 0.0, 0.0, 0.001, 0.0, 0.0, 0.0, 0.001)"
1636558245187527954, 3711, 1636512861, 422175884, base_link, 0.00308448740074, -0.0139928824176, -0.697416388932, 0.716522899584, "(0.001367942488112242, 0.0, 0.0, 0.0, 0.0013682153110514822, 0.0, 0.0, 0.0, 0.0014524912931444117)", -8.35698788704e-05, 0.000828583744485, 0.000259704405677, "(0.001, 0.0, 0.0, 0.0, 0.001, 0.0, 0.0, 0.0, 0.001)", -0.374681136746, 0.0204368620409, 0.0165719822657, "(0.001, 0.0, 0.0, 0.0, 0.001, 0.0, 0.0, 0.0, 0.001)"
1636558245187537789, 3712, 1636512861, 441643953, base_link, 0.00306450508949, -0.014006129662, -0.697419587331, 0.716519613373, "(0.001367942488112242, 0.0, 0.0, 0.0, 0.0013682153110514822, 0.0, 0.0, 0.0, 0.0014524912931444117)", -7.32591965713e-05, -0.00357354333428, -0.000911265126216, "(0.001, 0.0, 0.0, 0.0, 0.001, 0.0, 0.0, 0.0, 0.001)", 0.281046021, -0.0204024672966, 0.0762305785138, "(0.001, 0.0, 0.0, 0.0, 0.001, 0.0, 0.0, 0.0, 0.001)"
1636558245187558149, 3713, 1636512861, 461862087, base_link, 0.00308261859564, -0.0139847207043, -0.697420254977, 0.716519303994, "(0.001367942488112242, 0.0, 0.0, 0.0, 0.0013682153110514822, 0.0, 0.0, 0.0, 0.0014524912931444117)", -0.000237806778006, 0.00196511322541, 8.97593562336e-05, "(0.001, 0.0, 0.0, 0.0, 0.001, 0.0, 0.0, 0.0, 0.001)", -0.196033401499, -0.0498135468441, 0.0289717622961, "(0.001, 0.0, 0.0, 0.0, 0.001, 0.0, 0.0, 0.0, 0.001)"
1636558245187581091, 3714, 1636512861, 481478929, base_link, 0.00306467014039, -0.0139908308775, -0.697422458333, 0.716517117075, "(0.001367942488112242, 0.0, 0.0, 0.0, 0.0013682153110514822, 0.0, 0.0, 0.0, 0.0014524912931444117)", -0.0017973997243, -0.00108982078941, -0.000730835008684, "(0.001, 0.0, 0.0, 0.0, 0.001, 0.0, 0.0, 0.0, 0.001)", 0.100699866265, -0.120969279938, 0.0866742404293, "(0.001, 0.0, 0.0, 0.0, 0.001, 0.0, 0.0, 0.0, 0.001)"
1636558245374902394, 3715, 1636512861, 503396034, base_link, 0.00305398404038, -0.013958272043, -0.697422839823, 0.716517426387, "(0.001367942488112242, 0.0, 0.0, 0.0, 0.0013682153110514822, 0.0, 0.0, 0.0, 0.0014524912931444117)", -0.00277657895982, 0.0012363820489, -2.78987364336e-05, "(0.001, 0.0, 0.0, 0.0, 0.001, 0.0, 0.0, 0.0, 0.001)", -0.173725645677, -0.0473899384092, 0.0782433359137, "(0.001, 0.0, 0.0, 0.0, 0.001, 0.0, 0.0, 0.0, 0.001)"
1636558245374946042, 3716, 1636512861, 520960092, base_link, 0.00305106352829, -0.013961578161, -0.69742757737, 0.71651276309, "(0.001367942488112242, 0.0, 0.0, 0.0, 0.0013682153110514822, 0.0, 0.0, 0.0, 0.0014524912931444117)", -0.0022246812658, -5.9482660079e-05, -0.00112714393849, "(0.001, 0.0, 0.0, 0.0, 0.001, 0.0, 0.0, 0.0, 0.001)", 0.17246410509, -0.0717831392713, -0.0290293515439, "(0.001, 0.0, 0.0, 0.0, 0.001, 0.0, 0.0, 0.0, 0.001)"
1636558245374953476, 3717, 1636512861, 541774034, base_link, 0.00304568239569, -0.0139488209905, -0.697427442813, 0.716513165422, "(0.001367942488112242, 0.0, 0.0, 0.0, 0.0013682153110514822, 0.0, 0.0, 0.0, 0.0014524912931444117)", -0.00171261267998, 0.00112490030371, -9.97315494506e-05, "(0.001, 0.0, 0.0, 0.0, 0.001, 0.0, 0.0, 0.0, 0.001)", -0.299796060997, -0.110096268313, 0.0212383262672, "(0.001, 0.0, 0.0, 0.0, 0.001, 0.0, 0.0, 0.0, 0.001)"
1636558245374959736, 3718, 1636512861, 562131881, base_link, 0.0030305379006, -0.0139555183318, -0.697428986945, 0.716511596219, "(0.001367942488112242, 0.0, 0.0, 0.0, 0.0013682153110514822, 0.0, 0.0, 0.0, 0.0014524912931444117)", -0.00193205577905, -0.00272731152688, -0.000543856185531, "(0.001, 0.0, 0.0, 0.0, 0.001, 0.0, 0.0, 0.0, 0.001)", 0.228880070857, -0.130854356675, -0.0293837798513, "(0.001, 0.0, 0.0, 0.0, 0.001, 0.0, 0.0, 0.0, 0.001)"
1636558245374967273, 3719, 1636512861, 581958055, base_link, 0.00302718246424, -0.0139437895919, -0.69742911113, 0.716511717871, "(0.001367942488112242, 0.0, 0.0, 0.0, 0.0013682153110514822, 0.0, 0.0, 0.0, 0.0014524912931444117)", -0.00144174183657, 0.000608454686432, -9.75365029103e-05, "(0.001, 0.0, 0.0, 0.0, 0.001, 0.0, 0.0, 0.0, 0.001)", -0.256989332276, -0.046689986328, 0.0267387993132, "(0.001, 0.0, 0.0, 0.0, 0.001, 0.0, 0.0, 0.0, 0.001)"
1636558245375825018, 3720, 1636512861, 601301908, base_link, 0.00301094565258, -0.0139673660822, -0.697429349396, 0.716511095164, "(0.001367942488112242, 0.0, 0.0, 0.0, 0.0013682153110514822, 0.0, 0.0, 0.0, 0.0014524912931444117)", -0.000610538724048, -0.00411495564407, -0.000158558065231, "(0.001, 0.0, 0.0, 0.0, 0.001, 0.0, 0.0, 0.0, 0.001)", 0.18876962015, -0.121599318387, -0.108320877285, "(0.001, 0.0, 0.0, 0.0, 0.001, 0.0, 0.0, 0.0, 0.001)"
1636558245537307942, 3721, 1636512861, 622152090, base_link, 0.00301317313631, -0.0139500775395, -0.697425659062, 0.716515014641, "(0.001367942488112242, 0.0, 0.0, 0.0, 0.0013682153110514822, 0.0, 0.0, 0.0, 0.0014524912931444117)", -0.000921951395779, 0.000496995325026, 0.000617590767057, "(0.001, 0.0, 0.0, 0.0, 0.001, 0.0, 0.0, 0.0, 0.001)", -0.13668905685, -0.045367944466, 0.0296425997039, "(0.001, 0.0, 0.0, 0.0, 0.001, 0.0, 0.0, 0.0, 0.001)"
1636558245537354806, 3722, 1636512861, 641072034, base_link, 0.00300798813773, -0.0139754045595, -0.697424028959, 0.71651612955, "(0.001367942488112242, 0.0, 0.0, 0.0, 0.0013682153110514822, 0.0, 0.0, 0.0, 0.0014524912931444117)", 0.00106243299153, -0.00293457399748, 0.00031296600998, "(0.001, 0.0, 0.0, 0.0, 0.001, 0.0, 0.0, 0.0, 0.001)", 0.113401086238, -0.0320236106031, -0.030806592761, "(0.001, 0.0, 0.0, 0.0, 0.001, 0.0, 0.0, 0.0, 0.001)"
1636558245537364151, 3723, 1636512861, 661571025, base_link, 0.00300278026531, -0.0139630225332, -0.697418808262, 0.716521474343, "(0.001367942488112242, 0.0, 0.0, 0.0, 0.0013682153110514822, 0.0, 0.0, 0.0, 0.0014524912931444117)", -0.000733978201349, -0.000267358448799, 0.00108489868964, "(0.001, 0.0, 0.0, 0.0, 0.001, 0.0, 0.0, 0.0, 0.001)", -0.12427479565, -0.0524952426162, 0.00163844931389, "(0.001, 0.0, 0.0, 0.0, 0.001, 0.0, 0.0, 0.0, 0.001)"
1636558245537409031, 3724, 1636512861, 681704998, base_link, 0.00300703221875, -0.0139630893593, -0.697415951765, 0.71652423554, "(0.001367942488112242, 0.0, 0.0, 0.0, 0.0013682153110514822, 0.0, 0.0, 0.0, 0.0014524912931444117)", 0.000241650950622, -6.67486381273e-06, 0.00105799733418, "(0.001, 0.0, 0.0, 0.0, 0.001, 0.0, 0.0, 0.0, 0.001)", 0.246842215124, -0.0511011285126, -0.0635646210939, "(0.001, 0.0, 0.0, 0.0, 0.001, 0.0, 0.0, 0.0, 0.001)"
1636558245758888226, 3725, 1636512861, 703299045, base_link, 0.00300805533822, -0.0139585069798, -0.697416809792, 0.716523485384, "(0.001367942488112242, 0.0, 0.0, 0.0, 0.0013682153110514822, 0.0, 0.0, 0.0, 0.0014524912931444117)", -0.000408756835123, 0.000747811362387, 0.000444851351751, "(0.001, 0.0, 0.0, 0.0, 0.001, 0.0, 0.0, 0.0, 0.001)", -0.287400255672, -0.0971485604577, -0.0422725336473, "(0.001, 0.0, 0.0, 0.0, 0.001, 0.0, 0.0, 0.0, 0.001)"
1636558245993232834, 3726, 1636512861, 721194028, base_link, 0.00301350971281, -0.0139764141629, -0.697416301684, 0.716523607952, "(0.001367942488112242, 0.0, 0.0, 0.0, 0.0013682153110514822, 0.0, 0.0, 0.0, 0.0014524912931444117)", 0.00190780797023, -0.00190249909527, -0.000279691486999, "(0.001, 0.0, 0.0, 0.0, 0.001, 0.0, 0.0, 0.0, 0.001)", 0.320332598689, 0.0788329901087, -0.0855030881899, "(0.001, 0.0, 0.0, 0.0, 0.001, 0.0, 0.0, 0.0, 0.001)"
1636558245993251474, 3727, 1636512861, 743199110, base_link, 0.00302463345935, -0.0139679356864, -0.697417395845, 0.716522661427, "(0.001367942488112242, 0.0, 0.0, 0.0, 0.0013682153110514822, 0.0, 0.0, 0.0, 0.0014524912931444117)", 0.000985208747836, 0.00162297049126, -3.99200546677e-05, "(0.001, 0.0, 0.0, 0.0, 0.001, 0.0, 0.0, 0.0, 0.001)", -0.277126701597, 0.0523458567471, -0.0276690024537, "(0.001, 0.0, 0.0, 0.0, 0.001, 0.0, 0.0, 0.0, 0.001)"
1636558245993258333, 3728, 1636512861, 760885953, base_link, 0.00302261808854, -0.0140041010423, -0.697416703556, 0.716522637839, "(0.001367942488112242, 0.0, 0.0, 0.0, 0.0013682153110514822, 0.0, 0.0, 0.0, 0.0014524912931444117)", 0.00355275089229, -0.00293198672336, -8.21284739971e-05, "(0.001, 0.0, 0.0, 0.0, 0.001, 0.0, 0.0, 0.0, 0.001)", 0.193431610577, 0.081838515457, -0.0914513169718, "(0.001, 0.0, 0.0, 0.0, 0.001, 0.0, 0.0, 0.0, 0.001)"
1636558245993263502, 3729, 1636512861, 781662940, base_link, 0.00304140578055, -0.0139985415101, -0.697416478177, 0.716522886343, "(0.001367942488112242, 0.0, 0.0, 0.0, 0.0013682153110514822, 0.0, 0.0, 0.0, 0.0014524912931444117)", 0.00212211907395, 0.000648531269388, 0.000203922501042, "(0.001, 0.0, 0.0, 0.0, 0.001, 0.0, 0.0, 0.0, 0.001)", -0.145273379032, 0.0614407599465, -0.0232664446675, "(0.001, 0.0, 0.0, 0.0, 0.001, 0.0, 0.0, 0.0, 0.001)"
1636558245993279732, 3730, 1636512861, 802931070, base_link, 0.00304692323134, -0.0140309000794, -0.697420011414, 0.716518790948, "(0.001367942488112242, 0.0, 0.0, 0.0, 0.0013682153110514822, 0.0, 0.0, 0.0, 0.0014524912931444117)", 0.0048899603719, -0.00210378836208, -0.00082600558456, "(0.001, 0.0, 0.0, 0.0, 0.001, 0.0, 0.0, 0.0, 0.001)", 0.0879531867327, 0.188541285626, -0.0819937819303, "(0.001, 0.0, 0.0, 0.0, 0.001, 0.0, 0.0, 0.0, 0.001)"
1636558245993293276, 3731, 1636512861, 821742057, base_link, 0.00306283508918, -0.0140359424788, -0.697422709474, 0.716515998195, "(0.001367942488112242, 0.0, 0.0, 0.0, 0.0013682153110514822, 0.0, 0.0, 0.0, 0.0014524912931444117)", 0.00263818906735, 0.000262511445231, -0.000549459010981, "(0.001, 0.0, 0.0, 0.0, 0.001, 0.0, 0.0, 0.0, 0.001)", -0.199241558104, 0.241507443593, 0.0353373920313, "(0.001, 0.0, 0.0, 0.0, 0.001, 0.0, 0.0, 0.0, 0.001)"
1636558245993304837, 3732, 1636512861, 840969085, base_link, 0.0030688608591, -0.0140507982429, -0.697426971052, 0.716511533202, "(0.001367942488112242, 0.0, 0.0, 0.0, 0.0013682153110514822, 0.0, 0.0, 0.0, 0.0014524912931444117)", 0.003595111715, -0.00139869202259, -0.00145471180713, "(0.001, 0.0, 0.0, 0.0, 0.001, 0.0, 0.0, 0.0, 0.001)", 0.182939487511, 0.257714629682, -0.080669542704, "(0.001, 0.0, 0.0, 0.0, 0.001, 0.0, 0.0, 0.0, 0.001)"
1636558245993477764, 3733, 1636512861, 862008094, base_link, 0.00308476282086, -0.0140613907362, -0.697429567422, 0.716508729894, "(0.001367942488112242, 0.0, 0.0, 0.0, 0.0013682153110514822, 0.0, 0.0, 0.0, 0.0014524912931444117)", 0.00294384510947, 0.000573418576198, -0.000609076491239, "(0.001, 0.0, 0.0, 0.0, 0.001, 0.0, 0.0, 0.0, 0.001)", -0.290032147139, 0.156646170233, 0.00581626145659, "(0.001, 0.0, 0.0, 0.0, 0.001, 0.0, 0.0, 0.0, 0.001)"
1636558245995098040, 3734, 1636512861, 881022930, base_link, 0.0031048405215, -0.0140949409174, -0.697432869498, 0.716504769803, "(0.001367942488112242, 0.0, 0.0, 0.0, 0.0013682153110514822, 0.0, 0.0, 0.0, 0.0014524912931444117)", 0.00674921389858, -0.00221733295363, -0.00134541239561, "(0.001, 0.0, 0.0, 0.0, 0.001, 0.0, 0.0, 0.0, 0.001)", 0.22343044076, 0.351299555133, -0.205127176395, "(0.001, 0.0, 0.0, 0.0, 0.001, 0.0, 0.0, 0.0, 0.001)"
1636558245995110866, 3735, 1636512861, 901563882, base_link, 0.00313452934105, -0.0141029168047, -0.697429165351, 0.716508089125, "(0.001367942488112242, 0.0, 0.0, 0.0, 0.0013682153110514822, 0.0, 0.0, 0.0, 0.0014524912931444117)", 0.00503893117275, 0.00168468221662, 0.00014582573242, "(0.001, 0.0, 0.0, 0.0, 0.001, 0.0, 0.0, 0.0, 0.001)", -0.24032762728, 0.329989962317, 0.00336425463058, "(0.001, 0.0, 0.0, 0.0, 0.001, 0.0, 0.0, 0.0, 0.001)"
1636558246402670704, 3736, 1636512861, 922144889, base_link, 0.00315734451716, -0.0141676169707, -0.697429188798, 0.716506689723, "(0.001367942488112242, 0.0, 0.0, 0.0, 0.0013682153110514822, 0.0, 0.0, 0.0, 0.0014524912931444117)", 0.0109322699513, -0.00410200314195, 3.42807988048e-05, "(0.001, 0.0, 0.0, 0.0, 0.001, 0.0, 0.0, 0.0, 0.001)", 0.123040461884, 0.456379531948, -0.283009803873, "(0.001, 0.0, 0.0, 0.0, 0.001, 0.0, 0.0, 0.0, 0.001)"
1636558246402710233, 3737, 1636512861, 941423892, base_link, 0.00315734451716, -0.0141676169707, -0.697429188798, 0.716506689723, "(0.001367942488112242, 0.0, 0.0, 0.0, 0.0013682153110514822, 0.0, 0.0, 0.0, 0.0014524912931444117)", 0.00826188826404, 7.3958898573e-05, -0.000154854296098, "(0.001, 0.0, 0.0, 0.0, 0.001, 0.0, 0.0, 0.0, 0.001)", -0.174187883803, 0.406937885813, 0.0335058097284, "(0.001, 0.0, 0.0, 0.0, 0.001, 0.0, 0.0, 0.0, 0.001)"
1636558246402757275, 3738, 1636512861, 961008071, base_link, 0.00321962568244, -0.0142756075128, -0.697423486724, 0.716509819337, "(0.001367942488112242, 0.0, 0.0, 0.0, 0.0013682153110514822, 0.0, 0.0, 0.0, 0.0014524912931444117)", 0.0146910340178, -0.00577677422325, 0.000634016734653, "(0.001, 0.0, 0.0, 0.0, 0.001, 0.0, 0.0, 0.0, 0.001)", 0.116220501832, 0.534822202346, -0.200802891616, "(0.001, 0.0, 0.0, 0.0, 0.001, 0.0, 0.0, 0.0, 0.001)"
1636558246402789683, 3739, 1636512861, 982307910, base_link, 0.00325725202444, -0.0143266559527, -0.697420952212, 0.716511097369, "(0.001367942488112242, 0.0, 0.0, 0.0, 0.0013682153110514822, 0.0, 0.0, 0.0, 0.0014524912931444117)", 0.0104540397346, -0.0024211999369, 0.00078160427523, "(0.001, 0.0, 0.0, 0.0, 0.001, 0.0, 0.0, 0.0, 0.001)", -0.170969364524, 0.494148679523, 0.0325074478032, "(0.001, 0.0, 0.0, 0.0, 0.001, 0.0, 0.0, 0.0, 0.001)"
1636558246402807007, 3740, 1636512862, 924110, base_link, 0.0032932545949, -0.0143942104728, -0.697417020985, 0.716513405332, "(0.001367942488112242, 0.0, 0.0, 0.0, 0.0013682153110514822, 0.0, 0.0, 0.0, 0.0014524912931444117)", 0.0156756811486, -0.00587593995501, 0.00074956382231, "(0.001, 0.0, 0.0, 0.0, 0.001, 0.0, 0.0, 0.0, 0.001)", 0.226552732626, 0.766660280689, -0.267350750408, "(0.001, 0.0, 0.0, 0.0, 0.001, 0.0, 0.0, 0.0, 0.001)"
1636558246402843893, 3741, 1636512862, 22207021, base_link, 0.00334030219372, -0.0144497818455, -0.697415917091, 0.716513143476, "(0.001367942488112242, 0.0, 0.0, 0.0, 0.0013682153110514822, 0.0, 0.0, 0.0, 0.0014524912931444117)", 0.0114741749034, -0.0011970320316, 0.000415518414219, "(0.001, 0.0, 0.0, 0.0, 0.001, 0.0, 0.0, 0.0, 0.001)", -0.226393891992, 0.520641755667, 0.0580548759391, "(0.001, 0.0, 0.0, 0.0, 0.001, 0.0, 0.0, 0.0, 0.001)"
1636558246509226189, 3742, 1636512862, 42646884, base_link, 0.00338392538333, -0.0145392366679, -0.697410602262, 0.716516302326, "(0.001367942488112242, 0.0, 0.0, 0.0, 0.0013682153110514822, 0.0, 0.0, 0.0, 0.0014524912931444117)", 0.0207514530335, -0.00638999792945, 0.000515215061605, "(0.001, 0.0, 0.0, 0.0, 0.001, 0.0, 0.0, 0.0, 0.001)", 0.177017292542, 0.979124096543, -0.153517755234, "(0.001, 0.0, 0.0, 0.0, 0.001, 0.0, 0.0, 0.0, 0.001)"
1636558246509232261, 3743, 1636512862, 61814069, base_link, 0.00343734065962, -0.0145893649424, -0.69741124205, 0.716514406403, "(0.001367942488112242, 0.0, 0.0, 0.0, 0.0013682153110514822, 0.0, 0.0, 0.0, 0.0014524912931444117)", 0.0124791209801, -0.00131890943106, 0.000284429892223, "(0.001, 0.0, 0.0, 0.0, 0.001, 0.0, 0.0, 0.0, 0.001)", -0.0824197180883, 0.667274795117, 0.0951814773572, "(0.001, 0.0, 0.0, 0.0, 0.001, 0.0, 0.0, 0.0, 0.001)"
1636558246509238406, 3744, 1636512862, 81126928, base_link, 0.0034626725892, -0.0146704239916, -0.697410176604, 0.716513666393, "(0.001367942488112242, 0.0, 0.0, 0.0, 0.0013682153110514822, 0.0, 0.0, 0.0, 0.0014524912931444117)", 0.0187152630471, -0.00638002337615, -0.000265575284095, "(0.001, 0.0, 0.0, 0.0, 0.001, 0.0, 0.0, 0.0, 0.001)", -0.0139753074635, 0.924220757834, -0.0747679795354, "(0.001, 0.0, 0.0, 0.0, 0.001, 0.0, 0.0, 0.0, 0.001)"
1636558246509256614, 3745, 1636512862, 102659940, base_link, 0.00351931586722, -0.014713843154, -0.697414283867, 0.716508502318, "(0.001367942488112242, 0.0, 0.0, 0.0, 0.0013682153110514822, 0.0, 0.0, 0.0, 0.0014524912931444117)", 0.0113490183893, -0.00102973427959, -0.000476169854392, "(0.001, 0.0, 0.0, 0.0, 0.001, 0.0, 0.0, 0.0, 0.001)", 0.146209913806, 0.686068727894, 0.142126245449, "(0.001, 0.0, 0.0, 0.0, 0.001, 0.0, 0.0, 0.0, 0.001)"
1636558246510802081, 3746, 1636512862, 121016979, base_link, 0.00354755890606, -0.0147895094558, -0.69741628222, 0.716504860089, "(0.001367942488112242, 0.0, 0.0, 0.0, 0.0013682153110514822, 0.0, 0.0, 0.0, 0.0014524912931444117)", 0.0180106395485, -0.00464231754743, -0.00129549120949, "(0.001, 0.0, 0.0, 0.0, 0.001, 0.0, 0.0, 0.0, 0.001)", -0.0993666004562, 1.25234727087, 0.00286830431344, "(0.001, 0.0, 0.0, 0.0, 0.001, 0.0, 0.0, 0.0, 0.001)"
1636558246510811488, 3747, 1636512862, 141648054, base_link, 0.00358861876482, -0.0148257811585, -0.69742033156, 0.716499964518, "(0.001367942488112242, 0.0, 0.0, 0.0, 0.0013682153110514822, 0.0, 0.0, 0.0, 0.0014524912931444117)", 0.00970955211522, -0.00157200796623, -0.000980901231038, "(0.001, 0.0, 0.0, 0.0, 0.001, 0.0, 0.0, 0.0, 0.001)", 0.178814868901, 0.575209096591, 0.122790660289, "(0.001, 0.0, 0.0, 0.0, 0.001, 0.0, 0.0, 0.0, 0.001)"
1636558246510818346, 3748, 1636512862, 162210941, base_link, 0.00361499367748, -0.0148860552965, -0.697421376196, 0.716497565385, "(0.001367942488112242, 0.0, 0.0, 0.0, 0.0013682153110514822, 0.0, 0.0, 0.0, 0.0014524912931444117)", 0.0151023864617, -0.00389102105388, -0.00122355817085, "(0.001, 0.0, 0.0, 0.0, 0.001, 0.0, 0.0, 0.0, 0.001)", -0.0805286150272, 1.32787781958, 0.0536910263615, "(0.001, 0.0, 0.0, 0.0, 0.001, 0.0, 0.0, 0.0, 0.001)"
1636558246510861816, 3749, 1636512862, 182449102, base_link, 0.00365639399697, -0.0149092834303, -0.697420983125, 0.716497254948, "(0.001367942488112242, 0.0, 0.0, 0.0, 0.0013682153110514822, 0.0, 0.0, 0.0, 0.0014524912931444117)", 0.007744881855, -0.000604436007164, -0.000113663333772, "(0.001, 0.0, 0.0, 0.0, 0.001, 0.0, 0.0, 0.0, 0.001)", 0.285008891713, 0.614951156516, 0.145381821832, "(0.001, 0.0, 0.0, 0.0, 0.001, 0.0, 0.0, 0.0, 0.001)"
1636558246510882528, 3750, 1636512862, 201013088, base_link, 0.00365639399697, -0.0149092834303, -0.697420983125, 0.716497254948, "(0.001367942488112242, 0.0, 0.0, 0.0, 0.0013682153110514822, 0.0, 0.0, 0.0, 0.0014524912931444117)", 0.0113277235212, -0.00165525544427, -0.000282207100507, "(0.001, 0.0, 0.0, 0.0, 0.001, 0.0, 0.0, 0.0, 0.001)", -0.22673709859, 1.25865928169, 0.111577885122, "(0.001, 0.0, 0.0, 0.0, 0.001, 0.0, 0.0, 0.0, 0.001)"
1636558246532949979, 3751, 1636512862, 222398996, base_link, 0.00369995952919, -0.0149603985053, -0.697419854539, 0.716497064384, "(0.001367942488112242, 0.0, 0.0, 0.0, 0.0013682153110514822, 0.0, 0.0, 0.0, 0.0014524912931444117)", 0.00785393345906, 6.70561439959e-05, 0.000158797117216, "(0.001, 0.0, 0.0, 0.0, 0.001, 0.0, 0.0, 0.0, 0.001)", 0.316721308654, 1.04636085701, 0.191003684929, "(0.001, 0.0, 0.0, 0.0, 0.001, 0.0, 0.0, 0.0, 0.001)"
1636558246532960188, 3752, 1636512862, 241183996, base_link, 0.00372213192217, -0.0149946600512, -0.697417351272, 0.716498669956, "(0.001367942488112242, 0.0, 0.0, 0.0, 0.0013682153110514822, 0.0, 0.0, 0.0, 0.0014524912931444117)", 0.00540120016435, -0.000357444283266, 5.34709422377e-05, "(0.001, 0.0, 0.0, 0.0, 0.001, 0.0, 0.0, 0.0, 0.001)", -0.251563661891, 0.829875818117, -0.0469473654754, "(0.001, 0.0, 0.0, 0.0, 0.001, 0.0, 0.0, 0.0, 0.001)"
1636558246532966391, 3753, 1636512862, 261604070, base_link, 0.00373588632387, -0.0150088702327, -0.69741051653, 0.716504953507, "(0.001367942488112242, 0.0, 0.0, 0.0, 0.0013682153110514822, 0.0, 0.0, 0.0, 0.0014524912931444117)", 0.00495360046208, -0.000928640382242, 0.00110667598433, "(0.001, 0.0, 0.0, 0.0, 0.001, 0.0, 0.0, 0.0, 0.001)", 0.260222438527, 0.811027261105, 0.0847577636612, "(0.001, 0.0, 0.0, 0.0, 0.001, 0.0, 0.0, 0.0, 0.001)"
1636558246532976938, 3754, 1636512862, 282906055, base_link, 0.00375346673877, -0.0150212420087, -0.697404722125, 0.716510242309, "(0.001367942488112242, 0.0, 0.0, 0.0, 0.0013682153110514822, 0.0, 0.0, 0.0, 0.0014524912931444117)", 0.00508889851364, 0.000781786010314, 0.0015126647958, "(0.001, 0.0, 0.0, 0.0, 0.001, 0.0, 0.0, 0.0, 0.001)", -0.17429610928, 1.10963527408, 0.0496605910145, "(0.001, 0.0, 0.0, 0.0, 0.001, 0.0, 0.0, 0.0, 0.001)"
1636558246556780722, 3755, 1636512862, 304999113, base_link, 0.00375346673877, -0.0150212420087, -0.697404722125, 0.716510242309, "(0.001367942488112242, 0.0, 0.0, 0.0, 0.0013682153110514822, 0.0, 0.0, 0.0, 0.0014524912931444117)", 0.00403249840293, -0.00224193202729, 0.00162165707042, "(0.001, 0.0, 0.0, 0.0, 0.001, 0.0, 0.0, 0.0, 0.001)", 0.162497396482, 0.834349973748, 0.0296780697147, "(0.001, 0.0, 0.0, 0.0, 0.001, 0.0, 0.0, 0.0, 0.001)"
1636558246558029922, 3756, 1636512862, 322861909, base_link, 0.00376971813029, -0.0150583710592, -0.697399402139, 0.716514555737, "(0.0014893602571720704, 0.0, 0.0, 0.0, 0.001489787276543808, 0.0, 0.0, 0.0, 0.0015739431319262837)", 0.00393442224766, -0.000812747062412, 0.000697139599672, "(0.001, 0.0, 0.0, 0.0, 0.001, 0.0, 0.0, 0.0, 0.001)", -0.20852435563, 1.10710552652, 0.0223006378879, "(0.001, 0.0, 0.0, 0.0, 0.001, 0.0, 0.0, 0.0, 0.001)"
1636558246558072858, 3757, 1636512862, 342345952, base_link, 0.00378024226058, -0.0150797739815, -0.697395159198, 0.716518179889, "(0.001293128298680779, 0.0, 0.0, 0.0, 0.001293605246609708, 0.0, 0.0, 0.0, 0.0015739425407532842)", 0.00568669563152, -0.0026044550792, 0.000783417379422, "(0.001, 0.0, 0.0, 0.0, 0.001, 0.0, 0.0, 0.0, 0.001)", 0.235450562399, 1.19360469651, 0.0305566752109, "(0.001, 0.0, 0.0, 0.0, 0.001, 0.0, 0.0, 0.0, 0.001)"
1636558246558087492, 3758, 1636512862, 360964059, base_link, 0.00379184651278, -0.0150984240746, -0.697398049323, 0.716514912818, "(0.001293128298680779, 0.0, 0.0, 0.0, 0.001293605246609708, 0.0, 0.0, 0.0, 0.0015739425407532842)", 0.00318305630064, -0.000540204728249, -0.000288060177504, "(0.001, 0.0, 0.0, 0.0, 0.001, 0.0, 0.0, 0.0, 0.001)", -0.268654338499, 0.626761911239, -0.0312132481438, "(0.001, 0.0, 0.0, 0.0, 0.001, 0.0, 0.0, 0.0, 0.001)"
1636558246558114652, 3759, 1636512862, 381755113, base_link, 0.00378692233738, -0.0151305305282, -0.697391276445, 0.716520853712, "(0.001293128298680779, 0.0, 0.0, 0.0, 0.001293605246609708, 0.0, 0.0, 0.0, 0.0015739425407532842)", 0.00348670901541, -0.00302879838852, 0.000700226274748, "(0.001, 0.0, 0.0, 0.0, 0.001, 0.0, 0.0, 0.0, 0.001)", 0.133438562009, 0.737981535137, -0.0748614076762, "(0.001, 0.0, 0.0, 0.0, 0.001, 0.0, 0.0, 0.0, 0.001)"
1636558246558170700, 3760, 1636512862, 401390075, base_link, 0.00379733364837, -0.0151215768629, -0.697399547263, 0.71651293753, "(0.001293128298680779, 0.0, 0.0, 0.0, 0.001293605246609708, 0.0, 0.0, 0.0, 0.0015739425407532842)", 0.00266523525787, -0.000883648926919, -0.000792497971045, "(0.001, 0.0, 0.0, 0.0, 0.001, 0.0, 0.0, 0.0, 0.001)", -0.0701120716124, 0.942418102271, 0.212592591777, "(0.001, 0.0, 0.0, 0.0, 0.001, 0.0, 0.0, 0.0, 0.001)"
1636558246580803077, 3761, 1636512862, 421869993, base_link, 0.00377831403806, -0.0151477889988, -0.697396791302, 0.716515166841, "(0.001293128298680779, 0.0, 0.0, 0.0, 0.001293605246609708, 0.0, 0.0, 0.0, 0.0015739425407532842)", 0.000765194579678, -0.00303403516303, -0.000170603224804, "(0.001, 0.0, 0.0, 0.0, 0.001, 0.0, 0.0, 0.0, 0.001)", 0.0374432503342, 0.59962878358, -0.0878629713189, "(0.001, 0.0, 0.0, 0.0, 0.001, 0.0, 0.0, 0.0, 0.001)"
1636558246580818114, 3762, 1636512862, 443105936, base_link, 0.00377097263883, -0.0151346578275, -0.697403672996, 0.716508784866, "(0.001293128298680779, 0.0, 0.0, 0.0, 0.001293605246609708, 0.0, 0.0, 0.0, 0.0015739425407532842)", -0.000289018053699, -0.0021036160821, -0.000626668120498, "(0.001, 0.0, 0.0, 0.0, 0.001, 0.0, 0.0, 0.0, 0.001)", 0.0180460254322, 0.949201404729, 0.27664143921, "(0.001, 0.0, 0.0, 0.0, 0.001, 0.0, 0.0, 0.0, 0.001)"
1636558246580857322, 3763, 1636512862, 462248086, base_link, 0.00375857666929, -0.0151456915245, -0.697402711251, 0.71650955295, "(0.001293128298680779, 0.0, 0.0, 0.0, 0.001293605246609708, 0.0, 0.0, 0.0, 0.0015739425407532842)", -0.00131924419523, -0.00197524818746, -0.000434888617873, "(0.001, 0.0, 0.0, 0.0, 0.001, 0.0, 0.0, 0.0, 0.001)", 0.0475188659489, 0.498376487404, -0.22224637935, "(0.001, 0.0, 0.0, 0.0, 0.001, 0.0, 0.0, 0.0, 0.001)"
1636558246580888211, 3764, 1636512862, 480982065, base_link, 0.00375197931164, -0.0151333195516, -0.697403114292, 0.716509456649, "(0.001293128298680779, 0.0, 0.0, 0.0, 0.001293605246609708, 0.0, 0.0, 0.0, 0.0015739425407532842)", -0.00177432592683, -0.000908526239189, -5.975696239e-05, "(0.001, 0.0, 0.0, 0.0, 0.001, 0.0, 0.0, 0.0, 0.001)", -0.00129407818686, 0.760404192512, 0.121861942275, "(0.001, 0.0, 0.0, 0.0, 0.001, 0.0, 0.0, 0.0, 0.001)"
1636558246605265555, 3765, 1636512862, 503585100, base_link, 0.00375197931164, -0.0151333195516, -0.697403114292, 0.716509456649, "(0.001293128298680779, 0.0, 0.0, 0.0, 0.001293605246609708, 0.0, 0.0, 0.0, 0.0015739425407532842)", -0.00105585635408, -0.00144222232838, 0.000147230351762, "(0.001, 0.0, 0.0, 0.0, 0.001, 0.0, 0.0, 0.0, 0.001)", 0.0808914132405, 0.538331207544, -0.264880888755, "(0.001, 0.0, 0.0, 0.0, 0.001, 0.0, 0.0, 0.0, 0.001)"
1636558246605282855, 3766, 1636512862, 520997047, base_link, 0.00375570426128, -0.0151518133587, -0.69740756347, 0.716504715722, "(0.001293128298680779, 0.0, 0.0, 0.0, 0.001293605246609708, 0.0, 0.0, 0.0, 0.0015739425407532842)", 0.00146398023783, -0.000780850423983, -0.000998864447046, "(0.001, 0.0, 0.0, 0.0, 0.001, 0.0, 0.0, 0.0, 0.001)", -0.059589542949, 0.746562565104, 0.00871229563416, "(0.001, 0.0, 0.0, 0.0, 0.001, 0.0, 0.0, 0.0, 0.001)"
1636558246605293675, 3767, 1636512862, 541860103, base_link, 0.00375734121437, -0.0151820758263, -0.69740557405, 0.716506002937, "(0.001293128298680779, 0.0, 0.0, 0.0, 0.001293605246609708, 0.0, 0.0, 0.0, 0.0015739425407532842)", 0.00280099773378, -0.0025057458852, -7.87346744669e-05, "(0.001, 0.0, 0.0, 0.0, 0.001, 0.0, 0.0, 0.0, 0.001)", 0.0748669283715, 0.602968853656, -0.355178137628, "(0.001, 0.0, 0.0, 0.0, 0.001, 0.0, 0.0, 0.0, 0.001)"
1636558246605329193, 3768, 1636512862, 561640977, base_link, 0.00380399984789, -0.0151990298982, -0.697405699888, 0.716505274816, "(0.001293128298680779, 0.0, 0.0, 0.0, 0.001293605246609708, 0.0, 0.0, 0.0, 0.0015739425407532842)", 0.00825016179107, 0.000690176304808, -0.000322536050687, "(0.001, 0.0, 0.0, 0.0, 0.001, 0.0, 0.0, 0.0, 0.001)", 0.0281140076711, 0.821286999988, -0.0686079302956, "(0.001, 0.0, 0.0, 0.0, 0.001, 0.0, 0.0, 0.0, 0.001)"
1636558246605362876, 3769, 1636512862, 581789016, base_link, 0.00383742929185, -0.0152534203351, -0.697397113848, 0.716512297802, "(0.001293128298680779, 0.0, 0.0, 0.0, 0.001293605246609708, 0.0, 0.0, 0.0, 0.0015739425407532842)", 0.00815355549541, -0.00122991792496, 0.00102994888909, "(0.001, 0.0, 0.0, 0.0, 0.001, 0.0, 0.0, 0.0, 0.001)", 0.116802363844, 0.696182873817, -0.391563726175, "(0.001, 0.0, 0.0, 0.0, 0.001, 0.0, 0.0, 0.0, 0.001)"
1636558246605380749, 3770, 1636512862, 601531028, base_link, 0.00389094599791, -0.0152916275249, -0.697396713824, 0.716511584145, "(0.001293128298680779, 0.0, 0.0, 0.0, 0.001293605246609708, 0.0, 0.0, 0.0, 0.0015739425407532842)", 0.0148436189958, 0.000445709557763, 0.000673425768167, "(0.001, 0.0, 0.0, 0.0, 0.001, 0.0, 0.0, 0.0, 0.001)", -0.0344975272201, 1.07426184825, 0.0892311074949, "(0.001, 0.0, 0.0, 0.0, 0.001, 0.0, 0.0, 0.0, 0.001)"
1636558246627204570, 3771, 1636512862, 622823953, base_link, 0.00394213428546, -0.0153574261238, -0.697387967329, 0.716518410137, "(0.001293128298680779, 0.0, 0.0, 0.0, 0.001293605246609708, 0.0, 0.0, 0.0, 0.0015739425407532842)", 0.0118486174819, -0.000987957588021, 0.00100377842839, "(0.001, 0.0, 0.0, 0.0, 0.001, 0.0, 0.0, 0.0, 0.001)", 0.159494320981, 0.830650338389, -0.29509114341, "(0.001, 0.0, 0.0, 0.0, 0.001, 0.0, 0.0, 0.0, 0.001)"
1636558246627210748, 3772, 1636512862, 641308069, base_link, 0.00397948150682, -0.0153980026678, -0.69738306434, 0.716522104901, "(0.001293128298680779, 0.0, 0.0, 0.0, 0.001293605246609708, 0.0, 0.0, 0.0, 0.0015739425407532842)", 0.0157914527123, -0.00124305503433, 0.00194660202628, "(0.001, 0.0, 0.0, 0.0, 0.001, 0.0, 0.0, 0.0, 0.001)", -0.229972606933, 1.18422103713, 0.164397881867, "(0.001, 0.0, 0.0, 0.0, 0.001, 0.0, 0.0, 0.0, 0.001)"
1636558246627218753, 3773, 1636512862, 661619901, base_link, 0.0040224683326, -0.015452697026, -0.697372796446, 0.716530680907, "(0.001293128298680779, 0.0, 0.0, 0.0, 0.001293605246609708, 0.0, 0.0, 0.0, 0.0015739425407532842)", 0.010841265933, -0.00150879495289, 0.00148742415463, "(0.001, 0.0, 0.0, 0.0, 0.001, 0.0, 0.0, 0.0, 0.001)", 0.334758410366, 0.835739696973, -0.196923099862, "(0.001, 0.0, 0.0, 0.0, 0.001, 0.0, 0.0, 0.0, 0.001)"
1636558246627380573, 3774, 1636512862, 681372880, base_link, 0.00405147507718, -0.0154949966112, -0.697368101324, 0.716534173564, "(0.001293128298680779, 0.0, 0.0, 0.0, 0.001293605246609708, 0.0, 0.0, 0.0, 0.0015739425407532842)", 0.0144916655769, -0.00202472478906, 0.00219835583784, "(0.001, 0.0, 0.0, 0.0, 0.001, 0.0, 0.0, 0.0, 0.001)", -0.307858848412, 1.23166735821, 0.220099674187, "(0.001, 0.0, 0.0, 0.0, 0.001, 0.0, 0.0, 0.0, 0.001)"
1636558246656866057, 3775, 1636512862, 701379060, base_link, 0.00407031679865, -0.0155444452045, -0.697355574347, 0.71654518746, "(0.001293128298680779, 0.0, 0.0, 0.0, 0.001293605246609708, 0.0, 0.0, 0.0, 0.0015739425407532842)", 0.00773547994075, -0.00300648170582, 0.00172395331058, "(0.001, 0.0, 0.0, 0.0, 0.001, 0.0, 0.0, 0.0, 0.001)", 0.360606704376, 0.829157228711, -0.0739174292028, "(0.001, 0.0, 0.0, 0.0, 0.001, 0.0, 0.0, 0.0, 0.001)"
1636558246656882509, 3776, 1636512862, 721132040, base_link, 0.00408076158504, -0.0155499957931, -0.697354257934, 0.716546288775, "(0.001293128298680779, 0.0, 0.0, 0.0, 0.001293605246609708, 0.0, 0.0, 0.0, 0.0015739425407532842)", 0.00748023956072, -0.00151030750047, 0.00197618174706, "(0.001, 0.0, 0.0, 0.0, 0.001, 0.0, 0.0, 0.0, 0.001)", -0.304043626886, 1.25907304179, 0.289544523716, "(0.001, 0.0, 0.0, 0.0, 0.001, 0.0, 0.0, 0.0, 0.001)"
1636558246656896168, 3777, 1636512862, 741889953, base_link, 0.00409915188329, -0.015569190064, -0.697345265006, 0.716554518965, "(0.001293128298680779, 0.0, 0.0, 0.0, 0.001293605246609708, 0.0, 0.0, 0.0, 0.0015739425407532842)", 0.00368088797446, -0.000919639413497, 0.00136289051836, "(0.001, 0.0, 0.0, 0.0, 0.001, 0.0, 0.0, 0.0, 0.001)", 0.318137024233, 0.799203244446, -0.0487572566217, "(0.001, 0.0, 0.0, 0.0, 0.001, 0.0, 0.0, 0.0, 0.001)"
1636558246656972877, 3778, 1636512862, 761164903, base_link, 0.00410169983415, -0.0155705799678, -0.697346536361, 0.716553236908, "(0.001293128298680779, 0.0, 0.0, 0.0, 0.001293605246609708, 0.0, 0.0, 0.0, 0.0015739425407532842)", 0.00369468830639, -0.00018059600331, 0.000976271476912, "(0.001, 0.0, 0.0, 0.0, 0.001, 0.0, 0.0, 0.0, 0.001)", -0.310246523919, 1.18610245811, 0.159153676365, "(0.001, 0.0, 0.0, 0.0, 0.001, 0.0, 0.0, 0.0, 0.001)"
1636558246656978366, 3779, 1636512862, 781069993, base_link, 0.00410169983415, -0.0155705799678, -0.697346536361, 0.716553236908, "(0.001293128298680779, 0.0, 0.0, 0.0, 0.001293605246609708, 0.0, 0.0, 0.0, 0.0015739425407532842)", 0.00110525337356, 0.000363040889092, 0.000730223257146, "(0.001, 0.0, 0.0, 0.0, 0.001, 0.0, 0.0, 0.0, 0.001)", 0.336596291009, 0.705649884592, -0.0210443878271, "(0.001, 0.0, 0.0, 0.0, 0.001, 0.0, 0.0, 0.0, 0.001)"
1636558246656999100, 3780, 1636512862, 803339004, base_link, 0.00410880410972, -0.0155556638802, -0.69734902151, 0.716551101631, "(0.001293128298680779, 0.0, 0.0, 0.0, 0.001293605246609708, 0.0, 0.0, 0.0, 0.0015739425407532842)", -0.000498862717286, 0.00200550793517, -0.000661868866279, "(0.001, 0.0, 0.0, 0.0, 0.001, 0.0, 0.0, 0.0, 0.001)", -0.263780332462, 1.06517040184, 0.0909771920765, "(0.001, 0.0, 0.0, 0.0, 0.001, 0.0, 0.0, 0.0, 0.001)"
1636558246676394209, 3781, 1636512862, 821656942, base_link, 0.00411882977775, -0.0155429259805, -0.697347702391, 0.716552604254, "(0.001293128298680779, 0.0, 0.0, 0.0, 0.001293605246609708, 0.0, 0.0, 0.0, 0.0015739425407532842)", -0.00078952598719, 0.00137715767953, -0.000180913025511, "(0.001, 0.0, 0.0, 0.0, 0.001, 0.0, 0.0, 0.0, 0.001)", 0.319011181236, 0.731728739436, 0.0162683708436, "(0.001, 0.0, 0.0, 0.0, 0.001, 0.0, 0.0, 0.0, 0.001)"
1636558246676404504, 3782, 1636512862, 841135978, base_link, 0.00411783638807, -0.0155416064158, -0.697356287855, 0.716544283128, "(0.001293128298680779, 0.0, 0.0, 0.0, 0.001293605246609708, 0.0, 0.0, 0.0, 0.0015739425407532842)", -6.71829650772e-05, 0.00165909106084, -0.00152581096881, "(0.001, 0.0, 0.0, 0.0, 0.001, 0.0, 0.0, 0.0, 0.001)", -0.212905866261, 0.965728063184, -0.145804184204, "(0.001, 0.0, 0.0, 0.0, 0.001, 0.0, 0.0, 0.0, 0.001)"
1636558246676419148, 3783, 1636512862, 861576080, base_link, 0.00413387734185, -0.015551389966, -0.697354625794, 0.716545596046, "(0.001293128298680779, 0.0, 0.0, 0.0, 0.001293605246609708, 0.0, 0.0, 0.0, 0.0015739425407532842)", 0.00167180987741, 0.000143493908811, -0.000349151974688, "(0.001, 0.0, 0.0, 0.0, 0.001, 0.0, 0.0, 0.0, 0.001)", 0.253845890792, 0.739298563904, 0.00452619352648, "(0.001, 0.0, 0.0, 0.0, 0.001, 0.0, 0.0, 0.0, 0.001)"
1636558246701280870, 3784, 1636512862, 881278991, base_link, 0.00414299051414, -0.0155370261128, -0.69735700088, 0.716543543529, "(0.001293128298680779, 0.0, 0.0, 0.0, 0.001293605246609708, 0.0, 0.0, 0.0, 0.0015739425407532842)", 0.000675748842745, 0.00308356612235, -0.000756268108675, "(0.001, 0.0, 0.0, 0.0, 0.001, 0.0, 0.0, 0.0, 0.001)", -0.0598824433184, 0.986336529716, -0.282762153018, "(0.001, 0.0, 0.0, 0.0, 0.001, 0.0, 0.0, 0.0, 0.001)"
1636558246701299418, 3785, 1636512862, 901746034, base_link, 0.00418348249945, -0.0155527468507, -0.697354691751, 0.716545214507, "(0.001293128298680779, 0.0, 0.0, 0.0, 0.001293605246609708, 0.0, 0.0, 0.0, 0.0015739425407532842)", 0.00425772943565, 0.00154310127892, 0.000120310607425, "(0.001, 0.0, 0.0, 0.0, 0.001, 0.0, 0.0, 0.0, 0.001)", 0.273582981115, 0.682880512347, 0.119142084286, "(0.001, 0.0, 0.0, 0.0, 0.001, 0.0, 0.0, 0.0, 0.001)"
1636558246701306272, 3786, 1636512862, 921616077, base_link, 0.00422526804857, -0.0155505481498, -0.697361058242, 0.716538821007, "(0.001293128298680779, 0.0, 0.0, 0.0, 0.001293605246609708, 0.0, 0.0, 0.0, 0.0015739425407532842)", 0.00642502479643, 0.00606213552371, -0.00133619018907, "(0.001, 0.0, 0.0, 0.0, 0.001, 0.0, 0.0, 0.0, 0.001)", 0.077340176159, 1.18400038173, -0.285855416698, "(0.001, 0.0, 0.0, 0.0, 0.001, 0.0, 0.0, 0.0, 0.001)"
1636558246701328175, 3787, 1636512862, 941664934, base_link, 0.00427831076586, -0.0155503765718, -0.697360010389, 0.716539529793, "(0.001293128298680779, 0.0, 0.0, 0.0, 0.001293605246609708, 0.0, 0.0, 0.0, 0.0015739425407532842)", 0.00613302423103, 0.00448236636203, -1.56059870512e-05, "(0.001, 0.0, 0.0, 0.0, 0.001, 0.0, 0.0, 0.0, 0.001)", 0.155968302467, 0.709616771367, 0.187368736014, "(0.001, 0.0, 0.0, 0.0, 0.001, 0.0, 0.0, 0.0, 0.001)"
1636558246701369391, 3788, 1636512862, 960841894, base_link, 0.00431021318018, -0.0155425695521, -0.697362440952, 0.716537142473, "(0.001293128298680779, 0.0, 0.0, 0.0, 0.001293605246609708, 0.0, 0.0, 0.0, 0.0015739425407532842)", 0.00597477591489, 0.00720363000258, -0.000850057354632, "(0.001, 0.0, 0.0, 0.0, 0.001, 0.0, 0.0, 0.0, 0.001)", 0.0258366406265, 1.08505777649, -0.302425365442, "(0.001, 0.0, 0.0, 0.0, 0.001, 0.0, 0.0, 0.0, 0.001)"
1636558246738705922, 3789, 1636512862, 982661008, base_link, 0.00431021318018, -0.0155425695521, -0.697362440952, 0.716537142473, "(0.001293128298680779, 0.0, 0.0, 0.0, 0.001293605246609708, 0.0, 0.0, 0.0, 0.0015739425407532842)", 0.00533300535589, 0.00546505970194, -0.00026408779552, "(0.001, 0.0, 0.0, 0.0, 0.001, 0.0, 0.0, 0.0, 0.001)", 0.105110659317, 0.754131993487, 0.255133611282, "(0.001, 0.0, 0.0, 0.0, 0.001, 0.0, 0.0, 0.0, 0.001)"
1636558246738711927, 3790, 1636512863, 1153945, base_link, 0.00438783182754, -0.0155405453176, -0.697367457217, 0.716531833206, "(0.001293128298680779, 0.0, 0.0, 0.0, 0.001293605246609708, 0.0, 0.0, 0.0, 0.0015739425407532842)", 0.00548780069011, 0.00697233725635, -0.00119768980205, "(0.001, 0.0, 0.0, 0.0, 0.001, 0.0, 0.0, 0.0, 0.001)", -0.08852882022, 1.07854726838, -0.405978475397, "(0.001, 0.0, 0.0, 0.0, 0.001, 0.0, 0.0, 0.0, 0.001)"
1636558246738724553, 3791, 1636512863, 21945953, base_link, 0.00444199893274, -0.0155326575255, -0.697373078018, 0.716526199976, "(0.001293128298680779, 0.0, 0.0, 0.0, 0.001293605246609708, 0.0, 0.0, 0.0, 0.0015739425407532842)", 0.00530247450641, 0.00480930748759, -0.000925622080226, "(0.001, 0.0, 0.0, 0.0, 0.001, 0.0, 0.0, 0.0, 0.001)", 0.0693816511499, 0.809263115527, 0.317333798553, "(0.001, 0.0, 0.0, 0.0, 0.001, 0.0, 0.0, 0.0, 0.001)"
1636558246738821585, 3792, 1636512863, 44002056, base_link, 0.00446581915797, -0.0155312983102, -0.697379504253, 0.716519826858, "(0.001293128298680779, 0.0, 0.0, 0.0, 0.001293605246609708, 0.0, 0.0, 0.0, 0.0015739425407532842)", 0.00454794518601, 0.00650923584474, -0.00232781908333, "(0.001, 0.0, 0.0, 0.0, 0.001, 0.0, 0.0, 0.0, 0.001)", -0.163630801645, 1.18077324292, -0.345874046527, "(0.001, 0.0, 0.0, 0.0, 0.001, 0.0, 0.0, 0.0, 0.001)"
1636558246738840696, 3793, 1636512863, 61829090, base_link, 0.0044962621398, -0.0155128478855, -0.69738914982, 0.716510648135, "(0.001293128298680779, 0.0, 0.0, 0.0, 0.001293605246609708, 0.0, 0.0, 0.0, 0.0015739425407532842)", 0.00299577489886, 0.00430036450911, -0.00161960356213, "(0.001, 0.0, 0.0, 0.0, 0.001, 0.0, 0.0, 0.0, 0.001)", 0.0191327334601, 0.71229070403, 0.373487728147, "(0.001, 0.0, 0.0, 0.0, 0.001, 0.0, 0.0, 0.0, 0.001)"
1636558246764559845, 3794, 1636512863, 81379890, base_link, 0.00453038139851, -0.0155143698032, -0.697403639571, 0.716496296911, "(0.001293128298680779, 0.0, 0.0, 0.0, 0.001293605246609708, 0.0, 0.0, 0.0, 0.0015739425407532842)", 0.00467061816124, 0.0062460708859, -0.00410539811645, "(0.001, 0.0, 0.0, 0.0, 0.001, 0.0, 0.0, 0.0, 0.001)", -0.00131082940578, 1.11899835972, -0.308253023147, "(0.001, 0.0, 0.0, 0.0, 0.001, 0.0, 0.0, 0.0, 0.001)"
1636558246764601839, 3795, 1636512863, 102641105, base_link, 0.00455416119328, -0.015492682815, -0.697422904398, 0.716477863452, "(0.001293128298680779, 0.0, 0.0, 0.0, 0.001293605246609708, 0.0, 0.0, 0.0, 0.0015739425407532842)", 0.00183544111769, 0.00457828497928, -0.00371869755104, "(0.001, 0.0, 0.0, 0.0, 0.001, 0.0, 0.0, 0.0, 0.001)", -0.0794488107179, 0.739699168292, 0.411871614122, "(0.001, 0.0, 0.0, 0.0, 0.001, 0.0, 0.0, 0.0, 0.001)"
1636558246766834254, 3796, 1636512863, 121349096, base_link, 0.00457642716392, -0.0154855343734, -0.69743371523, 0.716467352641, "(0.001293128298680779, 0.0, 0.0, 0.0, 0.001293605246609708, 0.0, 0.0, 0.0, 0.0015739425407532842)", 0.00205938190391, 0.00585975431635, -0.00506717135461, "(0.001, 0.0, 0.0, 0.0, 0.001, 0.0, 0.0, 0.0, 0.001)", 0.0467371123923, 1.12873258584, -0.305610174059, "(0.001, 0.0, 0.0, 0.0, 0.001, 0.0, 0.0, 0.0, 0.001)"
1636558246766846935, 3797, 1636512863, 141690969, base_link, 0.00460896758149, -0.0154771958956, -0.697449092872, 0.716452354785, "(0.001293128298680779, 0.0, 0.0, 0.0, 0.001293605246609708, 0.0, 0.0, 0.0, 0.0015739425407532842)", 0.00272571128748, 0.00408489920498, -0.00304068713374, "(0.001, 0.0, 0.0, 0.0, 0.001, 0.0, 0.0, 0.0, 0.001)", -0.174058885353, 0.635456568073, 0.384504259735, "(0.001, 0.0, 0.0, 0.0, 0.001, 0.0, 0.0, 0.0, 0.001)"
1636558246766852707, 3798, 1636512863, 162147998, base_link, 0.00461572419063, -0.0155099380811, -0.69746326938, 0.716437802449, "(0.001293128298680779, 0.0, 0.0, 0.0, 0.001293605246609708, 0.0, 0.0, 0.0, 0.0015739425407532842)", 0.00465224662058, 0.000214688198069, -0.00506822604925, "(0.001, 0.0, 0.0, 0.0, 0.001, 0.0, 0.0, 0.0, 0.001)", -0.108145363942, 0.958435309311, -0.394746490259, "(0.001, 0.0, 0.0, 0.0, 0.001, 0.0, 0.0, 0.0, 0.001)"
1636558246766861184, 3799, 1636512863, 181366920, base_link, 0.00462667564928, -0.0155178695771, -0.697476914673, 0.716424275897, "(0.001293128298680779, 0.0, 0.0, 0.0, 0.001293605246609708, 0.0, 0.0, 0.0, 0.0015739425407532842)", 0.00344869665296, 2.4633548233e-05, -0.00293963239582, "(0.001, 0.0, 0.0, 0.0, 0.001, 0.0, 0.0, 0.0, 0.001)", -0.19287035567, 0.672520903809, 0.326238128818, "(0.001, 0.0, 0.0, 0.0, 0.001, 0.0, 0.0, 0.0, 0.001)"
1636558246766884517, 3800, 1636512863, 201955080, base_link, 0.00462217019609, -0.0155864950036, -0.69748763481, 0.716412378455, "(0.001293128298680779, 0.0, 0.0, 0.0, 0.001293605246609708, 0.0, 0.0, 0.0, 0.0015739425407532842)", 0.00702654841049, -0.00694578711861, -0.00438999023712, "(0.001, 0.0, 0.0, 0.0, 0.001, 0.0, 0.0, 0.0, 0.001)", -0.210414071189, 0.777206278162, -0.324935054133, "(0.001, 0.0, 0.0, 0.0, 0.001, 0.0, 0.0, 0.0, 0.001)"
1636558246787203743, 3801, 1636512863, 221784114, base_link, 0.00461769290665, -0.0156337682175, -0.697505949042, 0.716393546351, "(0.001293128298680779, 0.0, 0.0, 0.0, 0.001293605246609708, 0.0, 0.0, 0.0, 0.0015739425407532842)", 0.00527904968329, -0.00591496082574, -0.0033819196425, "(0.001, 0.0, 0.0, 0.0, 0.001, 0.0, 0.0, 0.0, 0.001)", -0.330536027623, 0.620838654729, 0.281874783504, "(0.001, 0.0, 0.0, 0.0, 0.001, 0.0, 0.0, 0.0, 0.001)"
1636558246787227824, 3802, 1636512863, 241117000, base_link, 0.00461463334976, -0.0156944817513, -0.697520882503, 0.716377698476, "(0.001293128298680779, 0.0, 0.0, 0.0, 0.001293605246609708, 0.0, 0.0, 0.0, 0.0015739425407532842)", 0.00895868390921, -0.0106808154892, -0.00562923295154, "(0.001, 0.0, 0.0, 0.0, 0.001, 0.0, 0.0, 0.0, 0.001)", 0.0931890685263, 0.929806998438, -0.338361532054, "(0.001, 0.0, 0.0, 0.0, 0.001, 0.0, 0.0, 0.0, 0.001)"
1636558246787315773, 3803, 1636512863, 261729955, base_link, 0.00463165236869, -0.0157285712907, -0.697551336609, 0.716347187219, "(0.001293128298680779, 0.0, 0.0, 0.0, 0.001293605246609708, 0.0, 0.0, 0.0, 0.0015739425407532842)", 0.00570502442041, -0.00406367636368, -0.00522934783804, "(0.001, 0.0, 0.0, 0.0, 0.001, 0.0, 0.0, 0.0, 0.001)", -0.245033780041, 0.575679484188, 0.231620849125, "(0.001, 0.0, 0.0, 0.0, 0.001, 0.0, 0.0, 0.0, 0.001)"
1636558246787325669, 3804, 1636512863, 285027027, base_link, 0.00464032625932, -0.0157486594847, -0.697569423409, 0.716329077046, "(0.001293128298680779, 0.0, 0.0, 0.0, 0.001293605246609708, 0.0, 0.0, 0.0, 0.0015739425407532842)", 0.0063513511982, -0.00422925662843, -0.00769825831218, "(0.001, 0.0, 0.0, 0.0, 0.001, 0.0, 0.0, 0.0, 0.001)", 0.496980880015, 1.1493103309, -0.195470842907, "(0.001, 0.0, 0.0, 0.0, 0.001, 0.0, 0.0, 0.0, 0.001)"
1636558246787342194, 3805, 1636512863, 306512117, base_link, 0.00466396219412, -0.0157505870522, -0.697595442818, 0.716303542239, "(0.001293128298680779, 0.0, 0.0, 0.0, 0.001293605246609708, 0.0, 0.0, 0.0, 0.0015739425407532842)", 0.00385093540564, 0.00101698046117, -0.00530249169266, "(0.001, 0.0, 0.0, 0.0, 0.001, 0.0, 0.0, 0.0, 0.001)", -0.211343047054, 0.630838570268, 0.203007081253, "(0.001, 0.0, 0.0, 0.0, 0.001, 0.0, 0.0, 0.0, 0.001)"
1636558246810999937, 3806, 1636512863, 322529077, base_link, 0.00467968314226, -0.0157695580555, -0.697611945316, 0.71628695043, "(0.0019564028955026402, 0.0, 0.0, 0.0, 0.0019570366684796975, 0.0, 0.0, 0.0, 0.0022384174852343452)", 0.00552399558189, -0.000426141706967, -0.00723075895368, "(0.001, 0.0, 0.0, 0.0, 0.001, 0.0, 0.0, 0.0, 0.001)", 0.500438589449, 1.24553734144, -0.146974859102, "(0.001, 0.0, 0.0, 0.0, 0.001, 0.0, 0.0, 0.0, 0.001)"
1636558246812425363, 3807, 1636512863, 342264890, base_link, 0.00466446997291, -0.0157613246036, -0.697626590709, 0.716272967034, "(0.0017661898506386026, 0.0, 0.0, 0.0, 0.0017657840722956758, 0.0, 0.0, 0.0, 0.0022383402881260978)", -0.00028622751056, -3.58098414038e-05, -0.0054340089069, "(0.001, 0.0, 0.0, 0.0, 0.001, 0.0, 0.0, 0.0, 0.001)", -0.0597834463245, 1.20405091359, -0.109137590863, "(0.001, 0.0, 0.0, 0.0, 0.001, 0.0, 0.0, 0.0, 0.001)"
1636558246833005039, 3808, 1636512863, 361097097, base_link, 0.00465395666826, -0.0157776258189, -0.697628342005, 0.716270970822, "(0.0017661898506386026, 0.0, 0.0, 0.0, 0.0017657840722956758, 0.0, 0.0, 0.0, 0.0022383402881260978)", -0.000176265671234, -0.00284641227361, -0.00105220687557, "(0.001, 0.0, 0.0, 0.0, 0.001, 0.0, 0.0, 0.0, 0.001)", 0.374058735147, 0.687891834658, 0.115319228211, "(0.001, 0.0, 0.0, 0.0, 0.001, 0.0, 0.0, 0.0, 0.001)"
1636558246852233505, 3809, 1636512863, 382222890, base_link, 0.00463522487685, -0.0157790191693, -0.69763381481, 0.71626573119, "(0.0017661898506386026, 0.0, 0.0, 0.0, 0.0017657840722956758, 0.0, 0.0, 0.0, 0.0022383402881260978)", -0.000564162037297, -0.00225465903993, -0.00110740515133, "(0.001, 0.0, 0.0, 0.0, 0.001, 0.0, 0.0, 0.0, 0.001)", -0.0513314756484, 0.702820742813, -0.0302148105713, "(0.001, 0.0, 0.0, 0.0, 0.001, 0.0, 0.0, 0.0, 0.001)"
1636558246870999916, 3810, 1636512863, 400831937, base_link, 0.00461319229065, -0.0157875769254, -0.697627747415, 0.716271594375, "(0.0017661898506386026, 0.0, 0.0, 0.0, 0.0017657840722956758, 0.0, 0.0, 0.0, 0.0022383402881260978)", -0.00248389725985, -0.0049620214685, 0.000490211415431, "(0.001, 0.0, 0.0, 0.0, 0.001, 0.0, 0.0, 0.0, 0.001)", 0.295236289083, 0.921184295271, 0.0169837514333, "(0.001, 0.0, 0.0, 0.0, 0.001, 0.0, 0.0, 0.0, 0.001)"
1636558246902592671, 3811, 1636512863, 421494960, base_link, 0.00459081052144, -0.0158071122607, -0.697634591003, 0.716264641803, "(0.0017661898506386026, 0.0, 0.0, 0.0, 0.0017657840722956758, 0.0, 0.0, 0.0, 0.0022383402881260978)", -0.000709004762009, -0.00396737378972, -0.000693664656038, "(0.001, 0.0, 0.0, 0.0, 0.001, 0.0, 0.0, 0.0, 0.001)", -0.257466800293, 0.613849105956, -0.0474065863476, "(0.001, 0.0, 0.0, 0.0, 0.001, 0.0, 0.0, 0.0, 0.001)"
1636558246912553974, 3812, 1636512863, 442243099, base_link, 0.00459991837545, -0.0158084625944, -0.697644217643, 0.71625517719, "(0.0017661898506386026, 0.0, 0.0, 0.0, 0.0017657840722956758, 0.0, 0.0, 0.0, 0.0022383402881260978)", 0.000408653207824, -0.00364301710686, -0.0020661046635, "(0.001, 0.0, 0.0, 0.0, 0.001, 0.0, 0.0, 0.0, 0.001)", 0.25609803025, 0.990999329694, 0.208051511776, "(0.001, 0.0, 0.0, 0.0, 0.001, 0.0, 0.0, 0.0, 0.001)"
1636558246932873284, 3813, 1636512863, 462752103, base_link, 0.00457620230996, -0.0158112831643, -0.697672718544, 0.716227505403, "(0.0017661898506386026, 0.0, 0.0, 0.0, 0.0017657840722956758, 0.0, 0.0, 0.0, 0.0022383402881260978)", -0.00103078653632, -0.00153931847066, -0.00456379285671, "(0.001, 0.0, 0.0, 0.0, 0.001, 0.0, 0.0, 0.0, 0.001)", -0.327423862006, 0.584894362192, -0.108685073317, "(0.001, 0.0, 0.0, 0.0, 0.001, 0.0, 0.0, 0.0, 0.001)"
1636558246952159145, 3814, 1636512863, 482109069, base_link, 0.00460097919139, -0.0158109449125, -0.697711450617, 0.716189623416, "(0.0017661898506386026, 0.0, 0.0, 0.0, 0.0017657840722956758, 0.0, 0.0, 0.0, 0.0022383402881260978)", 0.00128157962258, 0.000126388817888, -0.010169604884, "(0.001, 0.0, 0.0, 0.0, 0.001, 0.0, 0.0, 0.0, 0.001)", 0.0840111504926, 0.829461271469, 0.250352974472, "(0.001, 0.0, 0.0, 0.0, 0.001, 0.0, 0.0, 0.0, 0.001)"
1636558246971987283, 3815, 1636512863, 501848936, base_link, 0.00459549524769, -0.0158023446295, -0.697762064021, 0.716140537423, "(0.0017661898506386026, 0.0, 0.0, 0.0, 0.0017657840722956758, 0.0, 0.0, 0.0, 0.0022383402881260978)", -0.000788713270709, 0.000679423735702, -0.00994436037521, "(0.001, 0.0, 0.0, 0.0, 0.001, 0.0, 0.0, 0.0, 0.001)", -0.284307650931, 0.623353298597, -0.241671079278, "(0.001, 0.0, 0.0, 0.0, 0.001, 0.0, 0.0, 0.0, 0.001)"
1636558246999150482, 3816, 1636512863, 522289991, base_link, 0.00460871613015, -0.0158093102216, -0.697818833936, 0.716084981305, "(0.0017661898506386026, 0.0, 0.0, 0.0, 0.0017657840722956758, 0.0, 0.0, 0.0, 0.0022383402881260978)", 0.00186253316833, -0.000253841832012, -0.0170574341124, "(0.001, 0.0, 0.0, 0.0, 0.001, 0.0, 0.0, 0.0, 0.001)", -0.0119417169304, 0.939867010166, 0.230920918781, "(0.001, 0.0, 0.0, 0.0, 0.001, 0.0, 0.0, 0.0, 0.001)"
1636558247012805566, 3817, 1636512863, 542774915, base_link, 0.00460272502976, -0.0157873003273, -0.697888500606, 0.716017609276, "(0.0017661898506386026, 0.0, 0.0, 0.0, 0.0017657840722956758, 0.0, 0.0, 0.0, 0.0022383402881260978)", -0.00164983857088, 0.00124661990827, -0.0143045625277, "(0.001, 0.0, 0.0, 0.0, 0.001, 0.0, 0.0, 0.0, 0.001)", 0.117206637552, 0.725496406764, -0.310975522829, "(0.001, 0.0, 0.0, 0.0, 0.001, 0.0, 0.0, 0.0, 0.001)"
1636558247031162424, 3818, 1636512863, 561228036, base_link, 0.0046275324009, -0.0157625193651, -0.69795056402, 0.715957498118, "(0.0017661898506386026, 0.0, 0.0, 0.0, 0.0017657840722956758, 0.0, 0.0, 0.0, 0.0022383402881260978)", -0.00157974419896, 0.0051240983698, -0.0209427035495, "(0.001, 0.0, 0.0, 0.0, 0.001, 0.0, 0.0, 0.0, 0.001)", 0.0420237316689, 0.762030750639, 0.153237543278, "(0.001, 0.0, 0.0, 0.0, 0.001, 0.0, 0.0, 0.0, 0.001)"
1636558247052836765, 3819, 1636512863, 582664966, base_link, 0.00463741386781, -0.0157620758828, -0.698011856658, 0.715897687747, "(0.0017661898506386026, 0.0, 0.0, 0.0, 0.0017657840722956758, 0.0, 0.0, 0.0, 0.0022383402881260978)", -2.1556164567e-05, 0.00269977942975, -0.0213781439645, "(0.001, 0.0, 0.0, 0.0, 0.001, 0.0, 0.0, 0.0, 0.001)", 0.44556899605, 1.01150203258, -0.460179306281, "(0.001, 0.0, 0.0, 0.0, 0.001, 0.0, 0.0, 0.0, 0.001)"
1636558247070654575, 3820, 1636512863, 600645065, base_link, 0.00463741386781, -0.0157620758828, -0.698011856658, 0.715897687747, "(0.0017661898506386026, 0.0, 0.0, 0.0, 0.0017657840722956758, 0.0, 0.0, 0.0, 0.0022383402881260978)", 0.00121523026623, 0.0017624010152, -0.0144657249185, "(0.001, 0.0, 0.0, 0.0, 0.001, 0.0, 0.0, 0.0, 0.001)", -0.276657864961, 0.525366908899, 0.196096714702, "(0.001, 0.0, 0.0, 0.0, 0.001, 0.0, 0.0, 0.0, 0.001)"
1636558247104053897, 3821, 1636512863, 621651887, base_link, 0.00463887918689, -0.0157849933144, -0.698136037707, 0.715776073672, "(0.0017661898506386026, 0.0, 0.0, 0.0, 0.0017657840722956758, 0.0, 0.0, 0.0, 0.0022383402881260978)", 0.0010121541882, -0.00236023315992, -0.0137147263622, "(0.001, 0.0, 0.0, 0.0, 0.001, 0.0, 0.0, 0.0, 0.001)", 0.251758177568, 0.613714183728, -0.498353400058, "(0.001, 0.0, 0.0, 0.0, 0.001, 0.0, 0.0, 0.0, 0.001)"
1636558247111135186, 3822, 1636512863, 641100883, base_link, 0.00464548004469, -0.0157942314198, -0.698196346192, 0.715716999891, "(0.0017661898506386026, 0.0, 0.0, 0.0, 0.0017657840722956758, 0.0, 0.0, 0.0, 0.0022383402881260978)", 0.00321205987574, -0.00223609037602, -0.0197881281144, "(0.001, 0.0, 0.0, 0.0, 0.001, 0.0, 0.0, 0.0, 0.001)", 0.0355220363491, 0.893972359841, 0.176557012398, "(0.001, 0.0, 0.0, 0.0, 0.001, 0.0, 0.0, 0.0, 0.001)"
1636558247131923521, 3823, 1636512863, 661724090, base_link, 0.00465169969076, -0.0158376008577, -0.698255247549, 0.715658536846, "(0.0017661898506386026, 0.0, 0.0, 0.0, 0.0017657840722956758, 0.0, 0.0, 0.0, 0.0022383402881260978)", 0.00349212265411, -0.00336696283291, -0.0134495297845, "(0.001, 0.0, 0.0, 0.0, 0.001, 0.0, 0.0, 0.0, 0.001)", 0.297434446261, 0.618785873409, -0.517248517678, "(0.001, 0.0, 0.0, 0.0, 0.001, 0.0, 0.0, 0.0, 0.001)"
1636558247151857480, 3824, 1636512863, 681797027, base_link, 0.00467812469552, -0.0158383220805, -0.698324029371, 0.715591232972, "(0.0017661898506386026, 0.0, 0.0, 0.0, 0.0017657840722956758, 0.0, 0.0, 0.0, 0.0022383402881260978)", 0.00598195125319, -0.000581050798873, -0.021214438178, "(0.001, 0.0, 0.0, 0.0, 0.001, 0.0, 0.0, 0.0, 0.001)", 0.0102543078404, 0.880975385023, 0.0965555500719, "(0.001, 0.0, 0.0, 0.0, 0.001, 0.0, 0.0, 0.0, 0.001)"
1636558247171789192, 3825, 1636512863, 701725006, base_link, 0.00471689694934, -0.0158732418208, -0.69839261521, 0.715523267335, "(0.0017661898506386026, 0.0, 0.0, 0.0, 0.0017657840722956758, 0.0, 0.0, 0.0, 0.0022383402881260978)", 0.00598491713188, -1.14962890746e-06, -0.0154462221933, "(0.001, 0.0, 0.0, 0.0, 0.001, 0.0, 0.0, 0.0, 0.001)", 0.316953736471, 0.605345355853, -0.459776490886, "(0.001, 0.0, 0.0, 0.0, 0.001, 0.0, 0.0, 0.0, 0.001)"
1636558247201964515, 3826, 1636512863, 721004009, base_link, 0.00477366087143, -0.015875953876, -0.698483264941, 0.715434339997, "(0.0017661898506386026, 0.0, 0.0, 0.0, 0.0017657840722956758, 0.0, 0.0, 0.0, 0.0022383402881260978)", 0.0100722402666, 0.00457944313528, -0.0267807416701, "(0.001, 0.0, 0.0, 0.0, 0.001, 0.0, 0.0, 0.0, 0.001)", -0.220035172373, 0.996988887287, 0.197966758863, "(0.001, 0.0, 0.0, 0.0, 0.001, 0.0, 0.0, 0.0, 0.001)"
1636558247211524692, 3827, 1636512863, 741530895, base_link, 0.00481411776529, -0.0159014002862, -0.698580667065, 0.715338396384, "(0.0017661898506386026, 0.0, 0.0, 0.0, 0.0017657840722956758, 0.0, 0.0, 0.0, 0.0022383402881260978)", 0.00673794370954, 0.00212187337855, -0.0209695811782, "(0.001, 0.0, 0.0, 0.0, 0.001, 0.0, 0.0, 0.0, 0.001)", 0.178190193139, 0.713277822266, -0.287256179218, "(0.001, 0.0, 0.0, 0.0, 0.001, 0.0, 0.0, 0.0, 0.001)"
