time, .header.id, .header.msg_type, .header.port_addr, .header.length, .header.sequence, .header.idle_time, .header.time_status, .header.gps_week, .header.gps_week_seconds, .header.receiver_status, .header.reserved, .header.software_version, .ins_status, .position_type, .latitude, .longitude, .altitude, .undulation, .north_velocity, .east_velocity, .up_velocity, .roll, .pitch, .azimuth, .latitude_std, .longitude_std, .altitude_std, .north_velocity_std, .east_velocity_std, .up_velocity_std, .roll_std, .pitch_std, .azimuth_std, .extended_status, .seconds_since_update
1636558244847458450, 1465, 0, 160, 126, 0, 73, 180, 2183, 269464800, 33554432, 18205, 15990, 3, 56, 40.0068977483, 116.32809265, 50.3383257641, -9.69999980927, 0.0236143460151, -0.00752157617975, -0.000414869403005, -0.901593647459, 1.37270215093, 88.4404245122, 0.0376124046743, 0.0374152772129, 0.0358322262764, 0.0225470084697, 0.0224935524166, 0.014686146751, 0.0376107618213, 0.0376063585281, 0.0394154265523, 251920449, 0
1636558244929556735, 1465, 0, 160, 126, 0, 73, 180, 2183, 269464820, 33554432, 18205, 15990, 3, 56, 40.0068977476, 116.32809265, 50.3383419523, -9.69999980927, 0.0156613437064, -0.00717716186272, 0.00240220988465, -0.901932541214, 1.37205889412, 88.4409340682, 0.0376124046743, 0.0374152772129, 0.0358322262764, 0.0225470084697, 0.0224935524166, 0.014686146751, 0.0376107618213, 0.0376063585281, 0.0394154265523, 251920449, 0
1636558245016100408, 1465, 0, 160, 126, 0, 73, 180, 2183, 269464840, 33554432, 18205, 15990, 3, 56, 40.0068977493, 116.32809265, 50.3383229608, -9.69999980927, 0.0235731089144, -0.00648472098763, -0.000348936601117, -0.901923839936, 1.3722314691, 88.4409455582, 0.0376124046743, 0.0374152772129, 0.0358322262764, 0.0225470084697, 0.0224935524166, 0.014686146751, 0.0376107618213, 0.0376063585281, 0.0394154265523, 251920449, 0
1636558245016130451, 1465, 0, 160, 126, 0, 73, 180, 2183, 269464860, 33554432, 18205, 15990, 3, 56, 40.0068977488, 116.32809265, 50.3383320468, -9.69999980927, 0.0167233325472, -0.00661294381148, 0.00213613029522, -0.903673909877, 1.37147353609, 88.4409532051, 0.0376124046743, 0.0374152772129, 0.0358322262764, 0.0225470084697, 0.0224935524166, 0.014686146751, 0.0376107618213, 0.0376063585281, 0.0394154265523, 251920449, 0
1636558245016168391, 1465, 0, 160, 126, 0, 73, 180, 2183, 269464880, 33554432, 18205, 15990, 3, 56, 40.0068977504, 116.32809265, 50.3383222381, -9.69999980927, 0.0219304458634, -0.00789364902409, 0.00024781474658, -0.903027250962, 1.37093952837, 88.4414597909, 0.0376124046743, 0.0374152772129, 0.0358322262764, 0.0225470084697, 0.0224935524166, 0.014686146751, 0.0376107618213, 0.0376063585281, 0.0394154265523, 251920449, 0
1636558245016184163, 1465, 0, 160, 126, 0, 73, 180, 2183, 269464900, 33554432, 18205, 15990, 3, 56, 40.00689775, 116.32809265, 50.3383135935, -9.69999980927, 0.0170526617212, -0.00733925840033, 0.00133902591968, -0.903003112988, 1.37092573329, 88.4417212792, 0.0376124046743, 0.0374152772129, 0.0358322262764, 0.0225470084697, 0.0224935524166, 0.014686146751, 0.0376107618213, 0.0376063585281, 0.0394154265523, 251920449, 0
1636558245016207018, 1465, 0, 160, 126, 0, 73, 180, 2183, 269464920, 33554432, 18205, 15990, 3, 56, 40.0068977516, 116.328092649, 50.3382974202, -9.69999980927, 0.022709944325, -0.00755932802471, -7.41974638079e-05, -0.903068477907, 1.37149679128, 88.4416605231, 0.0376124046743, 0.0374152772129, 0.0358322262764, 0.0225470084697, 0.0224935524166, 0.014686146751, 0.0376107618213, 0.0376063585281, 0.0394154265523, 251920449, 0
1636558245104533366, 1465, 0, 160, 126, 0, 73, 180, 2183, 269464940, 33554432, 18205, 15990, 3, 56, 40.0068977511, 116.32809265, 50.3382918453, -9.69999980927, 0.0158702456911, -0.00658082356852, 0.00226710830947, -0.903429687843, 1.37184899425, 88.442275304, 0.0376124046743, 0.0374152772129, 0.0358322262764, 0.0225470084697, 0.0224935524166, 0.014686146751, 0.0376107618213, 0.0376063585281, 0.0394154265523, 251920449, 0
1636558245104578556, 1465, 0, 160, 126, 0, 73, 180, 2183, 269464960, 33554432, 18205, 15990, 3, 56, 40.0068977528, 116.328092649, 50.3382678209, -9.69999980927, 0.0230257947677, -0.00933872210213, -0.000772063245732, -0.90309208216, 1.37117051374, 88.4422217414, 0.0376124046743, 0.0374152772129, 0.0358322262764, 0.0225470084697, 0.0224935524166, 0.014686146751, 0.0376107618213, 0.0376063585281, 0.0394154265523, 251920449, 0
1636558245104595774, 1465, 0, 160, 126, 0, 73, 180, 2183, 269464980, 33554432, 18205, 15990, 3, 56, 40.0068977521, 116.328092649, 50.3382691387, -9.69999980927, 0.0144259828347, -0.00802143719817, 0.00255306881353, -0.903538306233, 1.37121285627, 88.4417032904, 0.0376124046743, 0.0374152772129, 0.0358322262764, 0.0225470084697, 0.0224935524166, 0.014686146751, 0.0376107618213, 0.0376063585281, 0.0394154265523, 251920449, 0
1636558245104605587, 1465, 0, 160, 126, 0, 73, 180, 2183, 269465000, 33554432, 18205, 15990, 3, 56, 40.0068977535, 116.328092648, 50.3382465933, -9.69999980927, 0.0205443179759, -0.00841872508438, -0.0008584632233, -0.902236582592, 1.37073059515, 88.4421699419, 0.0376124046743, 0.0374152772129, 0.0358322262764, 0.0225470084697, 0.0224935524166, 0.014686146751, 0.0376107618213, 0.0376063585281, 0.0394154265523, 251920449, 0
1636558245104614111, 1465, 0, 160, 126, 0, 73, 180, 2183, 269465020, 33554432, 18205, 15990, 3, 56, 40.0068977531, 116.328092648, 50.3382503483, -9.69999980927, 0.0156072465024, -0.00736546094815, 0.00253798305361, -0.904219654913, 1.37054033205, 88.4414220346, 0.0567162409425, 0.0564453117549, 0.0483591370285, 0.0288491211832, 0.0287921633571, 0.0173603948206, 0.0394969955087, 0.0394930653274, 0.0412227548659, 251920449, 0
1636558245104622315, 1465, 0, 160, 126, 0, 73, 180, 2183, 269465040, 33554432, 18205, 15990, 3, 56, 40.0068977529, 116.328092648, 50.3382417206, -9.69999980927, 0.019684282322, -0.00895314466914, -0.000319132782755, -0.903454144049, 1.36988207675, 88.4411206919, 0.0377879180014, 0.0375886559486, 0.0358228050172, 0.0227136928588, 0.0226599909365, 0.0147354574874, 0.0369893945754, 0.036985706538, 0.038111563772, 251920449, 0
1636558245106235979, 1465, 0, 160, 126, 0, 73, 180, 2183, 269465060, 33554432, 18205, 15990, 3, 56, 40.0068977508, 116.328092649, 50.3382435748, -9.69999980927, 0.0152795941068, -0.00800582702358, 0.0013142921083, -0.903304792311, 1.37186740024, 88.4411004502, 0.0377879180014, 0.0375886559486, 0.0358228050172, 0.0227136928588, 0.0226599909365, 0.0147354574874, 0.0369893945754, 0.036985706538, 0.038111563772, 251920449, 0
1636558245106276164, 1465, 0, 160, 126, 0, 73, 180, 2183, 269465080, 33554432, 18205, 15990, 3, 56, 40.0068977509, 116.32809265, 50.3382359939, -9.69999980927, 0.021349768445, -0.00761101095514, -0.000591832761439, -0.902532330397, 1.37123268996, 88.4407280698, 0.0377879180014, 0.0375886559486, 0.0358228050172, 0.0227136928588, 0.0226599909365, 0.0147354574874, 0.0369893945754, 0.036985706538, 0.038111563772, 251920449, 0
1636558245106281250, 1465, 0, 160, 126, 0, 75, 180, 2183, 269465100, 33554432, 18205, 15990, 3, 56, 40.0068977487, 116.328092651, 50.3382347738, -9.69999980927, 0.0139154111823, -0.00820964378275, 0.0014440057066, -0.903096074907, 1.37109980043, 88.4409116411, 0.0377879180014, 0.0375886559486, 0.0358228050172, 0.0227136928588, 0.0226599909365, 0.0147354574874, 0.0369893945754, 0.036985706538, 0.038111563772, 251920449, 0
1636558245185651622, 1465, 0, 160, 126, 0, 75, 180, 2183, 269465120, 33554432, 18205, 15990, 3, 56, 40.0068977491, 116.328092651, 50.3382315813, -9.69999980927, 0.0234625637942, -0.00807505153086, -0.000114532533639, -0.902710108665, 1.37167411256, 88.4408163492, 0.0377879180014, 0.0375886559486, 0.0358228050172, 0.0227136928588, 0.0226599909365, 0.0147354574874, 0.0369893945754, 0.036985706538, 0.038111563772, 251920449, 0
1636558245187456150, 1465, 0, 160, 126, 0, 75, 180, 2183, 269465140, 33554432, 18205, 15990, 3, 56, 40.006897747, 116.328092652, 50.3382504294, -9.69999980927, 0.0134210762011, -0.00805856858408, 0.0027664578666, -0.905389238418, 1.37109592287, 88.4413141932, 0.0377879180014, 0.0375886559486, 0.0358228050172, 0.0227136928588, 0.0226599909365, 0.0147354574874, 0.0369893945754, 0.036985706538, 0.038111563772, 251920449, 0
1636558245187509071, 1465, 0, 160, 126, 0, 75, 180, 2183, 269465160, 33554432, 18205, 15990, 3, 56, 40.0068977471, 116.328092652, 50.3382667461, -9.69999980927, 0.0210417281522, -0.00948822220074, 0.000885293808507, -0.902181675739, 1.37087309757, 88.4414338906, 0.0377879180014, 0.0375886559486, 0.0358228050172, 0.0227136928588, 0.0226599909365, 0.0147354574874, 0.0369893945754, 0.036985706538, 0.038111563772, 251920449, 0
1636558245187519537, 1465, 0, 160, 126, 0, 75, 180, 2183, 269465180, 33554432, 18205, 15990, 3, 56, 40.0068977454, 116.328092652, 50.3383089313, -9.69999980927, 0.0149884239147, -0.0101417733256, 0.00387438615495, -0.904113919472, 1.36989020168, 88.4417742879, 0.0377879180014, 0.0375886559486, 0.0358228050172, 0.0227136928588, 0.0226599909365, 0.0147354574874, 0.0369893945754, 0.036985706538, 0.038111563772, 251920449, 0
1636558245187536890, 1465, 0, 160, 126, 0, 75, 180, 2183, 269465200, 33554432, 18205, 15990, 3, 56, 40.0068977455, 116.328092652, 50.3383613769, -9.69999980927, 0.0207332087532, -0.0106984796137, 0.00275819295099, -0.902292943081, 1.36641046588, 88.4418300675, 0.0377879180014, 0.0375886559486, 0.0358228050172, 0.0227136928588, 0.0226599909365, 0.0147354574874, 0.0369893945754, 0.036985706538, 0.038111563772, 251920449, 0
1636558245374918283, 1465, 0, 160, 126, 0, 75, 180, 2183, 269465220, 33554432, 18205, 15990, 3, 56, 40.0068977438, 116.328092652, 50.3384062704, -9.69999980927, 0.0150070967062, -0.0113636956075, 0.00361776562642, -0.902788898623, 1.36644085045, 88.4425857391, 0.0377879180014, 0.0375886559486, 0.0358228050172, 0.0227136928588, 0.0226599909365, 0.0147354574874, 0.0369893945754, 0.036985706538, 0.038111563772, 251920449, 0
1636558245374950800, 1465, 0, 160, 126, 0, 75, 180, 2183, 269465240, 33554432, 18205, 15990, 3, 56, 40.0068977443, 116.328092651, 50.3384546097, -9.69999980927, 0.0228684501822, -0.0131451408311, 0.0022791032182, -0.902171400077, 1.36497899125, 88.4425614034, 0.0377879180014, 0.0375886559486, 0.0358228050172, 0.0227136928588, 0.0226599909365, 0.0147354574874, 0.0369893945754, 0.036985706538, 0.038111563772, 251920449, 0
1636558245375003983, 1465, 0, 160, 126, 0, 75, 180, 2183, 269465260, 33554432, 18205, 15990, 3, 56, 40.0068977426, 116.328092651, 50.3384976164, -9.69999980927, 0.0143937574656, -0.0133472043089, 0.00358523505903, -0.903929037704, 1.36427250273, 88.4427982826, 0.0377879180014, 0.0375886559486, 0.0358228050172, 0.0227136928588, 0.0226599909365, 0.0147354574874, 0.0369893945754, 0.036985706538, 0.038111563772, 251920449, 0
1636558245375021579, 1465, 0, 160, 126, 0, 75, 180, 2183, 269465280, 33554432, 18205, 15990, 3, 56, 40.0068977431, 116.32809265, 50.338544975, -9.69999980927, 0.0232309626879, -0.0143421298088, 0.00239883822903, -0.903233613055, 1.36305954303, 88.4428165994, 0.0377879180014, 0.0375886559486, 0.0358228050172, 0.0227136928588, 0.0226599909365, 0.0147354574874, 0.0369893945754, 0.036985706538, 0.038111563772, 251920449, 0
1636558245375818396, 1465, 0, 160, 126, 0, 75, 180, 2183, 269465300, 33554432, 18205, 15990, 3, 56, 40.0068977416, 116.328092649, 50.3385656755, -9.69999980927, 0.0141082550583, -0.0151828887766, 0.00257799899724, -0.906467473545, 1.36361094386, 88.4428431098, 0.0377879180014, 0.0375886559486, 0.0358228050172, 0.0227136928588, 0.0226599909365, 0.0147354574874, 0.0369893945754, 0.036985706538, 0.038111563772, 251920449, 0
1636558245537344620, 1465, 0, 160, 126, 0, 75, 180, 2183, 269465320, 33554432, 18205, 15990, 3, 56, 40.0068977419, 116.328092647, 50.3385973191, -9.69999980927, 0.021558164038, -0.0156657931522, 0.0014370908349, -0.904876397173, 1.36240725547, 88.4422551844, 0.0377879180014, 0.0375886559486, 0.0358228050172, 0.0227136928588, 0.0226599909365, 0.0147354574874, 0.0369893945754, 0.036985706538, 0.038111563772, 251920449, 0
1636558245537358329, 1465, 0, 160, 126, 0, 75, 180, 2183, 269465340, 33554432, 18205, 15990, 3, 56, 40.0068977405, 116.328092646, 50.3386215484, -9.69999980927, 0.014834180377, -0.0156181024225, 0.00294785670499, -0.907374259654, 1.36400387113, 88.4419898487, 0.0377879180014, 0.0375886559486, 0.0358228050172, 0.0227136928588, 0.0226599909365, 0.0147354574874, 0.0369893945754, 0.036985706538, 0.038111563772, 251920449, 0
1636558245537369900, 1465, 0, 160, 126, 0, 75, 180, 2183, 269465360, 33554432, 18205, 15990, 3, 56, 40.0068977408, 116.328092645, 50.338640999, -9.69999980927, 0.0205233130601, -0.0163660101411, 0.00053595939346, -0.906783390475, 1.36257979456, 88.4411521744, 0.0377879180014, 0.0375886559486, 0.0358228050172, 0.0227136928588, 0.0226599909365, 0.0147354574874, 0.0369893945754, 0.036985706538, 0.038111563772, 251920449, 0
1636558245537444151, 1465, 0, 160, 126, 0, 75, 180, 2183, 269465380, 33554432, 18205, 15990, 3, 56, 40.0068977391, 116.328092644, 50.3386552222, -9.69999980927, 0.0138955326836, -0.0165382745937, 0.00196697346382, -0.906454468673, 1.36293073183, 88.4406980071, 0.0377879180014, 0.0375886559486, 0.0358228050172, 0.0227136928588, 0.0226599909365, 0.0147354574874, 0.0369893945754, 0.036985706538, 0.038111563772, 251920449, 0
1636558245537863771, 1465, 0, 160, 126, 0, 75, 180, 2183, 269465400, 33554432, 18205, 15990, 3, 56, 40.0068977396, 116.328092641, 50.3386504343, -9.69999980927, 0.0217608085799, -0.018258586932, -0.000859132260155, -0.905994665741, 1.36264955755, 88.4408361281, 0.0377879180014, 0.0375886559486, 0.0358228050172, 0.0227136928588, 0.0226599909365, 0.0147354574874, 0.0369893945754, 0.036985706538, 0.038111563772, 251920449, 0
1636558245994496342, 1465, 0, 160, 126, 0, 75, 180, 2183, 269465420, 33554432, 18205, 15990, 3, 56, 40.0068977377, 116.32809264, 50.3386393124, -9.69999980927, 0.0123326666733, -0.0153701269011, 0.000725288122672, -0.907030579457, 1.3645282711, 88.4407574098, 0.0377879180014, 0.0375886559486, 0.0358228050172, 0.0227136928588, 0.0226599909365, 0.0147354574874, 0.0369893945754, 0.036985706538, 0.038111563772, 251920449, 0
1636558245994516868, 1465, 0, 160, 126, 0, 75, 180, 2183, 269465440, 33554432, 18205, 15990, 3, 56, 40.0068977382, 116.328092638, 50.3386143362, -9.69999980927, 0.0217311374974, -0.0155406408689, -0.00175365597176, -0.905442990964, 1.36476552225, 88.4409399587, 0.0377879180014, 0.0375886559486, 0.0358228050172, 0.0227136928588, 0.0226599909365, 0.0147354574874, 0.0369893945754, 0.036985706538, 0.038111563772, 251920449, 0
1636558245994533425, 1465, 0, 160, 126, 0, 75, 180, 2183, 269465460, 33554432, 18205, 15990, 3, 56, 40.0068977365, 116.328092638, 50.3385764277, -9.69999980927, 0.0127439177486, -0.0140376885378, -0.000190958574049, -0.908576013886, 1.36748996879, 88.4408260674, 0.0377879180014, 0.0375886559486, 0.0358228050172, 0.0227136928588, 0.0226599909365, 0.0147354574874, 0.0369893945754, 0.036985706538, 0.038111563772, 251920449, 0
1636558245994546846, 1465, 0, 160, 126, 0, 75, 180, 2183, 269465480, 33554432, 18205, 15990, 3, 56, 40.0068977368, 116.328092636, 50.3385284459, -9.69999980927, 0.0198198731558, -0.0136770353373, -0.00284669971843, -0.906618147774, 1.36858830927, 88.44080237, 0.0377879180014, 0.0375886559486, 0.0358228050172, 0.0227136928588, 0.0226599909365, 0.0147354574874, 0.0369893945754, 0.036985706538, 0.038111563772, 251920449, 0
1636558245994555726, 1465, 0, 160, 126, 0, 75, 180, 2183, 269465500, 33554432, 18205, 15990, 3, 56, 40.0068977353, 116.328092636, 50.3384711742, -9.69999980927, 0.0141652197455, -0.0107666922148, -0.00107380162041, -0.908828328313, 1.37163248795, 88.4413693513, 0.0377879180014, 0.0375886559486, 0.0358228050172, 0.0227136928588, 0.0226599909365, 0.0147354574874, 0.0369893945754, 0.036985706538, 0.038111563772, 251920449, 0
1636558245994568302, 1465, 0, 160, 126, 0, 75, 180, 2183, 269465520, 33554432, 18205, 15990, 3, 56, 40.0068977358, 116.328092636, 50.3384214183, -9.69999980927, 0.0209279114669, -0.00783251899309, -0.00250076670097, -0.90796554952, 1.37334579458, 88.4418109159, 0.0377879180014, 0.0375886559486, 0.0358228050172, 0.0227136928588, 0.0226599909365, 0.0147354574874, 0.0369893945754, 0.036985706538, 0.038111563772, 251920449, 0
1636558245994575013, 1465, 0, 160, 126, 0, 75, 180, 2183, 269465540, 33554432, 18205, 15990, 3, 56, 40.0068977343, 116.328092637, 50.3383564344, -9.69999980927, 0.0139791219061, -0.00571468112194, -0.0019820663437, -0.908695990785, 1.37503358157, 88.4424956615, 0.0377879180014, 0.0375886559486, 0.0358228050172, 0.0227136928588, 0.0226599909365, 0.0147354574874, 0.0369893945754, 0.036985706538, 0.038111563772, 251920449, 0
1636558245994602273, 1465, 0, 160, 126, 0, 75, 180, 2183, 269465560, 33554432, 18205, 15990, 3, 56, 40.0068977351, 116.328092637, 50.338293395, -9.69999980927, 0.0227438680672, -0.00422345931199, -0.00342486190155, -0.908290045182, 1.37718958931, 88.4429207478, 0.0377879180014, 0.0375886559486, 0.0358228050172, 0.0227136928588, 0.0226599909365, 0.0147354574874, 0.0369893945754, 0.036985706538, 0.038111563772, 251920449, 0
1636558245996608821, 1465, 0, 160, 126, 0, 75, 180, 2183, 269465580, 33554432, 18205, 15990, 3, 56, 40.0068977337, 116.328092639, 50.3381868275, -9.69999980927, 0.0136233854854, 0.000271352206722, -0.00437389309276, -0.909434670627, 1.38152458173, 88.4434603109, 0.0377879180014, 0.0375886559486, 0.0358228050172, 0.0227136928588, 0.0226599909365, 0.0147354574874, 0.0369893945754, 0.036985706538, 0.038111563772, 251920449, 0
1636558245996621194, 1465, 0, 160, 126, 0, 75, 180, 2183, 269465600, 33554432, 18205, 15990, 3, 56, 40.0068977346, 116.328092642, 50.3380893124, -9.69999980927, 0.0229425582337, 0.00446341130966, -0.00537330090653, -0.907723962743, 1.38459572717, 88.4428870768, 0.0377879180014, 0.0375886559486, 0.0358228050172, 0.0227136928588, 0.0226599909365, 0.0147354574874, 0.0369893945754, 0.036985706538, 0.038111563772, 251920449, 0
1636558246214958894, 1465, 0, 160, 126, 0, 75, 180, 2183, 269465620, 33554432, 18205, 15990, 3, 56, 40.0068977335, 116.328092646, 50.3379242504, -9.69999980927, 0.0145780994647, 0.00852744353705, -0.0068937236308, -0.911214735707, 1.39164138901, 88.4429026465, 0.0377879180014, 0.0375886559486, 0.0358228050172, 0.0227136928588, 0.0226599909365, 0.0147354574874, 0.0369893945754, 0.036985706538, 0.038111563772, 251920449, 0
1636558246402332557, 1465, 0, 160, 126, 0, 75, 180, 2183, 269465640, 33554432, 18205, 15990, 3, 56, 40.0068977345, 116.32809265, 50.3377839699, -9.69999980927, 0.0227521712178, 0.0141042401328, -0.0072182211607, -0.910542719342, 1.39728123273, 88.4431648559, 0.0377879180014, 0.0375886559486, 0.0358228050172, 0.0227136928588, 0.0226599909365, 0.0147354574874, 0.0369893945754, 0.036985706538, 0.038111563772, 251920449, 0
1636558246402397573, 1465, 0, 160, 126, 0, 75, 180, 2183, 269465660, 33554432, 18205, 15990, 3, 56, 40.0068977336, 116.328092656, 50.3375908928, -9.69999980927, 0.0156305652759, 0.0183437354711, -0.00804285643888, -0.915118112611, 1.40538149224, 88.4420270491, 0.0377879180014, 0.0375886559486, 0.0358228050172, 0.0227136928588, 0.0226599909365, 0.0147354574874, 0.0369893945754, 0.036985706538, 0.038111563772, 251920449, 0
1636558246402427840, 1465, 0, 160, 126, 0, 75, 180, 2183, 269465680, 33554432, 18205, 15990, 3, 56, 40.0068977346, 116.328092663, 50.3374202186, -9.69999980927, 0.0229757051366, 0.0257334304672, -0.00865846336463, -0.916308813672, 1.41254905533, 88.4416448163, 0.0377879180014, 0.0375886559486, 0.0358228050172, 0.0227136928588, 0.0226599909365, 0.0147354574874, 0.0369893945754, 0.036985706538, 0.038111563772, 251920449, 0
1636558246402468346, 1465, 0, 160, 126, 0, 75, 180, 2183, 269465700, 33554432, 18205, 15990, 3, 56, 40.0068977336, 116.328092673, 50.3371840464, -9.69999980927, 0.0147934651093, 0.0317534353476, -0.010266911449, -0.918987940003, 1.42090088603, 88.4410374598, 0.0377879180014, 0.0375886559486, 0.0358228050172, 0.0227136928588, 0.0226599909365, 0.0147354574874, 0.0369893945754, 0.036985706538, 0.038111563772, 251920449, 0
1636558246402501175, 1465, 0, 160, 126, 0, 75, 180, 2183, 269465720, 33554432, 18205, 15990, 3, 56, 40.0068977348, 116.328092683, 50.3369816812, -9.69999980927, 0.0237530957665, 0.0389562445899, -0.0101171709715, -0.91979440596, 1.42920559366, 88.4408910623, 0.0377879180014, 0.0375886559486, 0.0358228050172, 0.0227136928588, 0.0226599909365, 0.0147354574874, 0.0369893945754, 0.036985706538, 0.038111563772, 251920449, 0
1636558246509158654, 1465, 0, 160, 126, 0, 75, 180, 2183, 269465740, 33554432, 18205, 15990, 3, 56, 40.006897734, 116.328092695, 50.336738185, -9.69999980927, 0.014984063056, 0.0478728427805, -0.0103757489829, -0.92366629674, 1.43993211542, 88.4400673066, 0.0377879180014, 0.0375886559486, 0.0358228050172, 0.0227136928588, 0.0226599909365, 0.0147354574874, 0.0369893945754, 0.036985706538, 0.038111563772, 251920449, 0
1636558246509195696, 1465, 0, 160, 126, 0, 75, 180, 2183, 269465760, 33554432, 18205, 15990, 3, 56, 40.006897735, 116.328092709, 50.3365340438, -9.69999980927, 0.0218933181265, 0.0567458265045, -0.00995265847203, -0.923513276794, 1.44832697757, 88.4402056554, 0.0377879180014, 0.0375886559486, 0.0358228050172, 0.0227136928588, 0.0226599909365, 0.0147354574874, 0.0369893945754, 0.036985706538, 0.038111563772, 251920449, 0
1636558246509201801, 1465, 0, 160, 126, 0, 75, 180, 2183, 269465780, 33554432, 18205, 15990, 3, 56, 40.0068977346, 116.328092726, 50.336305242, -9.69999980927, 0.0167167955662, 0.0632529355995, -0.00977501435536, -0.928149068061, 1.45688559123, 88.4400493756, 0.0377879180014, 0.0375886559486, 0.0358228050172, 0.0227136928588, 0.0226599909365, 0.0147354574874, 0.0369893945754, 0.036985706538, 0.038111563772, 251920449, 0
1636558246509210843, 1465, 0, 160, 126, 0, 75, 180, 2183, 269465800, 33554432, 18205, 15990, 3, 56, 40.0068977352, 116.328092744, 50.3361289455, -9.69999980927, 0.0183281481315, 0.0738065833384, -0.008096388636, -0.927179830633, 1.46501379577, 88.4407460236, 0.0377879180014, 0.0375886559486, 0.0358228050172, 0.0227136928588, 0.0226599909365, 0.0147354574874, 0.0369893945754, 0.036985706538, 0.038111563772, 251920449, 0
1636558246509220137, 1465, 0, 160, 126, 0, 75, 180, 2183, 269465820, 33554432, 18205, 15990, 3, 56, 40.0068977349, 116.328092765, 50.3359401552, -9.69999980927, 0.0176953669978, 0.0839711289373, -0.00792080435463, -0.931133668427, 1.47338445535, 88.4410826992, 0.0377879180014, 0.0375886559486, 0.0358228050172, 0.0227136928588, 0.0226599909365, 0.0147354574874, 0.0369893945754, 0.036985706538, 0.038111563772, 251920449, 0
1636558246510782218, 1465, 0, 160, 126, 0, 75, 180, 2183, 269465840, 33554432, 18205, 15990, 3, 56, 40.0068977354, 116.328092787, 50.335797458, -9.69999980927, 0.01689233034, 0.0907756105018, -0.00642286633282, -0.930822850235, 1.47966140491, 88.4417595841, 0.0377879180014, 0.0375886559486, 0.0358228050172, 0.0227136928588, 0.0226599909365, 0.0147354574874, 0.0369893945754, 0.036985706538, 0.038111563772, 251920449, 0
1636558246510796495, 1465, 0, 160, 126, 0, 75, 180, 2183, 269465860, 33554432, 18205, 15990, 3, 56, 40.0068977351, 116.328092812, 50.3356563905, -9.69999980927, 0.0170953441735, 0.104272706685, -0.00545483702374, -0.933663550306, 1.48664705926, 88.4419435406, 0.0377879180014, 0.0375886559486, 0.0358228050172, 0.0227136928588, 0.0226599909365, 0.0147354574874, 0.0369893945754, 0.036985706538, 0.038111563772, 251920449, 0
1636558246510805591, 1465, 0, 160, 126, 0, 75, 180, 2183, 269465880, 33554432, 18205, 15990, 3, 56, 40.0068977351, 116.328092839, 50.3355672117, -9.69999980927, 0.0140305092544, 0.109852185017, -0.00314596711964, -0.932263230794, 1.49190354879, 88.4419114723, 0.0377879180014, 0.0375886559486, 0.0358228050172, 0.0227136928588, 0.0226599909365, 0.0147354574874, 0.0369893945754, 0.036985706538, 0.038111563772, 251920449, 0
1636558246510815622, 1465, 0, 160, 126, 0, 75, 180, 2183, 269465900, 33554432, 18205, 15990, 3, 56, 40.0068977349, 116.328092868, 50.3354898905, -9.69999980927, 0.0181232761449, 0.12385741979, -0.00290577951377, -0.934599993986, 1.49659493305, 88.4418410058, 0.0377879180014, 0.0375886559486, 0.0358228050172, 0.0227136928588, 0.0226599909365, 0.0147354574874, 0.0369893945754, 0.036985706538, 0.038111563772, 251920449, 0
1636558246532851430, 1465, 0, 160, 126, 0, 75, 180, 2183, 269465920, 33554432, 18205, 15990, 3, 56, 40.0068977338, 116.3280929, 50.3354566013, -9.69999980927, 0.0150510328927, 0.130137765147, -0.000514354461008, -0.932982063339, 1.49956611503, 88.4417622625, 0.0377879180014, 0.0375886559486, 0.0358228050172, 0.0227136928588, 0.0226599909365, 0.0147354574874, 0.0369893945754, 0.036985706538, 0.038111563772, 251920449, 0
1636558246532864691, 1465, 0, 160, 126, 0, 75, 180, 2183, 269465940, 33554432, 18205, 15990, 3, 56, 40.0068977346, 116.328092934, 50.3354205741, -9.69999980927, 0.0189631613594, 0.142338778074, -0.00196601107547, -0.934029379036, 1.50412264633, 88.4413774844, 0.0377879180014, 0.0375886559486, 0.0358228050172, 0.0227136928588, 0.0226599909365, 0.0147354574874, 0.0369893945754, 0.036985706538, 0.038111563772, 251920449, 0
1636558246532900598, 1465, 0, 160, 126, 0, 75, 180, 2183, 269465960, 33554432, 18205, 15990, 3, 56, 40.0068977346, 116.32809297, 50.3354245974, -9.69999980927, 0.0120925645681, 0.151065981175, 0.00124704373648, -0.934111614137, 1.50637931236, 88.4402944174, 0.0377879180014, 0.0375886559486, 0.0358228050172, 0.0227136928588, 0.0226599909365, 0.0147354574874, 0.0369893945754, 0.036985706538, 0.038111563772, 251920449, 0
1636558246532942328, 1465, 0, 160, 126, 0, 75, 180, 2183, 269465980, 33554432, 18205, 15990, 3, 56, 40.0068977342, 116.328093008, 50.3354236605, -9.69999980927, 0.0186093898582, 0.161097971569, -0.000251646315038, -0.933734879197, 1.50880461973, 88.4393809699, 0.0377879180014, 0.0375886559486, 0.0358228050172, 0.0227136928588, 0.0226599909365, 0.0147354574874, 0.0369893945754, 0.036985706538, 0.038111563772, 251920449, 0
1636558246558104355, 1465, 0, 160, 126, 0, 75, 180, 2183, 269466000, 33554432, 18205, 15990, 3, 56, 40.0068977344, 116.328093049, 50.3354504853, -9.69999980927, 0.0131086704154, 0.171017104036, 0.00247942341045, -0.935662934469, 1.51144395436, 88.4381536403, 0.0377879180014, 0.0375886559486, 0.0358228050172, 0.0227136928588, 0.0226599909365, 0.0147354574874, 0.0369893945754, 0.036985706538, 0.038111563772, 251920449, 0
1636558246558120569, 1465, 0, 160, 126, 0, 75, 180, 2183, 269466020, 33554432, 18205, 15990, 3, 56, 40.0068977342, 116.328093092, 50.3354700422, -9.69999980927, 0.0195741403083, 0.18034190657, 0.000610609339193, -0.935497076356, 1.51310036483, 88.4385409825, 0.057097248733, 0.0568241924047, 0.0483804792166, 0.0289425626397, 0.0288861431181, 0.0174159221351, 0.0385977625847, 0.0385922305286, 0.0396729521453, 251920449, 0
1636558246558163031, 1465, 0, 160, 126, 0, 75, 180, 2183, 269466040, 33554432, 18205, 15990, 3, 56, 40.0068977325, 116.328093138, 50.3355195476, -9.69999980927, 0.0150164326275, 0.189767010349, 0.00294568173651, -0.936423005329, 1.5156700379, 88.4378695965, 0.0378997698426, 0.0376995354891, 0.035826690495, 0.0226449500769, 0.0225928556174, 0.0147652262822, 0.0359667241573, 0.0359600931406, 0.0396729446948, 251666497, 0
1636558246558175058, 1465, 0, 160, 126, 0, 75, 180, 2183, 269466060, 33554432, 18205, 15990, 3, 56, 40.0068977328, 116.328093186, 50.3355707666, -9.69999980927, 0.0203654244688, 0.197506292422, 0.00107281375576, -0.93702138712, 1.51811769936, 88.4383401722, 0.0378997698426, 0.0376995354891, 0.035826690495, 0.0226449500769, 0.0225928556174, 0.0147652262822, 0.0359667241573, 0.0359600931406, 0.0396729446948, 251666497, 0
1636558246558279558, 1465, 0, 160, 126, 0, 79, 180, 2183, 269466080, 33554432, 18205, 15990, 3, 56, 40.0068977326, 116.328093235, 50.3356165458, -9.69999980927, 0.0146391615963, 0.207556882981, 0.00179561019001, -0.940066711121, 1.52027080118, 88.4372510355, 0.0378997698426, 0.0376995354891, 0.035826690495, 0.0226449500769, 0.0225928556174, 0.0147652262822, 0.0359667241573, 0.0359600931406, 0.0396729446948, 251666497, 0
1636558246558309609, 1465, 0, 160, 126, 0, 79, 180, 2183, 269466100, 33554432, 18205, 15990, 3, 56, 40.0068977319, 116.328093287, 50.335726833, -9.69999980927, 0.019620973713, 0.213842692062, 0.00381472422235, -0.938481507033, 1.52042105161, 88.4385828742, 0.0378997698426, 0.0376995354891, 0.035826690495, 0.0226449500769, 0.0225928556174, 0.0147652262822, 0.0359667241573, 0.0359600931406, 0.0396729446948, 251666497, 0
1636558246580740148, 1465, 0, 160, 126, 0, 79, 180, 2183, 269466120, 33554432, 18205, 15990, 3, 56, 40.006897732, 116.32809334, 50.3357978472, -9.69999980927, 0.0160964864848, 0.221974975662, 0.00292697996598, -0.942160747131, 1.5209505607, 88.4381251586, 0.0378997698426, 0.0376995354891, 0.035826690495, 0.0226449500769, 0.0225928556174, 0.0147652262822, 0.0359667241573, 0.0359600931406, 0.0396729446948, 251666497, 0
1636558246580760689, 1465, 0, 160, 126, 0, 79, 180, 2183, 269466140, 33554432, 18205, 15990, 3, 56, 40.0068977312, 116.328093396, 50.3359610979, -9.69999980927, 0.0185690565322, 0.229645958125, 0.00619170559095, -0.941654279716, 1.51930699431, 88.4392207051, 0.0378997698426, 0.0376995354891, 0.035826690495, 0.0226449500769, 0.0225928556174, 0.0147652262822, 0.0359667241573, 0.0359600931406, 0.0396729446948, 251666497, 0
1636558246580772724, 1465, 0, 160, 126, 0, 79, 180, 2183, 269466160, 33554432, 18205, 15990, 3, 56, 40.0068977312, 116.328093452, 50.3360368358, -9.69999980927, 0.0158813075714, 0.235128788446, 0.00247265883773, -0.94355346618, 1.5191696012, 88.4390562715, 0.0378997698426, 0.0376995354891, 0.035826690495, 0.0226449500769, 0.0225928556174, 0.0147652262822, 0.0359667241573, 0.0359600931406, 0.0396729446948, 251666497, 0
1636558246580803716, 1465, 0, 160, 126, 0, 79, 180, 2183, 269466180, 33554432, 18205, 15990, 3, 56, 40.0068977304, 116.328093511, 50.3361870861, -9.69999980927, 0.0182877341626, 0.242186864258, 0.0050084017289, -0.943063644916, 1.51763931477, 88.4391161605, 0.0378997698426, 0.0376995354891, 0.035826690495, 0.0226449500769, 0.0225928556174, 0.0147652262822, 0.0359667241573, 0.0359600931406, 0.0396729446948, 251666497, 0
1636558246582344627, 1465, 0, 160, 126, 0, 79, 180, 2183, 269466200, 33554432, 18205, 15990, 3, 56, 40.0068977302, 116.32809357, 50.3362406241, -9.69999980927, 0.0144671579022, 0.248668510942, 0.00115223640369, -0.944340680653, 1.51741689619, 88.4388347091, 0.0378997698426, 0.0376995354891, 0.035826690495, 0.0226449500769, 0.0225928556174, 0.0147652262822, 0.0359667241573, 0.0359600931406, 0.0396729446948, 251666497, 0
1636558246605383809, 1465, 0, 160, 126, 0, 79, 180, 2183, 269466220, 33554432, 18205, 15990, 3, 56, 40.0068977295, 116.328093632, 50.3363433555, -9.69999980927, 0.0191425615002, 0.255160887904, 0.00223332377024, -0.944275636205, 1.51942942906, 88.4398297162, 0.0378997698426, 0.0376995354891, 0.035826690495, 0.0226449500769, 0.0225928556174, 0.0147652262822, 0.0359667241573, 0.0359600931406, 0.0396729446948, 251666497, 0
1636558246605457049, 1465, 0, 160, 126, 0, 79, 180, 2183, 269466240, 33554432, 18205, 15990, 3, 56, 40.0068977293, 116.328093695, 50.3363295887, -9.69999980927, 0.0136710827827, 0.263187373599, -0.00267260451422, -0.946634892581, 1.52198030953, 88.4395110753, 0.0378997698426, 0.0376995354891, 0.035826690495, 0.0226449500769, 0.0225928556174, 0.0147652262822, 0.0359667241573, 0.0359600931406, 0.0396729446948, 251666497, 0
1636558246605469202, 1465, 0, 160, 126, 0, 79, 180, 2183, 269466260, 33554432, 18205, 15990, 3, 56, 40.0068977284, 116.32809376, 50.3363586199, -9.69999980927, 0.0178503885285, 0.269715488197, -0.00218569058374, -0.944297916575, 1.52716789502, 88.4395678992, 0.0378997698426, 0.0376995354891, 0.035826690495, 0.0226449500769, 0.0225928556174, 0.0147652262822, 0.0359667241573, 0.0359600931406, 0.0396729446948, 251666497, 0
1636558246605479786, 1465, 0, 160, 126, 0, 79, 180, 2183, 269466280, 33554432, 18205, 15990, 3, 56, 40.0068977281, 116.328093826, 50.3362623677, -9.69999980927, 0.0121495666651, 0.279721171184, -0.00682792202317, -0.946112159957, 1.53424995264, 88.4382187062, 0.0378997698426, 0.0376995354891, 0.035826690495, 0.0226449500769, 0.0225928556174, 0.0147652262822, 0.0359667241573, 0.0359600931406, 0.0396729446948, 251666497, 0
1636558246606520163, 1465, 0, 160, 126, 0, 79, 180, 2183, 269466300, 33554432, 18205, 15990, 3, 56, 40.0068977271, 116.328093895, 50.3362507308, -9.69999980927, 0.0170365778229, 0.289010439641, -0.00446481420973, -0.944974040032, 1.54169903262, 88.4381966993, 0.0378997698426, 0.0376995354891, 0.035826690495, 0.0226449500769, 0.0225928556174, 0.0147652262822, 0.0359667241573, 0.0359600931406, 0.0396729446948, 251666497, 0
1636558246627170714, 1465, 0, 160, 126, 0, 79, 180, 2183, 269466320, 33554432, 18205, 15990, 3, 56, 40.0068977266, 116.328093966, 50.3361338936, -9.69999980927, 0.0114707221707, 0.300035627896, -0.00692869931646, -0.946306600256, 1.55115138735, 88.4368367326, 0.0378997698426, 0.0376995354891, 0.035826690495, 0.0226449500769, 0.0225928556174, 0.0147652262822, 0.0359667241573, 0.0359600931406, 0.0396729446948, 251666497, 0
1636558246627194598, 1465, 0, 160, 126, 0, 79, 180, 2183, 269466340, 33554432, 18205, 15990, 3, 56, 40.006897726, 116.32809404, 50.3361039432, -9.69999980927, 0.0179471395559, 0.309631595564, -0.00541894169548, -0.946665383116, 1.55745587287, 88.4360817702, 0.0378997698426, 0.0376995354891, 0.035826690495, 0.0226449500769, 0.0225928556174, 0.0147652262822, 0.0359667241573, 0.0359600931406, 0.0396729446948, 251666497, 0
1636558246627211001, 1465, 0, 160, 126, 0, 79, 180, 2183, 269466360, 33554432, 18205, 15990, 3, 56, 40.0068977253, 116.328094116, 50.3360039731, -9.69999980927, 0.00930909440308, 0.320585359695, -0.00535039111379, -0.947744956255, 1.5653449657, 88.4344730311, 0.0378997698426, 0.0376995354891, 0.035826690495, 0.0226449500769, 0.0225928556174, 0.0147652262822, 0.0359667241573, 0.0359600931406, 0.0396729446948, 251666497, 0
1636558246627389902, 1465, 0, 160, 126, 0, 79, 180, 2183, 269466380, 33554432, 18205, 15990, 3, 56, 40.0068977249, 116.328094194, 50.3359833984, -9.69999980927, 0.0183825547074, 0.330408910485, -0.00427442189381, -0.948911675016, 1.57110239177, 88.4337446175, 0.0378997698426, 0.0376995354891, 0.035826690495, 0.0226449500769, 0.0225928556174, 0.0147652262822, 0.0359667241573, 0.0359600931406, 0.0396729446948, 251666497, 0
1636558246653669730, 1465, 0, 160, 126, 0, 79, 180, 2183, 269466400, 33554432, 18205, 15990, 3, 56, 40.0068977241, 116.328094275, 50.3359350823, -9.69999980927, 0.00899547284122, 0.341196451262, -0.00189028351154, -0.951495438039, 1.57658591486, 88.431754433, 0.0378997698426, 0.0376995354891, 0.035826690495, 0.0226449500769, 0.0225928556174, 0.0147652262822, 0.0359667241573, 0.0359600931406, 0.0396729446948, 251666497, 0
1636558246656835269, 1465, 0, 160, 126, 0, 79, 180, 2183, 269466420, 33554432, 18205, 15990, 3, 56, 40.0068977237, 116.328094359, 50.3359645195, -9.69999980927, 0.0177664882919, 0.351523838261, -0.00132677064608, -0.951119520853, 1.57788575177, 88.431552666, 0.0378997698426, 0.0376995354891, 0.035826690495, 0.0226449500769, 0.0225928556174, 0.0147652262822, 0.0359667241573, 0.0359600931406, 0.0396729446948, 251666497, 0
1636558246656865837, 1465, 0, 160, 126, 0, 79, 180, 2183, 269466440, 33554432, 18205, 15990, 3, 56, 40.0068977231, 116.328094444, 50.3359764162, -9.69999980927, 0.0104428311747, 0.361152467637, 0.00115279163772, -0.951246340951, 1.58091858762, 88.4301292838, 0.0378997698426, 0.0376995354891, 0.035826690495, 0.0226449500769, 0.0225928556174, 0.0147652262822, 0.0359667241573, 0.0359600931406, 0.0396729446948, 251666497, 0
1636558246656880326, 1465, 0, 160, 126, 0, 79, 180, 2183, 269466460, 33554432, 18205, 15990, 3, 56, 40.0068977228, 116.328094532, 50.3360343082, -9.69999980927, 0.0166943562758, 0.371642211377, -0.000421300540717, -0.951154075628, 1.58124065816, 88.4303347781, 0.0378997698426, 0.0376995354891, 0.035826690495, 0.0226449500769, 0.0225928556174, 0.0147652262822, 0.0359667241573, 0.0359600931406, 0.0396729446948, 251666497, 0
1636558246656898524, 1465, 0, 160, 126, 0, 79, 180, 2183, 269466480, 33554432, 18205, 15990, 3, 56, 40.0068977224, 116.328094622, 50.3360911543, -9.69999980927, 0.0113640771809, 0.378840865781, 0.00339181281853, -0.950237766945, 1.58191277737, 88.4295269068, 0.0378997698426, 0.0376995354891, 0.035826690495, 0.0226449500769, 0.0225928556174, 0.0147652262822, 0.0359667241573, 0.0359600931406, 0.0396729446948, 251666497, 0
1636558246656930172, 1465, 0, 160, 126, 0, 79, 180, 2183, 269466500, 33554432, 18205, 15990, 3, 56, 40.006897722, 116.328094714, 50.3361681206, -9.69999980927, 0.0152039498344, 0.388991639567, 0.000457108749261, -0.949355413352, 1.58063524612, 88.4307394027, 0.0378997698426, 0.0376995354891, 0.035826690495, 0.0226449500769, 0.0225928556174, 0.0147652262822, 0.0359667241573, 0.0359600931406, 0.0396729446948, 251666497, 0
1636558246676340369, 1465, 0, 160, 126, 0, 79, 180, 2183, 269466520, 33554432, 18205, 15990, 3, 56, 40.0068977216, 116.328094808, 50.3362620473, -9.69999980927, 0.0115730852035, 0.39738234911, 0.00536314530069, -0.947510595857, 1.58043885631, 88.4305380291, 0.0378997698426, 0.0376995354891, 0.035826690495, 0.0226449500769, 0.0225928556174, 0.0147652262822, 0.0359667241573, 0.0359600931406, 0.0396729446948, 251666497, 0
1636558246676369067, 1465, 0, 160, 126, 0, 79, 180, 2183, 269466540, 33554432, 18205, 15990, 3, 56, 40.0068977211, 116.328094904, 50.3363099955, -9.69999980927, 0.0143084698216, 0.405382167146, -0.00149964891047, -0.947462651624, 1.58026313843, 88.4319104003, 0.0378997698426, 0.0376995354891, 0.035826690495, 0.0226449500769, 0.0225928556174, 0.0147652262822, 0.0359667241573, 0.0359600931406, 0.0396729446948, 251666497, 0
1636558246676383628, 1465, 0, 160, 126, 0, 79, 180, 2183, 269466560, 33554432, 18205, 15990, 3, 56, 40.0068977207, 116.328095002, 50.3363903109, -9.69999980927, 0.0117703518292, 0.414977392983, 0.00433251567299, -0.946987965474, 1.58236053346, 88.4316581598, 0.0378997698426, 0.0376995354891, 0.035826690495, 0.0226449500769, 0.0225928556174, 0.0147652262822, 0.0359667241573, 0.0359600931406, 0.0396729446948, 251666497, 0
1636558246701218415, 1465, 0, 160, 126, 0, 79, 180, 2183, 269466580, 33554432, 18205, 15990, 3, 56, 40.0068977198, 116.328095102, 50.3363857055, -9.69999980927, 0.0122146529507, 0.422801307056, -0.00401621069633, -0.945074353174, 1.58196409059, 88.432046988, 0.0378997698426, 0.0376995354891, 0.035826690495, 0.0226449500769, 0.0225928556174, 0.0147652262822, 0.0359667241573, 0.0359600931406, 0.0396729446948, 251666497, 0
1636558246701233080, 1465, 0, 160, 126, 0, 79, 180, 2183, 269466600, 33554432, 18205, 15990, 3, 56, 40.0068977192, 116.328095204, 50.3364556003, -9.69999980927, 0.00950472199097, 0.43156807314, 0.00425694641779, -0.943134582722, 1.58654358073, 88.4317128556, 0.0378997698426, 0.0376995354891, 0.035826690495, 0.0226449500769, 0.0225928556174, 0.0147652262822, 0.0359667241573, 0.0359600931406, 0.0396729446948, 251666497, 0
1636558246701250786, 1465, 0, 160, 126, 0, 79, 180, 2183, 269466620, 33554432, 18205, 15990, 3, 56, 40.0068977176, 116.328095309, 50.3364198888, -9.69999980927, 0.00870617708891, 0.442619495418, -0.00461290816973, -0.939600100418, 1.58980839666, 88.4327689538, 0.0378997698426, 0.0376995354891, 0.035826690495, 0.0226449500769, 0.0225928556174, 0.0147652262822, 0.0359667241573, 0.0359600931406, 0.0396729446948, 251666497, 0
1636558246701272322, 1465, 0, 160, 126, 0, 79, 180, 2183, 269466640, 33554432, 18205, 15990, 3, 56, 40.0068977168, 116.328095415, 50.336484693, -9.69999980927, 0.0089022387972, 0.450644710943, 0.00429752062158, -0.935348819514, 1.59415014211, 88.4326497796, 0.0378997698426, 0.0376995354891, 0.035826690495, 0.0226449500769, 0.0225928556174, 0.0147652262822, 0.0359667241573, 0.0359600931406, 0.0396729446948, 251666497, 0
1636558246701293225, 1465, 0, 160, 126, 0, 79, 180, 2183, 269466660, 33554432, 18205, 15990, 3, 56, 40.006897715, 116.328095524, 50.3364298232, -9.69999980927, 0.00698375627688, 0.460391391782, -0.00460409234281, -0.932152209473, 1.59614968311, 88.4330684346, 0.0378997698426, 0.0376995354891, 0.035826690495, 0.0226449500769, 0.0225928556174, 0.0147652262822, 0.0359667241573, 0.0359600931406, 0.0396729446948, 251666497, 0
1636558246738664002, 1465, 0, 160, 126, 0, 79, 180, 2183, 269466680, 33554432, 18205, 15990, 3, 56, 40.006897714, 116.328095635, 50.3364973897, -9.69999980927, 0.00854318759043, 0.469742394388, 0.00445374510978, -0.927619395431, 1.6004167146, 88.4332469282, 0.0378997698426, 0.0376995354891, 0.035826690495, 0.0226449500769, 0.0225928556174, 0.0147652262822, 0.0359667241573, 0.0359600931406, 0.0396729446948, 251666497, 0
1636558246738681801, 1465, 0, 160, 126, 0, 79, 180, 2183, 269466700, 33554432, 18205, 15990, 3, 56, 40.0068977123, 116.328095748, 50.3364162883, -9.69999980927, 0.00734560064079, 0.478952944817, -0.00580881949086, -0.925770865041, 1.6023698071, 88.4339434418, 0.0378997698426, 0.0376995354891, 0.035826690495, 0.0226449500769, 0.0225928556174, 0.0147652262822, 0.0359667241573, 0.0359600931406, 0.0396729446948, 251666497, 0
1636558246738695791, 1465, 0, 160, 126, 0, 79, 180, 2183, 269466720, 33554432, 18205, 15990, 3, 56, 40.0068977115, 116.328095863, 50.336483513, -9.69999980927, 0.00916737434542, 0.48920377776, 0.0045515314602, -0.920780820203, 1.60619569104, 88.4348943979, 0.0378997698426, 0.0376995354891, 0.035826690495, 0.0226449500769, 0.0225928556174, 0.0147652262822, 0.0359667241573, 0.0359600931406, 0.0396729446948, 251666497, 0
1636558246738710771, 1465, 0, 160, 126, 0, 79, 180, 2183, 269466740, 33554432, 18205, 15990, 3, 56, 40.0068977101, 116.328095981, 50.3364040582, -9.69999980927, 0.00918493554899, 0.498860813021, -0.00449365869625, -0.918750815111, 1.6080518054, 88.4359451813, 0.0378997698426, 0.0376995354891, 0.035826690495, 0.0226449500769, 0.0225928556174, 0.0147652262822, 0.0359667241573, 0.0359600931406, 0.0396729446948, 251666497, 0
1636558246738724415, 1465, 0, 160, 126, 0, 79, 180, 2183, 269466760, 33554432, 18205, 15990, 3, 56, 40.0068977096, 116.328096101, 50.3364838529, -9.69999980927, 0.0109289680658, 0.507276541581, 0.00502004514004, -0.914780196517, 1.60908977366, 88.4375184946, 0.0378997698426, 0.0376995354891, 0.035826690495, 0.0226449500769, 0.0225928556174, 0.0147652262822, 0.0359667241573, 0.0359600931406, 0.0396729446948, 251666497, 0
1636558246764514104, 1465, 0, 160, 126, 0, 79, 180, 2183, 269466780, 33554432, 18205, 15990, 3, 56, 40.0068977081, 116.328096223, 50.336426165, -9.69999980927, 0.00865105257072, 0.517037536577, -0.00218256573142, -0.912145424495, 1.61203226809, 88.4398692529, 0.0378997698426, 0.0376995354891, 0.035826690495, 0.0226449500769, 0.0225928556174, 0.0147652262822, 0.0359667241573, 0.0359600931406, 0.0396729446948, 251666497, 0
1636558246764560016, 1465, 0, 160, 126, 0, 79, 180, 2183, 269466800, 33554432, 18205, 15990, 3, 56, 40.0068977081, 116.328096347, 50.3365318719, -9.69999980927, 0.013454498267, 0.526224226361, 0.00611758900948, -0.908419812233, 1.61227622297, 88.4429753998, 0.0378997698426, 0.0376995354891, 0.035826690495, 0.0226449500769, 0.0225928556174, 0.0147652262822, 0.0359667241573, 0.0359600931406, 0.0396729446948, 251666497, 0
1636558246764580141, 1465, 0, 160, 126, 0, 79, 180, 2183, 269466820, 33554432, 18205, 15990, 3, 56, 40.0068977067, 116.328096474, 50.3365053954, -9.69999980927, 0.0083659047887, 0.535911210936, -0.000167315043614, -0.906028437797, 1.61354719143, 88.4447270551, 0.0378997698426, 0.0376995354891, 0.035826690495, 0.0226449500769, 0.0225928556174, 0.0147652262822, 0.0359667241573, 0.0359600931406, 0.0396729446948, 251666497, 0
1636558246766779617, 1465, 0, 160, 126, 0, 79, 180, 2183, 269466840, 33554432, 18205, 15990, 3, 56, 40.0068977071, 116.328096601, 50.3366299337, -9.69999980927, 0.0165784809902, 0.542576273969, 0.00675001479013, -0.90270765637, 1.61557254067, 88.4472196544, 0.0378997698426, 0.0376995354891, 0.035826690495, 0.0226449500769, 0.0225928556174, 0.0147652262822, 0.0359667241573, 0.0359600931406, 0.0396729446948, 251666497, 0
1636558246766798127, 1465, 0, 160, 126, 0, 79, 180, 2183, 269466860, 33554432, 18205, 15990, 3, 56, 40.0068977063, 116.328096732, 50.3366059083, -9.69999980927, 0.0119452725738, 0.551519592129, 0.000293360564913, -0.904824934115, 1.61876283753, 88.4494921432, 0.0378997698426, 0.0376995354891, 0.035826690495, 0.0226449500769, 0.0225928556174, 0.0147652262822, 0.0359667241573, 0.0359600931406, 0.0396729446948, 251666497, 0
1636558246766823555, 1465, 0, 160, 126, 0, 79, 180, 2183, 269466880, 33554432, 18205, 15990, 3, 56, 40.0068977072, 116.328096863, 50.3367173281, -9.69999980927, 0.0195306996898, 0.559486068962, 0.00553261161229, -0.904570084907, 1.62031355179, 88.4516854126, 0.0378997698426, 0.0376995354891, 0.035826690495, 0.0226449500769, 0.0225928556174, 0.0147652262822, 0.0359667241573, 0.0359600931406, 0.0396729446948, 251666497, 0
1636558246766841863, 1465, 0, 160, 126, 0, 79, 180, 2183, 269466900, 33554432, 18205, 15990, 3, 56, 40.0068977073, 116.328096997, 50.3367062304, -9.69999980927, 0.0173451031391, 0.56459706563, 0.00145535138713, -0.91054258603, 1.62544345935, 88.4533916469, 0.0378997698426, 0.0376995354891, 0.035826690495, 0.0226449500769, 0.0225928556174, 0.0147652262822, 0.0359667241573, 0.0359600931406, 0.0396729446948, 251666497, 0
1636558246787164583, 1465, 0, 160, 126, 0, 79, 180, 2183, 269466920, 33554432, 18205, 15990, 3, 56, 40.0068977093, 116.328097132, 50.3368048966, -9.69999980927, 0.025481171495, 0.573745684642, 0.00452833103921, -0.914741674986, 1.6288784953, 88.4563141291, 0.0378997698426, 0.0376995354891, 0.035826690495, 0.0226449500769, 0.0225928556174, 0.0147652262822, 0.0359667241573, 0.0359600931406, 0.0396729446948, 251666497, 0
1636558246787185805, 1465, 0, 160, 126, 0, 79, 180, 2183, 269466940, 33554432, 18205, 15990, 3, 56, 40.0068977097, 116.328097269, 50.3367949491, -9.69999980927, 0.0191151422073, 0.580406394787, 0.0014662979328, -0.919938835022, 1.63350040713, 88.4586964166, 0.0378997698426, 0.0376995354891, 0.035826690495, 0.0226449500769, 0.0225928556174, 0.0147652262822, 0.0359667241573, 0.0359600931406, 0.0396729446948, 251666497, 0
1636558246787200350, 1465, 0, 160, 126, 0, 79, 180, 2183, 269466960, 33554432, 18205, 15990, 3, 56, 40.006897712, 116.328097408, 50.3368740669, -9.69999980927, 0.0256642809959, 0.588376191909, 0.00323435966346, -0.921308431329, 1.63766268101, 88.4635835116, 0.0378997698426, 0.0376995354891, 0.035826690495, 0.0226449500769, 0.0225928556174, 0.0147652262822, 0.0359667241573, 0.0359600931406, 0.0396729446948, 251666497, 0
1636558246787225753, 1465, 0, 160, 126, 0, 79, 180, 2183, 269466980, 33554432, 18205, 15990, 3, 56, 40.0068977118, 116.328097549, 50.336891314, -9.69999980927, 0.0162289654987, 0.599366234509, 0.00342102452493, -0.922223353046, 1.64000438568, 88.4664846806, 0.0378997698426, 0.0376995354891, 0.035826690495, 0.0226449500769, 0.0225928556174, 0.0147652262822, 0.0359667241573, 0.0359600931406, 0.0396729446948, 251666497, 0
1636558246787312380, 1465, 0, 160, 126, 0, 79, 180, 2183, 269467000, 33554432, 18205, 15990, 3, 56, 40.0068977137, 116.328097692, 50.3369727572, -9.69999980927, 0.0225325717732, 0.606286467773, 0.00298049462123, -0.920432246617, 1.64213281679, 88.4706712941, 0.0378997698426, 0.0376995354891, 0.035826690495, 0.0226449500769, 0.0225928556174, 0.0147652262822, 0.0359667241573, 0.0359600931406, 0.0396729446948, 251666497, 0
1636558246810958232, 1465, 0, 160, 126, 0, 79, 180, 2183, 269467020, 33554432, 18205, 15990, 3, 56, 40.0068977132, 116.328097838, 50.3370183203, -9.69999980927, 0.0140587143468, 0.619322398003, 0.00518176738908, -0.920695335085, 1.6449618309, 88.4733264017, 0.0572156682611, 0.0569438561797, 0.0484006814659, 0.0290171187371, 0.028970092535, 0.0174574684352, 0.0442384071648, 0.0442312434316, 0.0473119169474, 251666497, 0
1636558246811401062, 1465, 0, 160, 126, 0, 79, 180, 2183, 269467040, 33554432, 18205, 15990, 3, 56, 40.006897711, 116.328097986, 50.337141525, -9.69999980927, 0.0151251627264, 0.628652151418, -0.000416138097452, -0.921201996551, 1.64307314109, 88.4756548808, 0.0379435159266, 0.0377417653799, 0.0359120182693, 0.0227583367378, 0.0227106940001, 0.014800760895, 0.0420212335885, 0.0420260615647, 0.0473111011088, 251666497, 0
1636558246832990538, 1465, 0, 160, 126, 0, 76, 180, 2183, 269467060, 33554432, 18205, 15990, 3, 56, 40.0068977092, 116.328098135, 50.337277879, -9.69999980927, 0.0110876436085, 0.636884419268, 0.00563432205513, -0.923377274667, 1.64351565868, 88.4759235276, 0.0379435159266, 0.0377417653799, 0.0359120182693, 0.0227583367378, 0.0227106940001, 0.014800760895, 0.0420212335885, 0.0420260615647, 0.0473111011088, 251666497, 0
1636558246851976805, 1465, 0, 160, 126, 0, 76, 180, 2183, 269467080, 33554432, 18205, 15990, 3, 56, 40.0068977077, 116.328098286, 50.3373791594, -9.69999980927, 0.0134689844161, 0.646208009864, 0.000228101907916, -0.924976929951, 1.64209609606, 88.4767803463, 0.0379435159266, 0.0377417653799, 0.0359120182693, 0.0227583367378, 0.0227106940001, 0.014800760895, 0.0420212335885, 0.0420260615647, 0.0473111011088, 251666497, 0
1636558246870596005, 1465, 0, 160, 126, 0, 76, 180, 2183, 269467100, 33554432, 18205, 15990, 3, 56, 40.0068977041, 116.32809844, 50.3375420514, -9.69999980927, 0.0110781386832, 0.652583628128, 0.0063719297698, -0.927455314349, 1.64096349555, 88.4757870136, 0.0379435159266, 0.0377417653799, 0.0359120182693, 0.0227583367378, 0.0227106940001, 0.014800760895, 0.0420212335885, 0.0420260615647, 0.0473111011088, 251666497, 0
1636558246902550365, 1465, 0, 160, 126, 0, 76, 180, 2183, 269467120, 33554432, 18205, 15990, 3, 56, 40.0068977026, 116.328098595, 50.3376432331, -9.69999980927, 0.0140273957021, 0.66097705208, 0.00054647364252, -0.930833509393, 1.6406967575, 88.4768586177, 0.0379435159266, 0.0377417653799, 0.0359120182693, 0.0227583367378, 0.0227106940001, 0.014800760895, 0.0420212335885, 0.0420260615647, 0.0473111011088, 251666497, 0
1636558246912534603, 1465, 0, 160, 126, 0, 76, 180, 2183, 269467140, 33554432, 18205, 15990, 3, 56, 40.006897699, 116.328098752, 50.33785614, -9.69999980927, 0.012304214862, 0.668851574223, 0.00909981324139, -0.930194070072, 1.64156506671, 88.4784079077, 0.0379435159266, 0.0377417653799, 0.0359120182693, 0.0227583367378, 0.0227106940001, 0.014800760895, 0.0420212335885, 0.0420260615647, 0.0473111011088, 251666497, 0
1636558246932158209, 1465, 0, 160, 126, 0, 76, 180, 2183, 269467160, 33554432, 18205, 15990, 3, 56, 40.0068976977, 116.328098911, 50.3379761493, -9.69999980927, 0.0151388863927, 0.676242573676, 0.00133572392047, -0.932256785391, 1.63988045352, 88.4829447565, 0.0379435159266, 0.0377417653799, 0.0359120182693, 0.0227583367378, 0.0227106940001, 0.014800760895, 0.0420212335885, 0.0420260615647, 0.0473111011088, 251666497, 0
1636558246951106136, 1465, 0, 160, 126, 0, 76, 180, 2183, 269467180, 33554432, 18205, 15990, 3, 56, 40.0068976946, 116.328099071, 50.3382310942, -9.69999980927, 0.0159213673409, 0.682608547742, 0.0108630146203, -0.930158941329, 1.64193798558, 88.4891672081, 0.0379435159266, 0.0377417653799, 0.0359120182693, 0.0227583367378, 0.0227106940001, 0.014800760895, 0.0420212335885, 0.0420260615647, 0.0473111011088, 251666497, 0
1636558246971046499, 1465, 0, 160, 126, 0, 76, 180, 2183, 269467200, 33554432, 18205, 15990, 3, 56, 40.0068976936, 116.328099234, 50.3383482108, -9.69999980927, 0.0161964063548, 0.691179587694, 0.000668360000282, -0.929775328281, 1.64086567636, 88.4972619192, 0.0379435159266, 0.0377417653799, 0.0359120182693, 0.0227583367378, 0.0227106940001, 0.014800760895, 0.0420212335885, 0.0420260615647, 0.0473111011088, 251666497, 0
1636558246999126848, 1465, 0, 160, 126, 0, 76, 180, 2183, 269467220, 33554432, 18205, 15990, 3, 56, 40.0068976912, 116.328099398, 50.3386187078, -9.69999980927, 0.0189371477672, 0.698763092598, 0.0105735040108, -0.929159675993, 1.64258179198, 88.5063601682, 0.0379435159266, 0.0377417653799, 0.0359120182693, 0.0227583367378, 0.0227106940001, 0.014800760895, 0.0420212335885, 0.0420260615647, 0.0473111011088, 251666497, 0
1636558247012420896, 1465, 0, 160, 126, 0, 76, 180, 2183, 269467240, 33554432, 18205, 15990, 3, 56, 40.0068976898, 116.328099564, 50.3387286626, -9.69999980927, 0.0111274731968, 0.708565321112, 0.000306822163849, -0.927672241081, 1.64041978794, 88.5175060119, 0.0379435159266, 0.0377417653799, 0.0359120182693, 0.0227583367378, 0.0227106940001, 0.014800760895, 0.0420212335885, 0.0420260615647, 0.0473111011088, 251666497, 0
1636558247030786467, 1465, 0, 160, 126, 0, 76, 180, 2183, 269467260, 33554432, 18205, 15990, 3, 56, 40.0068976874, 116.328099731, 50.3389782272, -9.69999980927, 0.0170319872574, 0.712742491014, 0.00816503615277, -0.923511402577, 1.64055371734, 88.5274666733, 0.0379435159266, 0.0377417653799, 0.0359120182693, 0.0227583367378, 0.0227106940001, 0.014800760895, 0.0420212335885, 0.0420260615647, 0.0473111011088, 251666497, 0
1636558247052823810, 1465, 0, 160, 126, 0, 76, 180, 2183, 269467280, 33554432, 18205, 15990, 3, 56, 40.0068976842, 116.328099901, 50.3390986705, -9.69999980927, 0.00831574928388, 0.722866101871, 0.00213697468577, -0.922543976834, 1.64140822356, 88.5372884944, 0.0379435159266, 0.0377417653799, 0.0359120182693, 0.0227583367378, 0.0227106940001, 0.014800760895, 0.0420212335885, 0.0420260615647, 0.0473111011088, 251666497, 0
1636558247070320960, 1465, 0, 160, 126, 0, 76, 180, 2183, 269467300, 33554432, 18205, 15990, 3, 56, 40.0068976829, 116.328100072, 50.339255983, -9.69999980927, 0.0153914977419, 0.728291079775, 0.00508704846424, -0.92151111443, 1.64200479839, 88.5481956354, 0.0379435159266, 0.0377417653799, 0.0359120182693, 0.0227583367378, 0.0227106940001, 0.014800760895, 0.0420212335885, 0.0420260615647, 0.0473111011088, 251666497, 0
1636558247104039646, 1465, 0, 160, 126, 0, 76, 180, 2183, 269467320, 33554432, 18205, 15990, 3, 56, 40.0068976807, 116.328100245, 50.3392613651, -9.69999980927, 0.00559434408422, 0.737755381881, -0.00490649506122, -0.924022607297, 1.64352235549, 88.5571703967, 0.0379435159266, 0.0377417653799, 0.0359120182693, 0.0227583367378, 0.0227106940001, 0.014800760895, 0.0420212335885, 0.0420260615647, 0.0473111011088, 251666497, 0
1636558247110252030, 1465, 0, 160, 126, 0, 76, 180, 2183, 269467340, 33554432, 18205, 15990, 3, 56, 40.0068976777, 116.32810042, 50.3394227531, -9.69999980927, 0.0115511834767, 0.744351564064, 0.00194016634022, -0.924113919541, 1.64488108736, 88.5668332958, 0.0379435159266, 0.0377417653799, 0.0359120182693, 0.0227583367378, 0.0227106940001, 0.014800760895, 0.0420212335885, 0.0420260615647, 0.0473111011088, 251666497, 0
1636558247131085688, 1465, 0, 160, 126, 0, 76, 180, 2183, 269467360, 33554432, 18205, 15990, 3, 56, 40.0068976749, 116.328100597, 50.3393715871, -9.69999980927, 0.00239493062929, 0.752719793345, -0.00758316066589, -0.927039226248, 1.64893847873, 88.5762693314, 0.0379435159266, 0.0377417653799, 0.0359120182693, 0.0227583367378, 0.0227106940001, 0.014800760895, 0.0420212335885, 0.0420260615647, 0.0473111011088, 251666497, 0
1636558247151497863, 1465, 0, 160, 126, 0, 76, 180, 2183, 269467380, 33554432, 18205, 15990, 3, 56, 40.0068976715, 116.328100775, 50.3394568376, -9.69999980927, 0.00829849315256, 0.759930248982, -0.00287401650233, -0.924824843348, 1.65125297454, 88.5873114747, 0.0379435159266, 0.0377417653799, 0.0359120182693, 0.0227583367378, 0.0227106940001, 0.014800760895, 0.0420212335885, 0.0420260615647, 0.0473111011088, 251666497, 0
1636558247170997096, 1465, 0, 160, 126, 0, 76, 180, 2183, 269467400, 33554432, 18205, 15990, 3, 56, 40.0068976682, 116.328100955, 50.3393572513, -9.69999980927, -0.000599995975357, 0.767521046911, -0.00922883853085, -0.924427562818, 1.65731722035, 88.5983341307, 0.0379435159266, 0.0377417653799, 0.0359120182693, 0.0227583367378, 0.0227106940001, 0.014800760895, 0.0420212335885, 0.0420260615647, 0.0473111011088, 251666497, 0
1636558247201961269, 1465, 0, 160, 126, 0, 76, 180, 2183, 269467420, 33554432, 18205, 15990, 3, 56, 40.0068976647, 116.328101137, 50.3393973671, -9.69999980927, 0.0078419475621, 0.776822737151, -0.0046825746478, -0.919895590579, 1.66230686891, 88.6129130984, 0.0379435159266, 0.0377417653799, 0.0359120182693, 0.0227583367378, 0.0227106940001, 0.014800760895, 0.0420212335885, 0.0420260615647, 0.0473111011088, 251666497, 0
1636558247211111639, 1465, 0, 160, 126, 0, 76, 180, 2183, 269467440, 33554432, 18205, 15990, 3, 56, 40.0068976617, 116.328101321, 50.3393060509, -9.69999980927, 0.00203026214255, 0.785508903697, -0.0076407097812, -0.918516812842, 1.66778724258, 88.6285581262, 0.0379435159266, 0.0377417653799, 0.0359120182693, 0.0227583367378, 0.0227106940001, 0.014800760895, 0.0420212335885, 0.0420260615647, 0.0473111011088, 251666497, 0
1636558247232319058, 1465, 0, 160, 126, 0, 76, 180, 2183, 269467460, 33554432, 18205, 15990, 3, 56, 40.0068976592, 116.328101508, 50.3393593021, -9.69999980927, 0.0140894198539, 0.795021682271, -0.00436444288885, -0.91707035725, 1.67033826285, 88.647614491, 0.0379435159266, 0.0377417653799, 0.0359120182693, 0.0227583367378, 0.0227106940001, 0.014800760895, 0.0420212335885, 0.0420260615647, 0.0473111011088, 251666497, 0
1636558247251183629, 1465, 0, 160, 126, 0, 76, 180, 2183, 269467480, 33554432, 18205, 15990, 3, 56, 40.0068976574, 116.328101696, 50.3393002059, -9.69999980927, 0.00877796447798, 0.80256083765, -0.00555781312906, -0.919377011904, 1.6736609702, 88.6683078289, 0.0379435159266, 0.0377417653799, 0.0359120182693, 0.0227583367378, 0.0227106940001, 0.014800760895, 0.0420212335885, 0.0420260615647, 0.0473111011088, 251666497, 0
1636558247271489081, 1465, 0, 160, 126, 0, 76, 180, 2183, 269467500, 33554432, 18205, 15990, 3, 56, 40.006897656, 116.328101886, 50.3393486859, -9.69999980927, 0.0194274530434, 0.811631764352, -0.00498390594533, -0.923189081128, 1.67507166648, 88.6922365582, 0.0379435159266, 0.0377417653799, 0.0359120182693, 0.0227583367378, 0.0227106940001, 0.014800760895, 0.0420212335885, 0.0420260615647, 0.0473111011088, 251666497, 0
1636558247299260751, 1465, 0, 160, 126, 0, 76, 180, 2183, 269467520, 33554432, 18205, 15990, 3, 56, 40.0068976549, 116.328102078, 50.3393268436, -9.69999980927, 0.0119116772973, 0.820962899175, -0.0029584779015, -0.929122423452, 1.67826844955, 88.7157021372, 0.0379435159266, 0.0377417653799, 0.0359120182693, 0.0227583367378, 0.0227106940001, 0.014800760895, 0.0420212335885, 0.0420260615647, 0.0473111011088, 251666497, 0
1636558247310641070, 1465, 0, 160, 126, 0, 76, 180, 2183, 269467540, 33554432, 18205, 15990, 3, 56, 40.0068976535, 116.328102272, 50.33938515, -9.69999980927, 0.0170274270602, 0.827373922806, -0.00481211177482, -0.932153157131, 1.67838324499, 88.7426722324, 0.0379435159266, 0.0377417653799, 0.0359120182693, 0.0227583367378, 0.0227106940001, 0.014800760895, 0.0420212335885, 0.0420260615647, 0.0473111011088, 251666497, 0
1636558247332414551, 1465, 0, 160, 126, 0, 76, 180, 2183, 269467560, 33554432, 18205, 15990, 3, 56, 40.0068976523, 116.328102468, 50.339384824, -9.69999980927, 0.0105840898698, 0.835676109209, -0.00185758750924, -0.936467214811, 1.6817758314, 88.7688038835, 0.0379435159266, 0.0377417653799, 0.0359120182693, 0.0227583367378, 0.0227106940001, 0.014800760895, 0.0420212335885, 0.0420260615647, 0.0473111011088, 251666497, 0
1636558247350830064, 1465, 0, 160, 126, 0, 76, 180, 2183, 269467580, 33554432, 18205, 15990, 3, 56, 40.0068976506, 116.328102667, 50.3394701583, -9.69999980927, 0.01399241166, 0.845032529262, -0.00269744618853, -0.939964474569, 1.68077301663, 88.7979545154, 0.0379435159266, 0.0377417653799, 0.0359120182693, 0.0227583367378, 0.0227106940001, 0.014800760895, 0.0420212335885, 0.0420260615647, 0.0473111011088, 251666497, 0
