time, .header.id, .header.msg_type, .header.port_addr, .header.length, .header.sequence, .header.idle_time, .header.time_status, .header.gps_week, .header.gps_week_seconds, .header.receiver_status, .header.reserved, .header.software_version, .ins_status, .position_type, .latitude, .longitude, .altitude, .undulation, .north_velocity, .east_velocity, .up_velocity, .roll, .pitch, .azimuth, .latitude_std, .longitude_std, .altitude_std, .north_velocity_std, .east_velocity_std, .up_velocity_std, .roll_std, .pitch_std, .azimuth_std, .extended_status, .seconds_since_update
1.63715E+18,1465,0,160,126,0,74,180,2183,269586640,33554432,18205,15990,3,56,40.00672833,116.3282205,50.36919578,-9.699999809,0.003183677,0.005339492,-0.00375029,-0.746454262,1.799868342,177.8722815,0.018928634,0.018837875,0.019446053,0.001395815,0.001395811,0.00113337,0.015182438,0.015269513,0.107358158,251658309,0
1.63715E+18,1465,0,160,126,0,74,180,2183,269586660,33554432,18205,15990,3,56,40.00672833,116.3282205,50.36915968,-9.699999809,0.001957652,0.005600799,-0.002360856,-0.744556942,1.799397674,177.8723303,0.018928634,0.018837875,0.019446053,0.001395815,0.001395811,0.00113337,0.015182438,0.015269513,0.107358158,251658309,0
1.63715E+18,1465,0,160,126,0,74,180,2183,269586680,33554432,18205,15990,3,56,40.00672833,116.3282205,50.36907662,-9.699999809,0.003086647,0.005261506,-0.004299087,-0.744864462,1.799858239,177.8731502,0.018928634,0.018837875,0.019446053,0.001395815,0.001395811,0.00113337,0.015182438,0.015269513,0.107358158,251658309,0
1.63715E+18,1465,0,160,126,0,74,180,2183,269586700,33554432,18205,15990,3,56,40.00672833,116.3282205,50.36905446,-9.699999809,0.001545629,0.004690113,-0.001253391,-0.744255525,1.799507474,177.8726687,0.018928634,0.018837875,0.019446053,0.001395815,0.001395811,0.00113337,0.015182438,0.015269513,0.107358158,251658309,0
1.63715E+18,1465,0,160,126,0,74,180,2183,269586720,33554432,18205,15990,3,56,40.00672833,116.3282205,50.36898141,-9.699999809,0.003469465,0.003344428,-0.003946426,-0.744457773,1.798679132,177.8736377,0.018928634,0.018837875,0.019446053,0.001395815,0.001395811,0.00113337,0.015182438,0.015269513,0.107358158,251658309,0
1.63715E+18,1465,0,160,126,0,74,180,2183,269586740,33554432,18205,15990,3,56,40.00672833,116.3282205,50.36894809,-9.699999809,0.003064785,0.005283821,-0.002029585,-0.74306434,1.799225123,177.8731132,0.018928634,0.018837875,0.019446053,0.001395815,0.001395811,0.00113337,0.015182438,0.015269513,0.107358158,251658309,0
1.63715E+18,1465,0,160,126,0,74,180,2183,269586760,33554432,18205,15990,3,56,40.00672833,116.3282205,50.36887652,-9.699999809,0.002362477,0.002965524,-0.003665521,-0.744347879,1.799302401,177.8732027,0.018928634,0.018837875,0.019446053,0.001395815,0.001395811,0.00113337,0.015182438,0.015269513,0.107358158,251658309,0
1.63715E+18,1465,0,160,126,0,74,180,2183,269586780,33554432,18205,15990,3,56,40.00672833,116.3282205,50.3688466,-9.699999809,0.002536231,0.004236246,-0.00158002,-0.742312305,1.799200971,177.8721926,0.018928634,0.018837875,0.019446053,0.001395815,0.001395811,0.00113337,0.015182438,0.015269513,0.107358158,251658309,0
1.63715E+18,1465,0,160,126,0,74,180,2183,269586800,33554432,18205,15990,3,56,40.00672833,116.3282205,50.3687633,-9.699999809,0.005283632,0.005211286,-0.004444129,-0.743938554,1.799769883,177.8722368,0.018928634,0.018837875,0.019446053,0.001395815,0.001395811,0.00113337,0.015182438,0.015269513,0.107358158,251658309,0
1.63715E+18,1465,0,160,126,0,74,180,2183,269586820,33554432,18205,15990,3,56,40.00672833,116.3282205,50.36873238,-9.699999809,0.002673895,0.003491748,-0.001554869,-0.74158018,1.800678617,177.8722138,0.018928634,0.018837875,0.019446053,0.001395815,0.001395811,0.00113337,0.015182438,0.015269513,0.107358158,251658309,0
1.63715E+18,1465,0,160,126,0,74,180,2183,269586840,33554432,18205,15990,3,56,40.00672833,116.3282205,50.36864723,-9.699999809,0.002417497,0.006136226,-0.004546638,-0.742440876,1.799635132,177.872331,0.018928634,0.018837875,0.019446053,0.001395815,0.001395811,0.00113337,0.015182438,0.015269513,0.107358158,251658309,0
1.63715E+18,1465,0,160,126,0,74,180,2183,269586860,33554432,18205,15990,3,56,40.00672834,116.3282205,50.36861474,-9.699999809,0.003661855,0.004235058,-0.001660931,-0.742407191,1.799838787,177.8717493,0.018928634,0.018837875,0.019446053,0.001395815,0.001395811,0.00113337,0.015182438,0.015269513,0.107358158,251658309,0
1.63715E+18,1465,0,160,126,0,74,180,2183,269586880,33554432,18205,15990,3,56,40.00672834,116.3282205,50.3685214,-9.699999809,0.00513816,0.005629454,-0.004904517,-0.74222215,1.799585281,177.8720299,0.018928634,0.018837875,0.019446053,0.001395815,0.001395811,0.00113337,0.015182438,0.015269513,0.107358158,251658309,0
1.63715E+18,1465,0,160,126,0,74,180,2183,269586900,33554432,18205,15990,3,56,40.00672834,116.3282205,50.36848344,-9.699999809,0.002894237,0.006387806,-0.001777643,-0.742533063,1.800945607,177.8724505,0.018928634,0.018837875,0.019446053,0.001395815,0.001395811,0.00113337,0.015182438,0.015269513,0.107358158,251658309,0
1.63715E+18,1465,0,160,126,0,74,180,2183,269586920,33554432,18205,15990,3,56,40.00672834,116.3282205,50.3684024,-9.699999809,0.002421625,0.006058469,-0.003994893,-0.743949311,1.800461559,177.8729796,0.018928634,0.018837875,0.019446053,0.001395815,0.001395811,0.00113337,0.015182438,0.015269513,0.107358158,251658309,0
1.63715E+18,1465,0,160,126,0,74,180,2183,269586940,33554432,18205,15990,3,56,40.00672834,116.3282205,50.36837312,-9.699999809,0.002930597,0.005583599,-0.00118501,-0.742024994,1.800243842,177.8728327,0.018928634,0.018837875,0.019446053,0.001395815,0.001395811,0.00113337,0.015182438,0.015269513,0.107358158,251658309,0
1.63715E+18,1465,0,160,126,0,74,180,2183,269586960,33554432,18205,15990,3,56,40.00672834,116.3282205,50.36829171,-9.699999809,0.003409513,0.007174708,-0.004279221,-0.744329989,1.800313291,177.87249,0.018928634,0.018837875,0.019446053,0.001395815,0.001395811,0.00113337,0.015182438,0.015269513,0.107358158,251658309,0
1.63715E+18,1465,0,160,126,0,74,180,2183,269586980,33554432,18205,15990,3,56,40.00672834,116.3282205,50.36827165,-9.699999809,0.002417455,0.003584324,-0.000636722,-0.743157363,1.800020735,177.8725088,0.018928634,0.018837875,0.019446053,0.001395815,0.001395811,0.00113337,0.015182438,0.015269513,0.107358158,251658309,0
1.63715E+18,1465,0,160,126,0,74,180,2183,269587000,33554432,18205,15990,3,56,40.00672834,116.3282205,50.36819231,-9.699999809,0.003319062,0.00744907,-0.004103024,-0.743788462,1.801621068,177.8721145,0.018928634,0.018837875,0.019446053,0.001395815,0.001395811,0.00113337,0.015182438,0.015269513,0.107358158,251658309,0
1.63715E+18,1465,0,160,126,0,74,180,2183,269587020,33554432,18205,15990,3,56,40.00672834,116.3282205,50.36817215,-9.699999809,0.001766588,0.00393336,-0.000550937,-0.744905373,1.800565867,177.8718103,0.021090245,0.021008369,0.021553881,0.009050792,0.009050796,0.008191396,0.023290766,0.023348175,0.108935185,251658309,0
1.63715E+18,1465,0,160,126,0,74,180,2183,269587040,33554432,18205,15990,3,56,40.00672834,116.3282205,50.36814859,-9.699999809,0.003823867,0.004534762,-0.003946106,-0.744923128,1.800199002,177.8719888,0.018213315,0.018127937,0.018740598,0.001395832,0.001395831,0.001129223,0.015215115,0.015301605,0.106414549,251658309,0
1.63715E+18,1465,0,160,126,0,74,180,2183,269587060,33554432,18205,15990,3,56,40.00672834,116.3282205,50.36818462,-9.699999809,0.004013838,0.004026556,-0.001041112,-0.744727263,1.800851058,177.8716137,0.018213315,0.018127937,0.018740598,0.001395832,0.001395831,0.001129223,0.015215115,0.015301605,0.106414549,251658309,0
1.63715E+18,1465,0,160,126,0,76,180,2183,269587080,33554432,18205,15990,3,56,40.00672834,116.3282205,50.3681565,-9.699999809,0.004091722,0.005015482,-0.004432021,-0.745421855,1.801229182,177.8720437,0.018213315,0.018127937,0.018740598,0.001395832,0.001395831,0.001129223,0.015215115,0.015301605,0.106414549,251658309,0
1.63715E+18,1465,0,160,126,0,76,180,2183,269587100,33554432,18205,15990,3,56,40.00672834,116.3282205,50.36819361,-9.699999809,0.002542161,0.002542073,-0.00097472,-0.744394335,1.800899775,177.8719582,0.018213315,0.018127937,0.018740598,0.001395832,0.001395831,0.001129223,0.015215115,0.015301605,0.106414549,251658309,0
1.63715E+18,1465,0,160,126,0,76,180,2183,269587120,33554432,18205,15990,3,56,40.00672834,116.3282205,50.36816079,-9.699999809,0.005138154,0.006631214,-0.004744741,-0.745246276,1.801229918,177.8718394,0.018213315,0.018127937,0.018740598,0.001395832,0.001395831,0.001129223,0.015215115,0.015301605,0.106414549,251658309,0
1.63715E+18,1465,0,160,126,0,76,180,2183,269587140,33554432,18205,15990,3,56,40.00672834,116.3282205,50.36820448,-9.699999809,0.00427261,0.000804598,-0.000663377,-0.744700224,1.801976984,177.8719868,0.018213315,0.018127937,0.018740598,0.001395832,0.001395831,0.001129223,0.015215115,0.015301605,0.106414549,251658309,0
1.63715E+18,1465,0,160,126,0,76,180,2183,269587160,33554432,18205,15990,3,56,40.00672834,116.3282205,50.36818738,-9.699999809,0.004804164,0.005954759,-0.003641048,-0.743831662,1.802335855,177.8726252,0.018213315,0.018127937,0.018740598,0.001395832,0.001395831,0.001129223,0.015215115,0.015301605,0.106414549,251658309,0
1.63715E+18,1465,0,160,126,0,76,180,2183,269587180,33554432,18205,15990,3,56,40.00672834,116.3282205,50.36822756,-9.699999809,0.002954277,0.001418292,-0.000470796,-0.744382651,1.802471834,177.8719098,0.018213315,0.018127937,0.018740598,0.001395832,0.001395831,0.001129223,0.015215115,0.015301605,0.106414549,251658309,0
1.63715E+18,1465,0,160,126,0,76,180,2183,269587200,33554432,18205,15990,3,56,40.00672834,116.3282205,50.36821804,-9.699999809,0.004708274,0.004871522,-0.003042318,-0.743595526,1.801083995,177.8723404,0.018213315,0.018127937,0.018740598,0.001395832,0.001395831,0.001129223,0.015215115,0.015301605,0.106414549,251658309,0
1.63715E+18,1465,0,160,126,0,76,180,2183,269587220,33554432,18205,15990,3,56,40.00672834,116.3282205,50.36826293,-9.699999809,0.004232124,0.002782236,4.82E-05,-0.743757479,1.801799672,177.8726824,0.018213315,0.018127937,0.018740598,0.001395832,0.001395831,0.001129223,0.015215115,0.015301605,0.106414549,251658309,0
1.63715E+18,1465,0,160,126,0,76,180,2183,269587240,33554432,18205,15990,3,56,40.00672834,116.3282205,50.36825557,-9.699999809,0.00423334,0.006572991,-0.003018844,-0.744676616,1.802722353,177.8728035,0.018213315,0.018127937,0.018740598,0.001395832,0.001395831,0.001129223,0.015215115,0.015301605,0.106414549,251658309,0
1.63715E+18,1465,0,160,126,0,76,180,2183,269587260,33554432,18205,15990,3,56,40.00672834,116.3282205,50.36829942,-9.699999809,0.003608532,0.002120174,-0.000117532,-0.744225249,1.801818279,177.8722028,0.018213315,0.018127937,0.018740598,0.001395832,0.001395831,0.001129223,0.015215115,0.015301605,0.106414549,251658309,0
1.63715E+18,1465,0,160,126,0,76,180,2183,269587280,33554432,18205,15990,3,56,40.00672834,116.3282205,50.36827914,-9.699999809,0.005066582,0.008034964,-0.003896227,-0.745350912,1.80118634,177.8714412,0.018213315,0.018127937,0.018740598,0.001395832,0.001395831,0.001129223,0.015215115,0.015301605,0.106414549,251658309,0
1.63715E+18,1465,0,160,126,0,76,180,2183,269587300,33554432,18205,15990,3,56,40.00672834,116.3282204,50.36830719,-9.699999809,0.004447436,0.000745159,-0.000893171,-0.745528103,1.802247733,177.8717345,0.018213315,0.018127937,0.018740598,0.001395832,0.001395831,0.001129223,0.015215115,0.015301605,0.106414549,251658309,0
1.63715E+18,1465,0,160,126,0,76,180,2183,269587320,33554432,18205,15990,3,56,40.00672834,116.3282205,50.36828657,-9.699999809,0.003805537,0.006920584,-0.003685142,-0.745409459,1.802889465,177.8713876,0.018213315,0.018127937,0.018740598,0.001395832,0.001395831,0.001129223,0.015215115,0.015301605,0.106414549,251658309,0
1.63715E+18,1465,0,160,126,0,76,180,2183,269587340,33554432,18205,15990,3,56,40.00672834,116.3282204,50.36829907,-9.699999809,0.003559832,0.002196922,-0.001746937,-0.746804125,1.802816781,177.8709526,0.018213315,0.018127937,0.018740598,0.001395832,0.001395831,0.001129223,0.015215115,0.015301605,0.106414549,251658309,0
1.63715E+18,1465,0,160,126,0,76,180,2183,269587360,33554432,18205,15990,3,56,40.00672834,116.3282205,50.36826363,-9.699999809,0.003598347,0.005790605,-0.004370178,-0.746189165,1.803597337,177.8701712,0.018213315,0.018127937,0.018740598,0.001395832,0.001395831,0.001129223,0.015215115,0.015301605,0.106414549,251658309,0
1.63715E+18,1465,0,160,126,0,76,180,2183,269587380,33554432,18205,15990,3,56,40.00672834,116.3282204,50.3682811,-9.699999809,0.003369698,0.003444766,-0.000694989,-0.746793079,1.804041896,177.8706458,0.018213315,0.018127937,0.018740598,0.001395832,0.001395831,0.001129223,0.015215115,0.015301605,0.106414549,251658309,0
1.63715E+18,1465,0,160,126,0,76,180,2183,269587400,33554432,18205,15990,3,56,40.00672834,116.3282205,50.36825151,-9.699999809,0.002308411,0.008387719,-0.003759268,-0.74857807,1.80605188,177.8704765,0.018213315,0.018127937,0.018740598,0.001395832,0.001395831,0.001129223,0.015215115,0.015301605,0.106414549,251658309,0
1.63715E+18,1465,0,160,126,0,76,180,2183,269587420,33554432,18205,15990,3,56,40.00672834,116.3282205,50.36828825,-9.699999809,-0.000217295,0.003563225,0.000528611,-0.748851094,1.806130283,177.8704221,0.018213315,0.018127937,0.018740598,0.001395832,0.001395831,0.001129223,0.015215115,0.015301605,0.106414549,251658309,0
1.63715E+18,1465,0,160,126,0,76,180,2183,269587440,33554432,18205,15990,3,56,40.00672834,116.3282205,50.36823452,-9.699999809,-0.001606773,0.010649027,-0.005939566,-0.751392264,1.80647866,177.8709426,0.018213315,0.018127937,0.018740598,0.001395832,0.001395831,0.001129223,0.015215115,0.015301605,0.106414549,251658309,0
1.63715E+18,1465,0,160,126,0,76,180,2183,269587460,33554432,18205,15990,3,56,40.00672834,116.3282205,50.36824377,-9.699999809,-0.003169444,0.003769837,-0.001290292,-0.753385291,1.808817561,177.8707156,0.018213315,0.018127937,0.018740598,0.001395832,0.001395831,0.001129223,0.015215115,0.015301605,0.106414549,251658309,0
1.63715E+18,1465,0,160,126,0,76,180,2183,269587480,33554432,18205,15990,3,56,40.00672833,116.3282205,50.36813196,-9.699999809,-0.006443949,0.008885849,-0.009440075,-0.755578118,1.811352914,177.8716281,0.018213315,0.018127937,0.018740598,0.001395832,0.001395831,0.001129223,0.015215115,0.015301605,0.106414549,251658309,0
1.63715E+18,1465,0,160,126,0,76,180,2183,269587500,33554432,18205,15990,3,56,40.00672833,116.3282205,50.36808707,-9.699999809,-0.011884469,0.006360177,-0.004319791,-0.757830337,1.817344666,177.8704424,0.018213315,0.018127937,0.018740598,0.001395832,0.001395831,0.001129223,0.015215115,0.015301605,0.106414549,251658309,0
1.63715E+18,1465,0,160,126,0,76,180,2183,269587520,33554432,18205,15990,3,56,40.00672833,116.3282205,50.36792422,-9.699999809,-0.016314967,0.005828779,-0.011591078,-0.761086844,1.822143263,177.8704256,0.018213315,0.018127937,0.018740598,0.001395832,0.001395831,0.001129223,0.015215115,0.015301605,0.106414549,251658309,0
1.63715E+18,1465,0,160,126,0,76,180,2183,269587540,33554432,18205,15990,3,56,40.00672832,116.3282205,50.36782969,-9.699999809,-0.021452165,0.006501851,-0.006986173,-0.760844491,1.829676935,177.8695636,0.018213315,0.018127937,0.018740598,0.001395832,0.001395831,0.001129223,0.015215115,0.015301605,0.106414549,251658309,0
1.63715E+18,1465,0,160,126,0,76,180,2183,269587560,33554432,18205,15990,3,56,40.00672832,116.3282205,50.36761201,-9.699999809,-0.02652316,0.004359776,-0.014152781,-0.763648634,1.836227683,177.8692865,0.018213315,0.018127937,0.018740598,0.001395832,0.001395831,0.001129223,0.015215115,0.015301605,0.106414549,251658309,0
1.63715E+18,1465,0,160,126,0,76,180,2183,269587580,33554432,18205,15990,3,56,40.00672831,116.3282205,50.36749267,-9.699999809,-0.034455886,0.005937328,-0.007942632,-0.762162614,1.84464691,177.8683951,0.018213315,0.018127937,0.018740598,0.001395832,0.001395831,0.001129223,0.015215115,0.015301605,0.106414549,251658309,0
1.63715E+18,1465,0,160,126,0,76,180,2183,269587600,33554432,18205,15990,3,56,40.00672831,116.3282205,50.36724388,-9.699999809,-0.041914645,0.003364493,-0.01545544,-0.765270587,1.851772524,177.8676512,0.018213315,0.018127937,0.018740598,0.001395832,0.001395831,0.001129223,0.015215115,0.015301605,0.106414549,251658309,0
1.63715E+18,1465,0,160,126,0,76,180,2183,269587620,33554432,18205,15990,3,56,40.0067283,116.3282205,50.36711696,-9.699999809,-0.049838223,0.006395867,-0.00840467,-0.764854606,1.860755207,177.8673826,0.018213315,0.018127937,0.018740598,0.001395832,0.001395831,0.001129223,0.015215115,0.015301605,0.106414549,251658309,0
1.63715E+18,1465,0,160,126,0,76,180,2183,269587640,33554432,18205,15990,3,56,40.00672829,116.3282205,50.36685741,-9.699999809,-0.057929402,0.001964292,-0.01562251,-0.767633276,1.869344383,177.8663812,0.018213315,0.018127937,0.018740598,0.001395832,0.001395831,0.001129223,0.015215115,0.015301605,0.106414549,251658309,0
1.63715E+18,1465,0,160,126,0,76,180,2183,269587660,33554432,18205,15990,3,56,40.00672827,116.3282205,50.3667284,-9.699999809,-0.06653714,0.007503581,-0.008946164,-0.766617739,1.878099503,177.8659332,0.018213315,0.018127937,0.018740598,0.001395832,0.001395831,0.001129223,0.015215115,0.015301605,0.106414549,251658309,0
1.63715E+18,1465,0,160,126,0,76,180,2183,269587680,33554432,18205,15990,3,56,40.00672826,116.3282205,50.36649357,-9.699999809,-0.076538822,0.000999098,-0.01340573,-0.768652987,1.886686864,177.8657708,0.018213315,0.018127937,0.018740598,0.001395832,0.001395831,0.001129223,0.015215115,0.015301605,0.106414549,251658309,0
1.63715E+18,1465,0,160,126,0,76,180,2183,269587700,33554432,18205,15990,3,56,40.00672825,116.3282205,50.36639511,-9.699999809,-0.083587901,0.008526369,-0.007507892,-0.7670454,1.893769893,177.8667886,0.018213315,0.018127937,0.018740598,0.001395832,0.001395831,0.001129223,0.015215115,0.015301605,0.106414549,251658309,0
1.63715E+18,1465,0,160,126,0,76,180,2183,269587720,33554432,18205,15990,3,56,40.00672823,116.3282205,50.36620706,-9.699999809,-0.095665331,0.002126829,-0.010668858,-0.769469076,1.901535255,177.8664192,0.018213315,0.018127937,0.018740598,0.001395832,0.001395831,0.001129223,0.015215115,0.015301605,0.106414549,251658309,0
1.63715E+18,1465,0,160,126,0,76,180,2183,269587740,33554432,18205,15990,3,56,40.00672821,116.3282205,50.36616592,-9.699999809,-0.103296124,0.007385381,-0.004544744,-0.767394531,1.905112257,177.8674062,0.018213315,0.018127937,0.018740598,0.001395832,0.001395831,0.001129223,0.015215115,0.015301605,0.106414549,251658309,0
1.63715E+18,1465,0,160,126,0,76,180,2183,269587760,33554432,18205,15990,3,56,40.00672819,116.3282205,50.36603955,-9.699999809,-0.114716922,0.003321436,-0.007418125,-0.769803053,1.911150433,177.8677893,0.018213315,0.018127937,0.018740598,0.001395832,0.001395831,0.001129223,0.015215115,0.015301605,0.106414549,251658309,0
1.63715E+18,1465,0,160,126,0,76,180,2183,269587780,33554432,18205,15990,3,56,40.00672817,116.3282205,50.36606357,-9.699999809,-0.124005155,0.005911114,-0.001433166,-0.767904658,1.913390125,177.8692372,0.018213315,0.018127937,0.018740598,0.001395832,0.001395831,0.001129223,0.015215115,0.015301605,0.106414549,251658309,0
1.63715E+18,1465,0,160,126,0,76,180,2183,269587800,33554432,18205,15990,3,56,40.00672815,116.3282205,50.36600688,-9.699999809,-0.135928775,0.002049224,-0.003577526,-0.769537468,1.918374755,177.869449,0.018213315,0.018127937,0.018740598,0.001395832,0.001395831,0.001129223,0.015215115,0.015301605,0.106414549,251658309,0
1.63715E+18,1465,0,160,126,0,76,180,2183,269587820,33554432,18205,15990,3,56,40.00672812,116.3282205,50.36608986,-9.699999809,-0.14492038,0.005737536,0.002183636,-0.768319209,1.91999509,177.8697112,0.018213315,0.018127937,0.018740598,0.001395832,0.001395831,0.001129223,0.015215115,0.015301605,0.106414549,251658309,0
1.63715E+18,1465,0,160,126,0,76,180,2183,269587840,33554432,18205,15990,3,56,40.00672809,116.3282205,50.36610567,-9.699999809,-0.156088614,0.000397567,0.00020588,-0.769105403,1.921578079,177.8693152,0.018213315,0.018127937,0.018740598,0.001395832,0.001395831,0.001129223,0.015215115,0.015301605,0.106414549,251658309,0
1.63715E+18,1465,0,160,126,0,76,180,2183,269587860,33554432,18205,15990,3,56,40.00672806,116.3282205,50.36622714,-9.699999809,-0.165108119,0.003490313,0.003685588,-0.764952619,1.92184371,177.8691014,0.018213315,0.018127937,0.018740598,0.001395832,0.001395831,0.001129223,0.015215115,0.015301605,0.106414549,251658309,0
1.63715E+18,1465,0,160,126,0,76,180,2183,269587880,33554432,18205,15990,3,56,40.00672803,116.3282205,50.36625893,-9.699999809,-0.17733139,-2.48E-05,0.000220325,-0.765620364,1.922603011,177.8688484,0.018213315,0.018127937,0.018740598,0.001395832,0.001395831,0.001129223,0.015215115,0.015301605,0.106414549,251658309,0
1.63715E+18,1465,0,160,126,0,76,180,2183,269587900,33554432,18205,15990,3,56,40.006728,116.3282205,50.36640548,-9.699999809,-0.186348996,0.001473725,0.005150076,-0.761296433,1.923192233,177.8685468,0.018213315,0.018127937,0.018740598,0.001395832,0.001395831,0.001129223,0.015215115,0.015301605,0.106414549,251658309,0
1.63715E+18,1465,0,160,126,0,76,180,2183,269587920,33554432,18205,15990,3,56,40.00672796,116.3282205,50.36646769,-9.699999809,-0.199743594,-4.20E-05,0.001850009,-0.759884718,1.92449867,177.8674985,0.018213315,0.018127937,0.018740598,0.001395832,0.001395831,0.001129223,0.015215115,0.015301605,0.106414549,251658309,0
1.63715E+18,1465,0,160,126,0,76,180,2183,269587940,33554432,18205,15990,3,56,40.00672793,116.3282205,50.36663541,-9.699999809,-0.208465994,0.001611207,0.006315698,-0.75585166,1.923522659,177.8674434,0.018213315,0.018127937,0.018740598,0.001395832,0.001395831,0.001129223,0.015215115,0.015301605,0.106414549,251658309,0
1.63715E+18,1465,0,160,126,0,76,180,2183,269587960,33554432,18205,15990,3,56,40.00672789,116.3282205,50.3667133,-9.699999809,-0.220235321,-0.000832096,0.002489168,-0.753712307,1.922931483,177.8671395,0.018213315,0.018127937,0.018740598,0.001395832,0.001395831,0.001129223,0.015215115,0.015301605,0.106414549,251658309,0
1.63715E+18,1465,0,160,126,0,76,180,2183,269587980,33554432,18205,15990,3,56,40.00672785,116.3282205,50.36687283,-9.699999809,-0.230229077,0.002798544,0.00598533,-0.750449107,1.921815601,177.8672685,0.018213315,0.018127937,0.018740598,0.001395832,0.001395831,0.001129223,0.015215115,0.015301605,0.106414549,251658309,0
1.63715E+18,1465,0,160,126,0,76,180,2183,269588000,33554432,18205,15990,3,56,40.0067278,116.3282205,50.36694922,-9.699999809,-0.243092472,-0.000308014,0.002535295,-0.749232586,1.921822673,177.8666143,0.018213315,0.018127937,0.018740598,0.001395832,0.001395831,0.001129223,0.015215115,0.015301605,0.106414549,251658309,0
1.63715E+18,1465,0,160,126,0,76,180,2183,269588020,33554432,18205,15990,3,56,40.00672776,116.3282205,50.36710784,-9.699999809,-0.25204038,0.004914768,0.006423807,-0.744797819,1.920927793,177.8677664,0.020621451,0.020545747,0.02108801,0.009511461,0.009516237,0.008683532,0.02331291,0.023368208,0.108007044,251658309,0
1.63715E+18,1465,0,160,126,0,76,180,2183,269588040,33554432,18205,15990,3,56,40.00672771,116.3282205,50.36716114,-9.699999809,-0.262860378,0.002116258,0.001593072,-0.744755627,1.922534209,177.8684631,0.019110406,0.01903398,0.01962295,0.009413451,0.009416257,0.008588701,0.023312822,0.023368204,0.108006775,251658305,0
1.63715E+18,1465,0,160,126,0,71,180,2183,269588060,33554432,18205,15990,3,56,40.00672766,116.3282205,50.36730924,-9.699999809,-0.273916979,0.004893862,0.007070731,-0.740685152,1.920671607,177.8698602,0.019110406,0.01903398,0.01962295,0.009413451,0.009416257,0.008588701,0.023312822,0.023368204,0.108006775,251658305,0
1.63715E+18,1465,0,160,126,0,71,180,2183,269588080,33554432,18205,15990,3,56,40.00672761,116.3282205,50.3673868,-9.699999809,-0.283171933,0.002075165,0.003690954,-0.739321873,1.920141093,177.87009,0.019110406,0.01903398,0.01962295,0.009413451,0.009416257,0.008588701,0.023312822,0.023368204,0.108006775,251658305,0
1.63715E+18,1465,0,160,126,0,71,180,2183,269588100,33554432,18205,15990,3,56,40.00672756,116.3282205,50.36757855,-9.699999809,-0.2945485,0.005417732,0.009740837,-0.736738099,1.917182968,177.8712481,0.019110406,0.01903398,0.01962295,0.009413451,0.009416257,0.008588701,0.023312822,0.023368204,0.108006775,251658305,0
1.63715E+18,1465,0,160,126,0,71,180,2183,269588120,33554432,18205,15990,3,56,40.00672751,116.3282205,50.36770224,-9.699999809,-0.30365427,0.000189043,0.005931725,-0.736124967,1.914261068,177.8718065,0.019110406,0.01903398,0.01962295,0.009413451,0.009416257,0.008588701,0.023312822,0.023368204,0.108006775,251658305,0
1.63715E+18,1465,0,160,126,0,71,180,2183,269588140,33554432,18205,15990,3,56,40.00672745,116.3282205,50.36792158,-9.699999809,-0.311100208,0.005849387,0.010420159,-0.733395609,1.908968464,177.8730658,0.019110406,0.01903398,0.01962295,0.009413451,0.009416257,0.008588701,0.023312822,0.023368204,0.108006775,251658305,0
1.63715E+18,1465,0,160,126,0,71,180,2183,269588160,33554432,18205,15990,3,56,40.0067274,116.3282205,50.36805734,-9.699999809,-0.321581294,-0.002657363,0.006367935,-0.731927041,1.904852386,177.8725398,0.019110406,0.01903398,0.01962295,0.009413451,0.009416257,0.008588701,0.023312822,0.023368204,0.108006775,251658305,0
1.63715E+18,1465,0,160,126,0,71,180,2183,269588180,33554432,18205,15990,3,56,40.00672734,116.3282205,50.36827024,-9.699999809,-0.328208672,0.004274903,0.008991621,-0.726678349,1.899653657,177.8730708,0.019110406,0.01903398,0.01962295,0.009413451,0.009416257,0.008588701,0.023312822,0.023368204,0.108006775,251658305,0
1.63715E+18,1465,0,160,126,0,71,180,2183,269588200,33554432,18205,15990,3,56,40.00672728,116.3282205,50.36837363,-9.699999809,-0.338878542,-0.002244711,0.004372247,-0.72513642,1.897026032,177.8728597,0.019110406,0.01903398,0.01962295,0.009413451,0.009416257,0.008588701,0.023312822,0.023368204,0.108006775,251658305,0
1.63715E+18,1465,0,160,126,0,71,180,2183,269588220,33554432,18205,15990,3,56,40.00672722,116.3282205,50.36855988,-9.699999809,-0.346260097,0.003235563,0.007184555,-0.720040872,1.893467914,177.8742283,0.019110406,0.01903398,0.01962295,0.009413451,0.009416257,0.008588701,0.023312822,0.023368204,0.108006775,251658305,0
1.63715E+18,1465,0,160,126,0,71,180,2183,269588240,33554432,18205,15990,3,56,40.00672715,116.3282205,50.36862131,-9.699999809,-0.355983917,-0.000549965,0.002096153,-0.717466813,1.890896671,177.8737529,0.019110406,0.01903398,0.01962295,0.009413451,0.009416257,0.008588701,0.023312822,0.023368204,0.108006775,251658305,0
1.63715E+18,1465,0,160,126,0,71,180,2183,269588260,33554432,18205,15990,3,56,40.00672709,116.3282205,50.36877252,-9.699999809,-0.364619089,0.003040128,0.005000753,-0.713199546,1.889656632,177.8757269,0.019110406,0.01903398,0.01962295,0.009413451,0.009416257,0.008588701,0.023312822,0.023368204,0.108006775,251658305,0
1.63715E+18,1465,0,160,126,0,71,180,2183,269588280,33554432,18205,15990,3,56,40.00672702,116.3282205,50.36881875,-9.699999809,-0.373522776,0.000315614,0.002007091,-0.710184432,1.887999637,177.8767794,0.019110406,0.01903398,0.01962295,0.009413451,0.009416257,0.008588701,0.023312822,0.023368204,0.108006775,251658305,0
1.63715E+18,1465,0,160,126,0,71,180,2183,269588300,33554432,18205,15990,3,56,40.00672695,116.3282205,50.3689661,-9.699999809,-0.384316215,0.00469772,0.005195017,-0.709539383,1.886141026,177.8779537,0.019110406,0.01903398,0.01962295,0.009413451,0.009416257,0.008588701,0.023312822,0.023368204,0.108006775,251658305,0
1.63715E+18,1465,0,160,126,0,71,180,2183,269588320,33554432,18205,15990,3,56,40.00672688,116.3282205,50.36904364,-9.699999809,-0.394256321,0.000491046,0.004498903,-0.707893981,1.884407305,177.8794131,0.019110406,0.01903398,0.01962295,0.009413451,0.009416257,0.008588701,0.023312822,0.023368204,0.108006775,251658305,0
1.63715E+18,1465,0,160,126,0,71,180,2183,269588340,33554432,18205,15990,3,56,40.00672681,116.3282205,50.36918401,-9.699999809,-0.403253029,0.006078637,0.004262825,-0.70676136,1.881141826,177.8823244,0.019110406,0.01903398,0.01962295,0.009413451,0.009416257,0.008588701,0.023312822,0.023368204,0.108006775,251658305,0
1.63715E+18,1465,0,160,126,0,71,180,2183,269588360,33554432,18205,15990,3,56,40.00672674,116.3282205,50.36930328,-9.699999809,-0.413177444,0.001928051,0.007116364,-0.706456421,1.877906239,177.8843062,0.019110406,0.01903398,0.01962295,0.009413451,0.009416257,0.008588701,0.023312822,0.023368204,0.108006775,251658305,0
1.63715E+18,1465,0,160,126,0,71,180,2183,269588380,33554432,18205,15990,3,56,40.00672666,116.3282205,50.36944949,-9.699999809,-0.423926357,0.005449704,0.004494648,-0.703666719,1.874409813,177.8873667,0.019110406,0.01903398,0.01962295,0.009413451,0.009416257,0.008588701,0.023312822,0.023368204,0.108006775,251658305,0
1.63715E+18,1465,0,160,126,0,71,180,2183,269588400,33554432,18205,15990,3,56,40.00672659,116.3282205,50.36961229,-9.699999809,-0.433910683,0.003264473,0.009733107,-0.701604517,1.869959124,177.8898805,0.019110406,0.01903398,0.01962295,0.009413451,0.009416257,0.008588701,0.023312822,0.023368204,0.108006775,251658305,0
1.63715E+18,1465,0,160,126,0,71,180,2183,269588420,33554432,18205,15990,3,56,40.00672651,116.3282205,50.36975342,-9.699999809,-0.443307638,0.0050472,0.004013829,-0.699535318,1.862982063,177.8937896,0.019110406,0.01903398,0.01962295,0.009413451,0.009416257,0.008588701,0.023312822,0.023368204,0.108006775,251658305,0
1.63715E+18,1465,0,160,126,0,71,180,2183,269588440,33554432,18205,15990,3,56,40.00672643,116.3282205,50.36993838,-9.699999809,-0.453143922,0.00359835,0.011076773,-0.696927171,1.861083759,177.8963812,0.019110406,0.01903398,0.01962295,0.009413451,0.009416257,0.008588701,0.023312822,0.023368204,0.108006775,251658305,0
1.63715E+18,1465,0,160,126,0,71,180,2183,269588460,33554432,18205,15990,3,56,40.00672634,116.3282205,50.37007795,-9.699999809,-0.462865841,0.00424912,0.004343655,-0.695354666,1.853768449,177.900383,0.019110406,0.01903398,0.01962295,0.009413451,0.009416257,0.008588701,0.023312822,0.023368204,0.108006775,251658305,0
1.63715E+18,1465,0,160,126,0,71,180,2183,269588480,33554432,18205,15990,3,56,40.00672626,116.3282205,50.37029645,-9.699999809,-0.470878813,0.004389302,0.012879445,-0.692082516,1.850121408,177.9038893,0.019110406,0.01903398,0.01962295,0.009413451,0.009416257,0.008588701,0.023312822,0.023368204,0.108006775,251658305,0
1.63715E+18,1465,0,160,126,0,71,180,2183,269588500,33554432,18205,15990,3,56,40.00672617,116.3282205,50.37041405,-9.699999809,-0.479998873,0.003539571,0.004017255,-0.691882717,1.845399787,177.9081223,0.019110406,0.01903398,0.01962295,0.009413451,0.009416257,0.008588701,0.023312822,0.023368204,0.108006775,251658305,0
1.63715E+18,1465,0,160,126,0,71,180,2183,269588520,33554432,18205,15990,3,56,40.00672609,116.3282205,50.37063637,-9.699999809,-0.488265304,0.00333321,0.013111065,-0.689295525,1.843270731,177.9113327,0.019110406,0.01903398,0.01962295,0.009413451,0.009416257,0.008588701,0.023312822,0.023368204,0.108006775,251658305,0
1.63715E+18,1465,0,160,126,0,71,180,2183,269588540,33554432,18205,15990,3,56,40.006726,116.3282205,50.37073507,-9.699999809,-0.495768143,0.001415018,0.003534712,-0.687209002,1.838695143,177.9158916,0.019110406,0.01903398,0.01962295,0.009413451,0.009416257,0.008588701,0.023312822,0.023368204,0.108006775,251658305,0
1.63715E+18,1465,0,160,126,0,71,180,2183,269588560,33554432,18205,15990,3,56,40.00672591,116.3282205,50.37094757,-9.699999809,-0.503545427,0.002195364,0.012337993,-0.683251259,1.837064508,177.9204631,0.019110406,0.01903398,0.01962295,0.009413451,0.009416257,0.008588701,0.023312822,0.023368204,0.108006775,251658305,0
1.63715E+18,1465,0,160,126,0,71,180,2183,269588580,33554432,18205,15990,3,56,40.00672582,116.3282205,50.37102143,-9.699999809,-0.51383883,0.001032133,0.002918036,-0.681943309,1.833957897,177.9256603,0.019110406,0.01903398,0.01962295,0.009413451,0.009416257,0.008588701,0.023312822,0.023368204,0.108006775,251658305,0
1.63715E+18,1465,0,160,126,0,71,180,2183,269588600,33554432,18205,15990,3,56,40.00672572,116.3282205,50.37122219,-9.699999809,-0.520475495,0.005126341,0.011566391,-0.679488985,1.831991644,177.9312768,0.019110406,0.01903398,0.01962295,0.009413451,0.009416257,0.008588701,0.023312822,0.023368204,0.108006775,251658305,0
1.63715E+18,1465,0,160,126,0,71,180,2183,269588620,33554432,18205,15990,3,56,40.00672563,116.3282205,50.37128204,-9.699999809,-0.531848973,0.000549487,0.003177752,-0.678760961,1.829495724,177.9384489,0.019110406,0.01903398,0.01962295,0.009413451,0.009416257,0.008588701,0.023312822,0.023368204,0.108006775,251658305,0
1.63715E+18,1465,0,160,126,0,71,180,2183,269588640,33554432,18205,15990,3,56,40.00672553,116.3282205,50.3714982,-9.699999809,-0.539749458,0.007531393,0.012562975,-0.675445996,1.825760863,177.946382,0.019110406,0.01903398,0.01962295,0.009413451,0.009416257,0.008588701,0.023312822,0.023368204,0.108006775,251658305,0
1.63715E+18,1465,0,160,126,0,71,180,2183,269588660,33554432,18205,15990,3,56,40.00672543,116.3282205,50.37155201,-9.699999809,-0.549278634,0.001930976,0.003987878,-0.675376575,1.822411729,177.9551343,0.019110406,0.01903398,0.01962295,0.009413451,0.009416257,0.008588701,0.023312822,0.023368204,0.108006775,251658305,0
1.63715E+18,1465,0,160,126,0,71,180,2183,269588680,33554432,18205,15990,3,56,40.00672534,116.3282205,50.37177504,-9.699999809,-0.558217864,0.008600878,0.012837457,-0.671054101,1.817695354,177.9661914,0.019110406,0.01903398,0.01962295,0.009413451,0.009416257,0.008588701,0.023312822,0.023368204,0.108006775,251658305,0
1.63715E+18,1465,0,160,126,0,71,180,2183,269588700,33554432,18205,15990,3,56,40.00672523,116.3282205,50.37185372,-9.699999809,-0.568894264,0.004220696,0.005808656,-0.670340414,1.812816615,177.9771634,0.019110406,0.01903398,0.01962295,0.009413451,0.009416257,0.008588701,0.023312822,0.023368204,0.108006775,251658305,0
1.63715E+18,1465,0,160,126,0,71,180,2183,269588720,33554432,18205,15990,3,56,40.00672513,116.3282205,50.37208154,-9.699999809,-0.577793258,0.011141763,0.012402639,-0.667605135,1.80758037,177.9900845,0.019110406,0.01903398,0.01962295,0.009413451,0.009416257,0.008588701,0.023312822,0.023368204,0.108006775,251658305,0
1.63715E+18,1465,0,160,126,0,71,180,2183,269588740,33554432,18205,15990,3,56,40.00672503,116.3282205,50.37215953,-9.699999809,-0.587176812,0.004516942,0.006405339,-0.666293108,1.80325286,178.0027314,0.019110406,0.01903398,0.01962295,0.009413451,0.009416257,0.008588701,0.023312822,0.023368204,0.108006775,251658305,0
1.63715E+18,1465,0,160,126,0,71,180,2183,269588760,33554432,18205,15990,3,56,40.00672492,116.3282205,50.37236974,-9.699999809,-0.596127839,0.012249129,0.011066588,-0.663881217,1.79655206,178.0166374,0.019110406,0.01903398,0.01962295,0.009413451,0.009416257,0.008588701,0.023312822,0.023368204,0.108006775,251658305,0
1.63715E+18,1465,0,160,126,0,71,180,2183,269588780,33554432,18205,15990,3,56,40.00672481,116.3282205,50.37249024,-9.699999809,-0.60376445,0.003897696,0.009315887,-0.663417962,1.791755244,178.0298428,0.019110406,0.01903398,0.01962295,0.009413451,0.009416257,0.008588701,0.023312822,0.023368204,0.108006775,251658305,0
1.63715E+18,1465,0,160,126,0,71,180,2183,269588800,33554432,18205,15990,3,56,40.0067247,116.3282205,50.37272545,-9.699999809,-0.612400028,0.011337076,0.01241541,-0.661396995,1.786695346,178.0453608,0.019110406,0.01903398,0.01962295,0.009413451,0.009416257,0.008588701,0.023312822,0.023368204,0.108006775,251658305,0
1.63715E+18,1465,0,160,126,0,71,180,2183,269588820,33554432,18205,15990,3,56,40.00672459,116.3282205,50.37290913,-9.699999809,-0.621280013,0.003873153,0.012682401,-0.662386693,1.78104146,178.0596727,0.019110406,0.01903398,0.01962295,0.009413451,0.009416257,0.008588701,0.023312822,0.023368204,0.108006775,251658305,0
1.63715E+18,1465,0,160,126,0,71,180,2183,269588840,33554432,18205,15990,3,56,40.00672448,116.3282205,50.3731724,-9.699999809,-0.62904197,0.010523417,0.013292238,-0.661366012,1.775036681,178.0757214,0.019110406,0.01903398,0.01962295,0.009413451,0.009416257,0.008588701,0.023312822,0.023368204,0.108006775,251658305,0
1.63715E+18,1465,0,160,126,0,71,180,2183,269588860,33554432,18205,15990,3,56,40.00672436,116.3282205,50.37339339,-9.699999809,-0.636596113,0.004043334,0.014721491,-0.663088423,1.769846358,178.0909323,0.019110406,0.01903398,0.01962295,0.009413451,0.009416257,0.008588701,0.023312822,0.023368204,0.108006775,251658305,0
1.63715E+18,1465,0,160,126,0,71,180,2183,269588880,33554432,18205,15990,3,56,40.00672425,116.3282205,50.37367356,-9.699999809,-0.645091323,0.007810951,0.013571613,-0.66077117,1.762243331,178.107772,0.019110406,0.01903398,0.01962295,0.009413451,0.009416257,0.008588701,0.023312822,0.023368204,0.108006775,251658305,0
1.63715E+18,1465,0,160,126,0,71,180,2183,269588900,33554432,18205,15990,3,56,40.00672413,116.3282205,50.37392027,-9.699999809,-0.65198265,0.004261877,0.01596456,-0.660629617,1.757347627,178.1253409,0.019110406,0.01903398,0.01962295,0.009413451,0.009416257,0.008588701,0.023312822,0.023368204,0.108006775,251658305,0
1.63715E+18,1465,0,160,126,0,71,180,2183,269588920,33554432,18205,15990,3,56,40.00672401,116.3282205,50.37420089,-9.699999809,-0.661767628,0.007406092,0.013273233,-0.658970002,1.750019628,178.1444564,0.019110406,0.01903398,0.01962295,0.009413451,0.009416257,0.008588701,0.023312822,0.023368204,0.108006775,251658305,0
1.63715E+18,1465,0,160,126,0,71,180,2183,269588940,33554432,18205,15990,3,56,40.00672389,116.3282205,50.37448834,-9.699999809,-0.667361118,0.005008293,0.017616752,-0.656537427,1.74299965,178.1638755,0.019110406,0.01903398,0.01962295,0.009413451,0.009416257,0.008588701,0.023312822,0.023368204,0.108006775,251658305,0
1.63715E+18,1465,0,160,126,0,71,180,2183,269588960,33554432,18205,15990,3,56,40.00672377,116.3282205,50.37476628,-9.699999809,-0.675537147,0.008467482,0.01292872,-0.655536233,1.736309632,178.1851815,0.019110406,0.01903398,0.01962295,0.009413451,0.009416257,0.008588701,0.023312822,0.023368204,0.108006775,251658305,0
1.63715E+18,1465,0,160,126,0,71,180,2183,269588980,33554432,18205,15990,3,56,40.00672365,116.3282205,50.37508617,-9.699999809,-0.683974084,0.006390458,0.018808701,-0.652737232,1.7292797,178.2063863,0.019110406,0.01903398,0.01962295,0.009413451,0.009416257,0.008588701,0.023312822,0.023368204,0.108006775,251658305,0
1.63715E+18,1465,0,160,126,0,71,180,2183,269589000,33554432,18205,15990,3,56,40.00672353,116.3282205,50.37534169,-9.699999809,-0.691853273,0.009471633,0.010845695,-0.653030333,1.720743401,178.2305884,0.019110406,0.01903398,0.01962295,0.009413451,0.009416257,0.008588701,0.023312822,0.023368204,0.108006775,251658305,0
1.63715E+18,1465,0,160,126,0,71,180,2183,269589020,33554432,18205,15990,3,56,40.0067234,116.3282205,50.37566393,-9.699999809,-0.700117463,0.006838372,0.018412098,-0.652822437,1.715958616,178.2541765,0.025912132,0.02584614,0.025993926,0.01448531,0.014516707,0.012225872,0.028180601,0.028227143,0.109375171,251658305,0
1.63715E+18,1465,0,160,126,0,71,180,2183,269589040,33554432,18205,15990,3,56,40.00672328,116.3282205,50.37587193,-9.699999809,-0.708002609,0.007721016,0.009275064,-0.652875355,1.708777665,178.2788999,0.023086092,0.023009613,0.023411535,0.013862298,0.01388412,0.011706972,0.028141001,0.028190726,0.109371617,251658305,0
1.63715E+18,1465,0,160,126,0,71,180,2183,269589060,33554432,18205,15990,3,56,40.00672315,116.3282205,50.37611417,-9.699999809,-0.71350207,0.00469969,0.016147985,-0.651309012,1.70500822,178.3034434,0.023086092,0.023009613,0.023411535,0.013862298,0.01388412,0.011706972,0.028141001,0.028190726,0.109371617,251658305,0
1.63715E+18,1465,0,160,126,0,71,180,2183,269589080,33554432,18205,15990,3,56,40.00672302,116.3282205,50.37625967,-9.699999809,-0.722775374,0.003889166,0.006828984,-0.65025652,1.699281128,178.3288889,0.023086092,0.023009613,0.023411535,0.013862298,0.01388412,0.011706972,0.028141001,0.028190726,0.109371617,251658305,0
1.63715E+18,1465,0,160,126,0,72,180,2183,269589100,33554432,18205,15990,3,56,40.00672289,116.3282205,50.37647483,-9.699999809,-0.728019948,0.00253535,0.01410139,-0.645089675,1.696320233,178.3539247,0.023086092,0.023009613,0.023411535,0.013862298,0.01388412,0.011706972,0.028141001,0.028190726,0.109371617,251658305,0
1.63715E+18,1465,0,160,126,0,72,180,2183,269589120,33554432,18205,15990,3,56,40.00672276,116.3282205,50.37655155,-9.699999809,-0.737314613,0.001819123,0.002946041,-0.644346214,1.693026951,178.3792584,0.023086092,0.023009613,0.023411535,0.013862298,0.01388412,0.011706972,0.028141001,0.028190726,0.109371617,251658305,0
1.63715E+18,1465,0,160,126,0,72,180,2183,269589140,33554432,18205,15990,3,56,40.00672262,116.3282205,50.37672773,-9.699999809,-0.744870975,0.001949059,0.011443761,-0.640674181,1.690339637,178.4036352,0.023086092,0.023009613,0.023411535,0.013862298,0.01388412,0.011706972,0.028141001,0.028190726,0.109371617,251658305,0
1.63715E+18,1465,0,160,126,0,72,180,2183,269589160,33554432,18205,15990,3,56,40.00672249,116.3282205,50.37675477,-9.699999809,-0.753496512,-0.000946962,0.00043658,-0.639440514,1.685770528,178.4279007,0.023086092,0.023009613,0.023411535,0.013862298,0.01388412,0.011706972,0.028141001,0.028190726,0.109371617,251658305,0
1.63715E+18,1465,0,160,126,0,72,180,2183,269589180,33554432,18205,15990,3,56,40.00672235,116.3282205,50.37692276,-9.699999809,-0.762445189,0.001504179,0.011021622,-0.636259234,1.683865465,178.4523734,0.023086092,0.023009613,0.023411535,0.013862298,0.01388412,0.011706972,0.028141001,0.028190726,0.109371617,251658305,0
1.63715E+18,1465,0,160,126,0,72,180,2183,269589200,33554432,18205,15990,3,56,40.00672221,116.3282205,50.37694091,-9.699999809,-0.771445149,-0.004017852,0.000607891,-0.63588242,1.681423072,178.4782824,0.023086092,0.023009613,0.023411535,0.013862298,0.01388412,0.011706972,0.028141001,0.028190726,0.109371617,251658305,0
1.63715E+18,1465,0,160,126,0,72,180,2183,269589220,33554432,18205,15990,3,56,40.00672207,116.3282205,50.37710028,-9.699999809,-0.779796277,0.001153995,0.009861771,-0.632501076,1.677985626,178.5038661,0.023086092,0.023009613,0.023411535,0.013862298,0.01388412,0.011706972,0.028141001,0.028190726,0.109371617,251658305,0
1.63715E+18,1465,0,160,126,0,72,180,2183,269589240,33554432,18205,15990,3,56,40.00672193,116.3282205,50.37712072,-9.699999809,-0.788194016,-0.007357412,0.001301861,-0.631123028,1.674895959,178.5297808,0.023086092,0.023009613,0.023411535,0.013862298,0.01388412,0.011706972,0.028141001,0.028190726,0.109371617,251658305,0
1.63715E+18,1465,0,160,126,0,72,180,2183,269589260,33554432,18205,15990,3,56,40.00672179,116.3282205,50.37728546,-9.699999809,-0.796542761,0.00049857,0.00953787,-0.627226975,1.67281194,178.5559538,0.023086092,0.023009613,0.023411535,0.013862298,0.01388412,0.011706972,0.028141001,0.028190726,0.109371617,251658305,0
1.63715E+18,1465,0,160,126,0,72,180,2183,269589280,33554432,18205,15990,3,56,40.00672164,116.3282205,50.37729894,-9.699999809,-0.80317663,-0.005892646,0.000916429,-0.626642442,1.67012147,178.5830551,0.023086092,0.023009613,0.023411535,0.013862298,0.01388412,0.011706972,0.028141001,0.028190726,0.109371617,251658305,0
1.63715E+18,1465,0,160,126,0,72,180,2183,269589300,33554432,18205,15990,3,56,40.0067215,116.3282205,50.37745242,-9.699999809,-0.812523484,0.003075295,0.008105019,-0.626674159,1.669160269,178.610795,0.023086092,0.023009613,0.023411535,0.013862298,0.01388412,0.011706972,0.028141001,0.028190726,0.109371617,251658305,0
1.63715E+18,1465,0,160,126,0,72,180,2183,269589320,33554432,18205,15990,3,56,40.00672135,116.3282205,50.37747046,-9.699999809,-0.821875015,-0.004413999,0.001596627,-0.630943832,1.668432844,178.6385418,0.023086092,0.023009613,0.023411535,0.013862298,0.01388412,0.011706972,0.028141001,0.028190726,0.109371617,251658305,0
1.63715E+18,1465,0,160,126,0,72,180,2183,269589340,33554432,18205,15990,3,56,40.0067212,116.3282205,50.37760302,-9.699999809,-0.828418131,0.002874984,0.005606497,-0.630003549,1.667206324,178.6694214,0.023086092,0.023009613,0.023411535,0.013862298,0.01388412,0.011706972,0.028141001,0.028190726,0.109371617,251658305,0
1.63715E+18,1465,0,160,126,0,72,180,2183,269589360,33554432,18205,15990,3,56,40.00672105,116.3282205,50.37761186,-9.699999809,-0.838062452,-0.005956474,0.001412566,-0.631352408,1.667296041,178.7006356,0.023086092,0.023009613,0.023411535,0.013862298,0.01388412,0.011706972,0.028141001,0.028190726,0.109371617,251658305,0
1.63715E+18,1465,0,160,126,0,72,180,2183,269589380,33554432,18205,15990,3,56,40.0067209,116.3282205,50.37772359,-9.699999809,-0.845356209,0.004589172,0.004232406,-0.631264765,1.664959419,178.734531,0.023086092,0.023009613,0.023411535,0.013862298,0.01388412,0.011706972,0.028141001,0.028190726,0.109371617,251658305,0
1.63715E+18,1465,0,160,126,0,72,180,2183,269589400,33554432,18205,15990,3,56,40.00672075,116.3282205,50.377754,-9.699999809,-0.853664439,-0.001620341,0.003402017,-0.634163006,1.664831207,178.76811,0.023086092,0.023009613,0.023411535,0.013862298,0.01388412,0.011706972,0.028141001,0.028190726,0.109371617,251658305,0
1.63715E+18,1465,0,160,126,0,72,180,2183,269589420,33554432,18205,15990,3,56,40.00672059,116.3282205,50.3778361,-9.699999809,-0.863667226,0.009791095,0.00223924,-0.639359887,1.664481497,178.8046579,0.023086092,0.023009613,0.023411535,0.013862298,0.01388412,0.011706972,0.028141001,0.028190726,0.109371617,251658305,0
1.63715E+18,1465,0,160,126,0,72,180,2183,269589440,33554432,18205,15990,3,56,40.00672044,116.3282205,50.3778678,-9.699999809,-0.871662238,0.006498581,0.003573471,-0.645907936,1.664817776,178.8406928,0.023086092,0.023009613,0.023411535,0.013862298,0.01388412,0.011706972,0.028141001,0.028190726,0.109371617,251658305,0
1.63715E+18,1465,0,160,126,0,72,180,2183,269589460,33554432,18205,15990,3,56,40.00672028,116.3282205,50.37790148,-9.699999809,-0.881058772,0.011507557,-0.000666703,-0.655316305,1.664069665,178.8794282,0.023086092,0.023009613,0.023411535,0.013862298,0.01388412,0.011706972,0.028141001,0.028190726,0.109371617,251658305,0
1.63715E+18,1465,0,160,126,0,72,180,2183,269589480,33554432,18205,15990,3,56,40.00672012,116.3282205,50.37796028,-9.699999809,-0.887824254,0.009384962,0.00620601,-0.663443816,1.666205891,178.9166223,0.023086092,0.023009613,0.023411535,0.013862298,0.01388412,0.011706972,0.028141001,0.028190726,0.109371617,251658305,0
1.63715E+18,1465,0,160,126,0,72,180,2183,269589500,33554432,18205,15990,3,56,40.00671996,116.3282205,50.37796948,-9.699999809,-0.897704206,0.009913549,-0.001023141,-0.671971145,1.66693739,178.9551397,0.023086092,0.023009613,0.023411535,0.013862298,0.01388412,0.011706972,0.028141001,0.028190726,0.109371617,251658305,0
1.63715E+18,1465,0,160,126,0,72,180,2183,269589520,33554432,18205,15990,3,56,40.0067198,116.3282205,50.37805022,-9.699999809,-0.905649038,0.011782363,0.007519938,-0.680265088,1.670494846,178.9920859,0.023086092,0.023009613,0.023411535,0.013862298,0.01388412,0.011706972,0.028141001,0.028190726,0.109371617,251658305,0
1.63715E+18,1465,0,160,126,0,72,180,2183,269589540,33554432,18205,15990,3,56,40.00671963,116.3282205,50.37799399,-9.699999809,-0.913033865,0.004157583,-0.003624029,-0.689486271,1.671412753,179.0292656,0.023086092,0.023009613,0.023411535,0.013862298,0.01388412,0.011706972,0.028141001,0.028190726,0.109371617,251658305,0
1.63715E+18,1465,0,160,126,0,72,180,2183,269589560,33554432,18205,15990,3,56,40.00671947,116.3282205,50.37806104,-9.699999809,-0.920531158,0.006355199,0.006642767,-0.696190388,1.676090267,179.0649515,0.023086092,0.023009613,0.023411535,0.013862298,0.01388412,0.011706972,0.028141001,0.028190726,0.109371617,251658305,0
1.63715E+18,1465,0,160,126,0,72,180,2183,269589580,33554432,18205,15990,3,56,40.0067193,116.3282205,50.37794125,-9.699999809,-0.929168135,-0.003474827,-0.0055534,-0.704870883,1.679983549,179.0996696,0.023086092,0.023009613,0.023411535,0.013862298,0.01388412,0.011706972,0.028141001,0.028190726,0.109371617,251658305,0
1.63715E+18,1465,0,160,126,0,72,180,2183,269589600,33554432,18205,15990,3,56,40.00671913,116.3282205,50.3779903,-9.699999809,-0.93811575,-0.00074057,0.005937271,-0.710677909,1.686261595,179.1335029,0.023086092,0.023009613,0.023411535,0.013862298,0.01388412,0.011706972,0.028141001,0.028190726,0.109371617,251658305,0
1.63715E+18,1465,0,160,126,0,72,180,2183,269589620,33554432,18205,15990,3,56,40.00671896,116.3282205,50.37787688,-9.699999809,-0.947533602,-0.007884273,-0.003605646,-0.717559529,1.689017623,179.1682639,0.023086092,0.023009613,0.023411535,0.013862298,0.01388412,0.011706972,0.028141001,0.028190726,0.109371617,251658305,0
1.63715E+18,1465,0,160,126,0,72,180,2183,269589640,33554432,18205,15990,3,56,40.00671879,116.3282205,50.37793499,-9.699999809,-0.955074744,-0.003686441,0.0059438,-0.722854327,1.69365047,179.204524,0.023086092,0.023009613,0.023411535,0.013862298,0.01388412,0.011706972,0.028141001,0.028190726,0.109371617,251658305,0
1.63715E+18,1465,0,160,126,0,72,180,2183,269589660,33554432,18205,15990,3,56,40.00671862,116.3282205,50.37783613,-9.699999809,-0.964108881,-0.010887581,-0.00136484,-0.727429684,1.696014135,179.2430489,0.023086092,0.023009613,0.023411535,0.013862298,0.01388412,0.011706972,0.028141001,0.028190726,0.109371617,251658305,0
1.63715E+18,1465,0,160,126,0,72,180,2183,269589680,33554432,18205,15990,3,56,40.00671844,116.3282205,50.37789546,-9.699999809,-0.972233517,-0.003465229,0.005146232,-0.729661579,1.698050654,179.2844291,0.023086092,0.023009613,0.023411535,0.013862298,0.01388412,0.011706972,0.028141001,0.028190726,0.109371617,251658305,0
1.63715E+18,1465,0,160,126,0,72,180,2183,269589700,33554432,18205,15990,3,56,40.00671827,116.3282205,50.37785046,-9.699999809,-0.983237967,-0.012018518,0.003402134,-0.732281417,1.699248978,179.3283492,0.023086092,0.023009613,0.023411535,0.013862298,0.01388412,0.011706972,0.028141001,0.028190726,0.109371617,251658305,0
1.63715E+18,1465,0,160,126,0,72,180,2183,269589720,33554432,18205,15990,3,56,40.00671809,116.3282205,50.37794089,-9.699999809,-0.990818587,-0.004851795,0.006027386,-0.733050018,1.69897151,179.3751238,0.023086092,0.023009613,0.023411535,0.013862298,0.01388412,0.011706972,0.028141001,0.028190726,0.109371617,251658305,0
1.63715E+18,1465,0,160,126,0,72,180,2183,269589740,33554432,18205,15990,3,56,40.00671791,116.3282205,50.37796667,-9.699999809,-1.001031099,-0.01035541,0.0080316,-0.733800633,1.699118678,179.4233013,0.023086092,0.023009613,0.023411535,0.013862298,0.01388412,0.011706972,0.028141001,0.028190726,0.109371617,251658305,0
1.63715E+18,1465,0,160,126,0,72,180,2183,269589760,33554432,18205,15990,3,56,40.00671773,116.3282205,50.37809986,-9.699999809,-1.009825456,-0.006788525,0.007861093,-0.735952224,1.693942874,179.4744713,0.023086092,0.023009613,0.023411535,0.013862298,0.01388412,0.011706972,0.028141001,0.028190726,0.109371617,251658305,0
1.63715E+18,1465,0,160,126,0,72,180,2183,269589780,33554432,18205,15990,3,56,40.00671755,116.3282205,50.37822961,-9.699999809,-1.01712343,-0.012105289,0.012964699,-0.735737617,1.690685118,179.5249608,0.023086092,0.023009613,0.023411535,0.013862298,0.01388412,0.011706972,0.028141001,0.028190726,0.109371617,251658305,0
1.63715E+18,1465,0,160,126,0,72,180,2183,269589800,33554432,18205,15990,3,56,40.00671736,116.3282205,50.3783695,-9.699999809,-1.026093671,-0.014699051,0.007238624,-0.734679502,1.684346909,179.5784094,0.023086092,0.023009613,0.023411535,0.013862298,0.01388412,0.011706972,0.028141001,0.028190726,0.109371617,251658305,0
1.63715E+18,1465,0,160,126,0,72,180,2183,269589820,33554432,18205,15990,3,56,40.00671718,116.3282205,50.37856321,-9.699999809,-1.034237084,-0.013466464,0.015115802,-0.732153063,1.680402885,179.6302255,0.023086092,0.023009613,0.023411535,0.013862298,0.01388412,0.011706972,0.028141001,0.028190726,0.109371617,251658305,0
1.63715E+18,1465,0,160,126,0,72,180,2183,269589840,33554432,18205,15990,3,56,40.00671699,116.3282204,50.37868879,-9.699999809,-1.045222746,-0.020894529,0.007559695,-0.733053753,1.674339596,179.6820569,0.023086092,0.023009613,0.023411535,0.013862298,0.01388412,0.011706972,0.028141001,0.028190726,0.109371617,251658305,0
1.63715E+18,1465,0,160,126,0,72,180,2183,269589860,33554432,18205,15990,3,56,40.0067168,116.3282204,50.37893777,-9.699999809,-1.054762287,-0.013037621,0.016620611,-0.734210798,1.66811354,179.7337685,0.023086092,0.023009613,0.023411535,0.013862298,0.01388412,0.011706972,0.028141001,0.028190726,0.109371617,251658305,0
1.63715E+18,1465,0,160,126,0,72,180,2183,269589880,33554432,18205,15990,3,56,40.00671661,116.3282204,50.37906478,-9.699999809,-1.06247007,-0.022081103,0.00555925,-0.739191658,1.660363872,179.7849837,0.023086092,0.023009613,0.023411535,0.013862298,0.01388412,0.011706972,0.028141001,0.028190726,0.109371617,251658305,0
1.63715E+18,1465,0,160,126,0,72,180,2183,269589900,33554432,18205,15990,3,56,40.00671642,116.3282204,50.37929454,-9.699999809,-1.069515659,-0.022330091,0.013429467,-0.73858917,1.657523547,179.8340446,0.023086092,0.023009613,0.023411535,0.013862298,0.01388412,0.011706972,0.028141001,0.028190726,0.109371617,251658305,0
1.63715E+18,1465,0,160,126,0,72,180,2183,269589920,33554432,18205,15990,3,56,40.00671622,116.3282204,50.3793811,-9.699999809,-1.07742741,-0.03262609,0.003838238,-0.738082106,1.652805509,179.8825677,0.023086092,0.023009613,0.023411535,0.013862298,0.01388412,0.011706972,0.028141001,0.028190726,0.109371617,251658305,0
1.63715E+18,1465,0,160,126,0,72,180,2183,269589940,33554432,18205,15990,3,56,40.00671603,116.3282204,50.37965118,-9.699999809,-1.084102027,-0.028748224,0.014271322,-0.733964884,1.648849361,179.9305156,0.023086092,0.023009613,0.023411535,0.013862298,0.01388412,0.011706972,0.028141001,0.028190726,0.109371617,251658305,0
1.63715E+18,1465,0,160,126,0,72,180,2183,269589960,33554432,18205,15990,3,56,40.00671583,116.3282204,50.37979383,-9.699999809,-1.090931333,-0.039013815,0.007688902,-0.731821504,1.643968303,179.9762156,0.023086092,0.023009613,0.023411535,0.013862298,0.01388412,0.011706972,0.028141001,0.028190726,0.109371617,251658305,0
1.63715E+18,1465,0,160,126,0,72,180,2183,269589980,33554432,18205,15990,3,56,40.00671564,116.3282204,50.3800436,-9.699999809,-1.093130621,-0.036448139,0.011568822,-0.72691729,1.640309567,180.0222496,0.023086092,0.023009613,0.023411535,0.013862298,0.01388412,0.011706972,0.028141001,0.028190726,0.109371617,251658305,0
1.63715E+18,1465,0,160,126,0,72,180,2183,269590000,33554432,18205,15990,3,56,40.00671544,116.3282204,50.38018503,-9.699999809,-1.10230316,-0.044263534,0.008117675,-0.720148585,1.640539723,180.0677383,0.023086092,0.023009613,0.023411535,0.013862298,0.01388412,0.011706972,0.028141001,0.028190726,0.109371617,251658305,0
1.63715E+18,1465,0,160,126,0,72,180,2183,269590020,33554432,18205,15990,3,56,40.00671524,116.3282204,50.3804242,-9.699999809,-1.110284786,-0.037065702,0.010499646,-0.716622144,1.639626655,180.1175004,0.034673244,0.03460598,0.03351995,0.018907161,0.018961983,0.014642059,0.031843368,0.031886861,0.110682234,251658305,0
1.63715E+18,1465,0,160,126,0,72,180,2183,269590040,33554432,18205,15990,3,56,40.00671504,116.3282204,50.38061347,-9.699999809,-1.116378499,-0.04075167,0.015447321,-0.712856612,1.640280481,180.1663765,0.028657455,0.028547984,0.028496519,0.017078236,0.017104965,0.013348634,0.031560652,0.031614572,0.110643059,251658305,0
1.63715E+18,1465,0,160,126,0,72,180,2183,269590060,33554432,18205,15990,3,56,40.00671484,116.3282203,50.38078875,-9.699999809,-1.125526891,-0.037321257,0.012058117,-0.711667951,1.635179271,180.2209302,0.028657455,0.028547984,0.028496519,0.017078236,0.017104965,0.013348634,0.031560652,0.031614572,0.110643059,251658305,0
1.63715E+18,1465,0,160,126,0,72,180,2183,269590080,33554432,18205,15990,3,56,40.00671463,116.3282203,50.38096859,-9.699999809,-1.133291098,-0.02998539,0.017063015,-0.709448084,1.633082942,180.2769238,0.028657455,0.028547984,0.028496519,0.017078236,0.017104965,0.013348634,0.031560652,0.031614572,0.110643059,251658305,0
1.63715E+18,1465,0,160,126,0,72,180,2183,269590100,33554432,18205,15990,3,56,40.00671443,116.3282203,50.38110442,-9.699999809,-1.143538904,-0.0341275,0.008678519,-0.710188702,1.629700872,180.3363768,0.028657455,0.028547984,0.028496519,0.017078236,0.017104965,0.013348634,0.031560652,0.031614572,0.110643059,251658305,0
1.63715E+18,1465,0,160,126,0,72,180,2183,269590120,33554432,18205,15990,3,56,40.00671422,116.3282203,50.38130975,-9.699999809,-1.151296987,-0.021927705,0.016445913,-0.710838125,1.62744212,180.3970659,0.028657455,0.028547984,0.028496519,0.017078236,0.017104965,0.013348634,0.031560652,0.031614572,0.110643059,251658305,0
1.63715E+18,1465,0,160,126,0,72,180,2183,269590140,33554432,18205,15990,3,56,40.00671401,116.3282203,50.38131998,-9.699999809,-1.162106329,-0.030608926,0.00496892,-0.714667964,1.622967437,180.4625275,0.028657455,0.028547984,0.028496519,0.017078236,0.017104965,0.013348634,0.031560652,0.031614572,0.110643059,251658305,0
1.63715E+18,1465,0,160,126,0,72,180,2183,269590160,33554432,18205,15990,3,56,40.0067138,116.3282203,50.38147051,-9.699999809,-1.170622674,-0.015919032,0.013067309,-0.717725528,1.618734856,180.5278136,0.028657455,0.028547984,0.028496519,0.017078236,0.017104965,0.013348634,0.031560652,0.031614572,0.110643059,251658305,0
1.63715E+18,1465,0,160,126,0,72,180,2183,269590180,33554432,18205,15990,3,56,40.00671359,116.3282203,50.38138107,-9.699999809,-1.179813784,-0.029326193,0.001701267,-0.72568351,1.614426646,180.5938618,0.028657455,0.028547984,0.028496519,0.017078236,0.017104965,0.013348634,0.031560652,0.031614572,0.110643059,251658305,0
1.63715E+18,1465,0,160,126,0,72,180,2183,269590200,33554432,18205,15990,3,56,40.00671338,116.3282203,50.38142986,-9.699999809,-1.188307499,-0.020868645,0.007032731,-0.732462256,1.609822079,180.6585304,0.028657455,0.028547984,0.028496519,0.017078236,0.017104965,0.013348634,0.031560652,0.031614572,0.110643059,251658305,0
1.63715E+18,1465,0,160,126,0,71,180,2183,269590220,33554432,18205,15990,3,56,40.00671316,116.3282203,50.38127709,-9.699999809,-1.194935703,-0.031121054,0.000653378,-0.74173642,1.608621671,180.7180587,0.028657455,0.028547984,0.028496519,0.017078236,0.017104965,0.013348634,0.031560652,0.031614572,0.110643059,251658305,0
1.63715E+18,1465,0,160,126,0,71,180,2183,269590240,33554432,18205,15990,3,56,40.00671295,116.3282203,50.38125253,-9.699999809,-1.206020245,-0.031160259,0.003006503,-0.750374821,1.60458846,180.778808,0.028657455,0.028547984,0.028496519,0.017078236,0.017104965,0.013348634,0.031560652,0.031614572,0.110643059,251658305,0
1.63715E+18,1465,0,160,126,0,71,180,2183,269590260,33554432,18205,15990,3,56,40.00671273,116.3282202,50.38111996,-9.699999809,-1.215171688,-0.039698527,0.002091532,-0.756489257,1.59937943,180.8332502,0.028657455,0.028547984,0.028496519,0.017078236,0.017104965,0.013348634,0.031560652,0.031614572,0.110643059,251658305,0
1.63715E+18,1465,0,160,126,0,71,180,2183,269590280,33554432,18205,15990,3,56,40.00671251,116.3282202,50.38106104,-9.699999809,-1.223823601,-0.048975728,0.000991443,-0.76387807,1.59450221,180.8895277,0.028657455,0.028547984,0.028496519,0.017078236,0.017104965,0.013348634,0.031560652,0.031614572,0.110643059,251658305,0
1.63715E+18,1465,0,160,126,0,71,180,2183,269590300,33554432,18205,15990,3,56,40.00671229,116.3282202,50.3810163,-9.699999809,-1.234195527,-0.047465843,0.006920122,-0.765470398,1.5898307,180.940874,0.028657455,0.028547984,0.028496519,0.017078236,0.017104965,0.013348634,0.031560652,0.031614572,0.110643059,251658305,0
1.63715E+18,1465,0,160,126,0,71,180,2183,269590320,33554432,18205,15990,3,56,40.00671206,116.3282202,50.38100577,-9.699999809,-1.240453402,-0.061112239,0.003755289,-0.768906974,1.582810077,180.9939671,0.028657455,0.028547984,0.028496519,0.017078236,0.017104965,0.013348634,0.031560652,0.031614572,0.110643059,251658305,0
1.63715E+18,1465,0,160,126,0,71,180,2183,269590340,33554432,18205,15990,3,56,40.00671184,116.3282202,50.38110115,-9.699999809,-1.250198584,-0.051119219,0.013271476,-0.7723317,1.577887399,181.046283,0.028657455,0.028547984,0.028496519,0.017078236,0.017104965,0.013348634,0.031560652,0.031614572,0.110643059,251658305,0
