time, .header.seq, .header.stamp.secs, .header.stamp.nsecs, .header.frame_id, .orientation.x, .orientation.y, .orientation.z, .orientation.w, .orientation_covariance, .angular_velocity.x, .angular_velocity.y, .angular_velocity.z, .angular_velocity_covariance, .linear_acceleration.x, .linear_acceleration.y, .linear_acceleration.z, .linear_acceleration_covariance
1637149068847839507, 6916, 1636512982, 920470952, base_link, -0.00619573494859, -0.0158151297482, -0.999685218561, 0.018465056983, "(0.00023315803464598554, 0.0, 0.0, 0.0, 0.00023050643293099585, 0.0, 0.0, 0.0, 0.011525774010724632)", -0.000337188377381, -0.000197514936255, -0.000198054960288, "(0.001, 0.0, 0.0, 0.0, 0.001, 0.0, 0.0, 0.0, 0.001)", 0.0507360581814, -0.0228204989721, 0.115102364696, "(0.001, 0.0, 0.0, 0.0, 0.001, 0.0, 0.0, 0.0, 0.001)"
1637149068865318705, 6917, 1636512982, 941602945, base_link, -0.00622046320821, -0.0158240569758, -0.999684983811, 0.0184618038357, "(0.00023315803464598554, 0.0, 0.0, 0.0, 0.00023050643293099585, 0.0, 0.0, 0.0, 0.011525774010724632)", 0.000622674291813, -0.00184682734544, -8.76285111665e-05, "(0.001, 0.0, 0.0, 0.0, 0.001, 0.0, 0.0, 0.0, 0.001)", -0.112634520183, -0.0426599705628, -0.116207826307, "(0.001, 0.0, 0.0, 0.0, 0.001, 0.0, 0.0, 0.0, 0.001)"
1637149068885188528, 6918, 1636512982, 961638927, base_link, -0.00620399459482, -0.0158196426089, -0.999685158535, 0.0184616673887, "(0.00023315803464598554, 0.0, 0.0, 0.0, 0.00023050643293099585, 0.0, 0.0, 0.0, 0.011525774010724632)", 9.65547535571e-05, -0.000387445846946, -0.000290560926806, "(0.001, 0.0, 0.0, 0.0, 0.001, 0.0, 0.0, 0.0, 0.001)", 0.236857317828, 0.0787686224809, 0.107053104557, "(0.001, 0.0, 0.0, 0.0, 0.001, 0.0, 0.0, 0.0, 0.001)"
1637149068907377530, 6919, 1636512982, 981672048, base_link, -0.00620671556254, -0.0158236656594, -0.99968521132, 0.0184544453858, "(0.00023315803464598554, 0.0, 0.0, 0.0, 0.00023050643293099585, 0.0, 0.0, 0.0, 0.011525774010724632)", 0.000151407658272, 0.000399799438147, -0.000669761032433, "(0.001, 0.0, 0.0, 0.0, 0.001, 0.0, 0.0, 0.0, 0.001)", -0.149839512353, -0.047700632145, -0.140611987768, "(0.001, 0.0, 0.0, 0.0, 0.001, 0.0, 0.0, 0.0, 0.001)"
1637149068924532338, 6920, 1636512983, 1089096, base_link, -0.0062013938872, -0.0158205336237, -0.999685214428, 0.0184587508987, "(0.00023315803464598554, 0.0, 0.0, 0.0, 0.00023050643293099585, 0.0, 0.0, 0.0, 0.011525774010724632)", -5.85962107032e-05, -0.000197727616889, -0.000140950024895, "(0.001, 0.0, 0.0, 0.0, 0.001, 0.0, 0.0, 0.0, 0.001)", 0.185291165817, 0.0914994807466, 0.185668893412, "(0.001, 0.0, 0.0, 0.0, 0.001, 0.0, 0.0, 0.0, 0.001)"
1637149068945278318, 6921, 1636512983, 21747112, base_link, -0.00620342691592, -0.0158132873887, -0.99968547214, 0.0184503178394, "(0.00023315803464598554, 0.0, 0.0, 0.0, 0.00023050643293099585, 0.0, 0.0, 0.0, 0.011525774010724632)", -0.000826051764392, 0.000439411421706, -0.000715539320517, "(0.001, 0.0, 0.0, 0.0, 0.001, 0.0, 0.0, 0.0, 0.001)", -0.0758619980804, -0.0851041348485, -0.122156403059, "(0.001, 0.0, 0.0, 0.0, 0.001, 0.0, 0.0, 0.0, 0.001)"
1637149068964312355, 6922, 1636512983, 40740013, base_link, -0.00619110946103, -0.0158178545297, -0.999685388827, 0.0184550537356, "(0.00023315803464598554, 0.0, 0.0, 0.0, 0.00023050643293099585, 0.0, 0.0, 0.0, 0.011525774010724632)", -0.000174120793533, 0.0010881706422, -0.000131429746962, "(0.001, 0.0, 0.0, 0.0, 0.001, 0.0, 0.0, 0.0, 0.001)", 0.0785303000986, -0.0632210728235, 0.0872795847296, "(0.001, 0.0, 0.0, 0.0, 0.001, 0.0, 0.0, 0.0, 0.001)"
1637149068986181840, 6923, 1636512983, 62678098, base_link, -0.00620230669694, -0.0158187305637, -0.999685323319, 0.0184540915468, "(0.00023315803464598554, 0.0, 0.0, 0.0, 0.00023050643293099585, 0.0, 0.0, 0.0, 0.011525774010724632)", 0.000349183510552, -0.000289291989004, 0.000122668486397, "(0.001, 0.0, 0.0, 0.0, 0.001, 0.0, 0.0, 0.0, 0.001)", -0.0948813758273, 0.0351721988091, -0.103582636479, "(0.001, 0.0, 0.0, 0.0, 0.001, 0.0, 0.0, 0.0, 0.001)"
1637149069005388431, 6924, 1636512983, 81296920, base_link, -0.00618442564036, -0.0158175724027, -0.999685284421, 0.0184631902954, "(0.00023315803464598554, 0.0, 0.0, 0.0, 0.00023050643293099585, 0.0, 0.0, 0.0, 0.011525774010724632)", -0.000313735822566, 0.00101815811977, 0.00105723479845, "(0.001, 0.0, 0.0, 0.0, 0.001, 0.0, 0.0, 0.0, 0.001)", 0.182548209078, 0.0332248233325, 0.124011973314, "(0.001, 0.0, 0.0, 0.0, 0.001, 0.0, 0.0, 0.0, 0.001)"
1637149069024803343, 6925, 1636512983, 101341962, base_link, -0.00619852629592, -0.0158227951398, -0.999685126322, 0.0184625468346, "(0.00023315803464598554, 0.0, 0.0, 0.0, 0.00023050643293099585, 0.0, 0.0, 0.0, 0.011525774010724632)", 0.000328788220161, -0.000299628256489, 0.000393676918523, "(0.001, 0.0, 0.0, 0.0, 0.001, 0.0, 0.0, 0.0, 0.001)", -0.257247454898, -0.145105125563, -0.148098567916, "(0.001, 0.0, 0.0, 0.0, 0.001, 0.0, 0.0, 0.0, 0.001)"
1637149069045264038, 6926, 1636512983, 121753931, base_link, -0.00617780088787, -0.0158303440806, -0.999685126384, 0.0184630189528, "(0.00023315803464598554, 0.0, 0.0, 0.0, 0.00023050643293099585, 0.0, 0.0, 0.0, 0.011525774010724632)", 0.0016389495028, 0.000876373079931, 0.000299277835063, "(0.001, 0.0, 0.0, 0.0, 0.001, 0.0, 0.0, 0.0, 0.001)", 0.246348625253, 0.0658658820669, 0.127900066772, "(0.001, 0.0, 0.0, 0.0, 0.001, 0.0, 0.0, 0.0, 0.001)"
1637149069064928196, 6927, 1636512983, 141557931, base_link, -0.00618549566945, -0.0158213732103, -0.999685240753, 0.0184619395757, "(0.00023315803464598554, 0.0, 0.0, 0.0, 0.00023050643293099585, 0.0, 0.0, 0.0, 0.011525774010724632)", -0.000794641761999, 0.000777312229722, -0.000172631081094, "(0.001, 0.0, 0.0, 0.0, 0.001, 0.0, 0.0, 0.0, 0.001)", -0.276596948643, 0.0539698393895, -0.138882323682, "(0.001, 0.0, 0.0, 0.0, 0.001, 0.0, 0.0, 0.0, 0.001)"
1637149069084492357, 6928, 1636512983, 160975933, base_link, -0.00618508829866, -0.0158231758393, -0.999685121142, 0.018467007239, "(0.00023315803464598554, 0.0, 0.0, 0.0, 0.00023050643293099585, 0.0, 0.0, 0.0, 0.011525774010724632)", 9.5664682688e-06, -0.000906412033773, 0.00043354679189, "(0.001, 0.0, 0.0, 0.0, 0.001, 0.0, 0.0, 0.0, 0.001)", 0.135389504919, -0.0454392269293, 0.13193770455, "(0.001, 0.0, 0.0, 0.0, 0.001, 0.0, 0.0, 0.0, 0.001)"
1637149069105632854, 6929, 1636512983, 181957006, base_link, -0.00618355407307, -0.0158209193186, -0.999685210822, 0.0184645994771, "(0.00023315803464598554, 0.0, 0.0, 0.0, 0.00023050643293099585, 0.0, 0.0, 0.0, 0.011525774010724632)", -0.000432417308531, 0.000473494201759, 0.000158399332297, "(0.001, 0.0, 0.0, 0.0, 0.001, 0.0, 0.0, 0.0, 0.001)", -0.18165303749, -0.0979116174544, -0.160092345866, "(0.001, 0.0, 0.0, 0.0, 0.001, 0.0, 0.0, 0.0, 0.001)"
1637149069124560566, 6930, 1636512983, 200948953, base_link, -0.00618610294464, -0.0158328140167, -0.999685076778, 0.0184608070961, "(0.00023315803464598554, 0.0, 0.0, 0.0, 0.00023050643293099585, 0.0, 0.0, 0.0, 0.011525774010724632)", 0.00127657488553, -0.000848327400873, -0.000745157678368, "(0.001, 0.0, 0.0, 0.0, 0.001, 0.0, 0.0, 0.0, 0.001)", 0.0514375463983, 0.0724423914254, 0.134759420075, "(0.001, 0.0, 0.0, 0.0, 0.001, 0.0, 0.0, 0.0, 0.001)"
1637149069144660913, 6931, 1636512983, 221137046, base_link, -0.00619861007369, -0.0158287907851, -0.999685151325, 0.018456024376, "(0.00023315803464598554, 0.0, 0.0, 0.0, 0.00023050643293099585, 0.0, 0.0, 0.0, 0.011525774010724632)", -5.54725897383e-05, -0.00119215824716, -0.000373285205902, "(0.001, 0.0, 0.0, 0.0, 0.001, 0.0, 0.0, 0.0, 0.001)", -0.176466204995, 0.0612456959414, -0.101440813144, "(0.001, 0.0, 0.0, 0.0, 0.001, 0.0, 0.0, 0.0, 0.001)"
1637149069164583264, 6932, 1636512983, 241080999, base_link, -0.00618183769029, -0.0158265894479, -0.999685261232, 0.0184575844667, "(0.00023315803464598554, 0.0, 0.0, 0.0, 0.00023050643293099585, 0.0, 0.0, 0.0, 0.011525774010724632)", 1.87661383823e-05, 0.000694608004776, -0.000459957198482, "(0.001, 0.0, 0.0, 0.0, 0.001, 0.0, 0.0, 0.0, 0.001)", 0.228160841553, 0.0163075728028, 0.153620425327, "(0.001, 0.0, 0.0, 0.0, 0.001, 0.0, 0.0, 0.0, 0.001)"
1637149069184741362, 6933, 1636512983, 261257886, base_link, -0.00620188760206, -0.0158275851194, -0.999685072044, 0.0184602511488, "(0.00023315803464598554, 0.0, 0.0, 0.0, 0.00023050643293099585, 0.0, 0.0, 0.0, 0.011525774010724632)", -0.000338361559948, -0.000878266469466, 0.000298107754003, "(0.001, 0.0, 0.0, 0.0, 0.001, 0.0, 0.0, 0.0, 0.001)", -0.269212278211, -0.0430638079965, -0.134055213117, "(0.001, 0.0, 0.0, 0.0, 0.001, 0.0, 0.0, 0.0, 0.001)"
1637149069204358202, 6934, 1636512983, 280652999, base_link, -0.0061917079784, -0.0158248429758, -0.999685178274, 0.0184602664209, "(0.00023315803464598554, 0.0, 0.0, 0.0, 0.00023050643293099585, 0.0, 0.0, 0.0, 0.011525774010724632)", 0.000229171183107, -0.00111634255415, 8.22996198802e-05, "(0.001, 0.0, 0.0, 0.0, 0.001, 0.0, 0.0, 0.0, 0.001)", 0.345960609301, 0.0408723238345, 0.164712358976, "(0.001, 0.0, 0.0, 0.0, 0.001, 0.0, 0.0, 0.0, 0.001)"
1637149069228358379, 6935, 1636512983, 304857015, base_link, -0.00619689845622, -0.0158389270594, -0.999684862884, 0.0184635251309, "(0.00023315803464598554, 0.0, 0.0, 0.0, 0.00023050643293099585, 0.0, 0.0, 0.0, 0.011525774010724632)", 0.00030766433389, 0.000272608126331, 0.000478378723611, "(0.001, 0.0, 0.0, 0.0, 0.001, 0.0, 0.0, 0.0, 0.001)", -0.289043726513, -0.0208856190851, -0.145823051117, "(0.001, 0.0, 0.0, 0.0, 0.001, 0.0, 0.0, 0.0, 0.001)"
1637149069248366476, 6936, 1636512983, 324760913, base_link, -0.00620677215334, -0.0158299180724, -0.999684897013, 0.0184660866874, "(0.0005451372753274009, 0.0, 0.0, 0.0, 0.000542459799642795, 0.0, 0.0, 0.0, 0.011866874482351852)", -0.000188541282881, -0.00207527460837, 0.000501350159573, "(0.001, 0.0, 0.0, 0.0, 0.001, 0.0, 0.0, 0.0, 0.001)", 0.218037754618, 0.0631638387172, 0.147214907721, "(0.001, 0.0, 0.0, 0.0, 0.001, 0.0, 0.0, 0.0, 0.001)"
1637149069264764437, 6937, 1636512983, 341308116, base_link, -0.00620701147161, -0.0158267107825, -0.999684974718, 0.0184645486437, "(0.00023413910808505693, 0.0, 0.0, 0.0, 0.00023149971504091236, 0.0, 0.0, 0.0, 0.011324056250092751)", -0.000465374016774, -0.000123866721777, 0.000274311461723, "(0.001, 0.0, 0.0, 0.0, 0.001, 0.0, 0.0, 0.0, 0.001)", -0.115708129134, -0.0586508940972, -0.134174712988, "(0.001, 0.0, 0.0, 0.0, 0.001, 0.0, 0.0, 0.0, 0.001)"
1637149069285687075, 6938, 1636512983, 362257003, base_link, -0.00620514470398, -0.0158323879803, -0.999684836176, 0.018467809543, "(0.00023413910808505693, 0.0, 0.0, 0.0, 0.00023149971504091236, 0.0, 0.0, 0.0, 0.011324056250092751)", 0.000417393844943, -0.000797407792822, 0.000135544715738, "(0.001, 0.0, 0.0, 0.0, 0.001, 0.0, 0.0, 0.0, 0.001)", 0.167053128656, -0.103317666004, 0.0912184202348, "(0.001, 0.0, 0.0, 0.0, 0.001, 0.0, 0.0, 0.0, 0.001)"
1637149069305694861, 6939, 1636512983, 381525039, base_link, -0.00621120207046, -0.0158357753159, -0.999684816392, 0.0184639395517, "(0.00023413910808505693, 0.0, 0.0, 0.0, 0.00023149971504091236, 0.0, 0.0, 0.0, 0.011324056250092751)", 0.000424661553763, -0.000232825679221, -4.6385728356e-05, "(0.001, 0.0, 0.0, 0.0, 0.001, 0.0, 0.0, 0.0, 0.001)", -0.200841774216, -0.0160623539764, -0.140524839966, "(0.001, 0.0, 0.0, 0.0, 0.001, 0.0, 0.0, 0.0, 0.001)"
1637149069324090201, 6940, 1636512983, 400544881, base_link, -0.00620227994336, -0.0158327406746, -0.999684903094, 0.0184648469454, "(0.00023413910808505693, 0.0, 0.0, 0.0, 0.00023149971504091236, 0.0, 0.0, 0.0, 0.011324056250092751)", 0.000607004549258, -7.66992962629e-06, -0.000280392777555, "(0.001, 0.0, 0.0, 0.0, 0.001, 0.0, 0.0, 0.0, 0.001)", 0.31591821571, 0.0878431485641, 0.129246024848, "(0.001, 0.0, 0.0, 0.0, 0.001, 0.0, 0.0, 0.0, 0.001)"
1637149069346581343, 6941, 1636512983, 422895908, base_link, -0.00620964198729, -0.0158357645121, -0.99968479289, 0.018465745965, "(0.00023413910808505693, 0.0, 0.0, 0.0, 0.00023149971504091236, 0.0, 0.0, 0.0, 0.011324056250092751)", 0.000181553894621, 0.000271392364641, 0.000331392213708, "(0.001, 0.0, 0.0, 0.0, 0.001, 0.0, 0.0, 0.0, 0.001)", -0.335487910514, -0.0921480313218, -0.144411182719, "(0.001, 0.0, 0.0, 0.0, 0.001, 0.0, 0.0, 0.0, 0.001)"
1637149069364180237, 6942, 1636512983, 440701007, base_link, -0.00620477693834, -0.0158421858481, -0.999684744528, 0.0184644915414, "(0.00023413910808505693, 0.0, 0.0, 0.0, 0.00023149971504091236, 0.0, 0.0, 0.0, 0.011324056250092751)", 0.00106039566838, -0.000841696095571, -3.45660290959e-05, "(0.001, 0.0, 0.0, 0.0, 0.001, 0.0, 0.0, 0.0, 0.001)", 0.384249674197, -0.0721769997876, 0.167213758603, "(0.001, 0.0, 0.0, 0.0, 0.001, 0.0, 0.0, 0.0, 0.001)"
1637149069384826156, 6943, 1636512983, 461386919, base_link, -0.00619722950213, -0.0158451421076, -0.999684845512, 0.0184590214343, "(0.00023413910808505693, 0.0, 0.0, 0.0, 0.00023149971504091236, 0.0, 0.0, 0.0, 0.011324056250092751)", 0.000925577395422, 0.00174807899678, -0.000600346745369, "(0.001, 0.0, 0.0, 0.0, 0.001, 0.0, 0.0, 0.0, 0.001)", -0.292344726723, -0.01295581047, -0.105934138827, "(0.001, 0.0, 0.0, 0.0, 0.001, 0.0, 0.0, 0.0, 0.001)"
1637149069407737827, 6944, 1636512983, 483829021, base_link, -0.00620191519445, -0.0158464558421, -0.999684681925, 0.0184651782753, "(0.00023413910808505693, 0.0, 0.0, 0.0, 0.00023149971504091236, 0.0, 0.0, 0.0, 0.011324056250092751)", 0.000473876514223, -0.000573716540246, 0.000134243874919, "(0.001, 0.0, 0.0, 0.0, 0.001, 0.0, 0.0, 0.0, 0.001)", 0.226749449025, 0.0871253634882, 0.116553128158, "(0.001, 0.0, 0.0, 0.0, 0.001, 0.0, 0.0, 0.0, 0.001)"
1637149069424545173, 6945, 1636512983, 501100063, base_link, -0.00619533400333, -0.0158341984151, -0.999684982807, 0.018461612797, "(0.00023413910808505693, 0.0, 0.0, 0.0, 0.00023149971504091236, 0.0, 0.0, 0.0, 0.011324056250092751)", -0.00102458580947, 0.000728917889819, 0.000106296522735, "(0.001, 0.0, 0.0, 0.0, 0.001, 0.0, 0.0, 0.0, 0.001)", -0.205144581173, -0.037272556759, -0.0896365310435, "(0.001, 0.0, 0.0, 0.0, 0.001, 0.0, 0.0, 0.0, 0.001)"
1637149069444256596, 6946, 1636512983, 520826101, base_link, -0.00619667757334, -0.0158404494768, -0.999684931744, 0.0184585641826, "(0.00023413910808505693, 0.0, 0.0, 0.0, 0.00023149971504091236, 0.0, 0.0, 0.0, 0.011324056250092751)", -0.000244147881714, -0.000263706086321, -0.000900345787948, "(0.001, 0.0, 0.0, 0.0, 0.001, 0.0, 0.0, 0.0, 0.001)", 0.135819778434, -0.0317845254598, 0.122429175452, "(0.001, 0.0, 0.0, 0.0, 0.001, 0.0, 0.0, 0.0, 0.001)"
1637149069466007387, 6947, 1636512983, 542583942, base_link, -0.00620456250588, -0.015848640314, -0.999684775874, 0.0184573262128, "(0.00023413910808505693, 0.0, 0.0, 0.0, 0.00023149971504091236, 0.0, 0.0, 0.0, 0.011324056250092751)", 0.000993593535023, -7.80794779969e-05, 2.01038127861e-05, "(0.001, 0.0, 0.0, 0.0, 0.001, 0.0, 0.0, 0.0, 0.001)", -0.285680679351, 0.00540461916638, -0.0981829036179, "(0.001, 0.0, 0.0, 0.0, 0.001, 0.0, 0.0, 0.0, 0.001)"
1637149069484080415, 6948, 1636512983, 560511112, base_link, -0.00620068902109, -0.0158407130996, -0.999684826645, 0.0184626823394, "(0.00023413910808505693, 0.0, 0.0, 0.0, 0.00023149971504091236, 0.0, 0.0, 0.0, 0.011324056250092751)", 0.000221326965603, -0.00112582761254, 0.000174358622304, "(0.001, 0.0, 0.0, 0.0, 0.001, 0.0, 0.0, 0.0, 0.001)", 0.286536604219, 0.0235825005351, 0.0892937819731, "(0.001, 0.0, 0.0, 0.0, 0.001, 0.0, 0.0, 0.0, 0.001)"
1637149069505095124, 6949, 1636512983, 581185102, base_link, -0.00621050688211, -0.0158354227938, -0.999684728962, 0.0184692086585, "(0.00023413910808505693, 0.0, 0.0, 0.0, 0.00023149971504091236, 0.0, 0.0, 0.0, 0.011324056250092751)", -0.000844522709811, 5.6862573912e-06, 0.00103748748217, "(0.001, 0.0, 0.0, 0.0, 0.001, 0.0, 0.0, 0.0, 0.001)", -0.352495205495, -0.0365747717743, -0.136450415565, "(0.001, 0.0, 0.0, 0.0, 0.001, 0.0, 0.0, 0.0, 0.001)"
1637149069524477999, 6950, 1636512983, 601020097, base_link, -0.0062119202798, -0.0158446948939, -0.999684622161, 0.0184665618155, "(0.00023413910808505693, 0.0, 0.0, 0.0, 0.00023149971504091236, 0.0, 0.0, 0.0, 0.011324056250092751)", 0.000807290651375, -0.00215307367912, 0.000185399325115, "(0.001, 0.0, 0.0, 0.0, 0.001, 0.0, 0.0, 0.0, 0.001)", 0.367134842567, -0.0565757146346, 0.0572125846952, "(0.001, 0.0, 0.0, 0.0, 0.001, 0.0, 0.0, 0.0, 0.001)"
1637149069546194437, 6951, 1636512983, 622693061, base_link, -0.00621073269393, -0.0158502929571, -0.999684485286, 0.0184695666179, "(0.00023413910808505693, 0.0, 0.0, 0.0, 0.00023149971504091236, 0.0, 0.0, 0.0, 0.011324056250092751)", 0.000989668713463, 0.000562937189804, 0.000440391503549, "(0.001, 0.0, 0.0, 0.0, 0.001, 0.0, 0.0, 0.0, 0.001)", -0.275655258511, 0.0421666520293, -0.084863790197, "(0.001, 0.0, 0.0, 0.0, 0.001, 0.0, 0.0, 0.0, 0.001)"
1637149069564420494, 6952, 1636512983, 640923976, base_link, -0.00622285128909, -0.015849907284, -0.999684349403, 0.0184731729628, "(0.00023413910808505693, 0.0, 0.0, 0.0, 0.00023149971504091236, 0.0, 0.0, 0.0, 0.011324056250092751)", 0.000983458236407, -0.00201045276912, 0.000692667336251, "(0.001, 0.0, 0.0, 0.0, 0.001, 0.0, 0.0, 0.0, 0.001)", 0.170775836777, 0.0378341498643, 0.0247269387528, "(0.001, 0.0, 0.0, 0.0, 0.001, 0.0, 0.0, 0.0, 0.001)"
1637149069586087164, 6953, 1636512983, 662569999, base_link, -0.0062172510852, -0.0158566600041, -0.999684150453, 0.0184800285413, "(0.00023413910808505693, 0.0, 0.0, 0.0, 0.00023149971504091236, 0.0, 0.0, 0.0, 0.011324056250092751)", 0.000515630037225, 0.000328536347962, 0.0010254392374, "(0.001, 0.0, 0.0, 0.0, 0.001, 0.0, 0.0, 0.0, 0.001)", -0.180136836948, 0.00971107113978, -0.103448708931, "(0.001, 0.0, 0.0, 0.0, 0.001, 0.0, 0.0, 0.0, 0.001)"
1637149069604487536, 6954, 1636512983, 680681943, base_link, -0.00622251277329, -0.0158606098879, -0.999684133622, 0.0184757780192, "(0.00023413910808505693, 0.0, 0.0, 0.0, 0.00023149971504091236, 0.0, 0.0, 0.0, 0.011324056250092751)", 0.00128678317037, -0.000827387357717, -0.000129448708741, "(0.001, 0.0, 0.0, 0.0, 0.001, 0.0, 0.0, 0.0, 0.001)", 0.130136529719, -0.00557432996261, 0.120884567628, "(0.001, 0.0, 0.0, 0.0, 0.001, 0.0, 0.0, 0.0, 0.001)"
1637149069625057479, 6955, 1636512983, 701541900, base_link, -0.00623773369283, -0.0158784417118, -0.999683735168, 0.0184768885018, "(0.00023413910808505693, 0.0, 0.0, 0.0, 0.00023149971504091236, 0.0, 0.0, 0.0, 0.011324056250092751)", 0.00199314875732, -0.00128073273462, 0.000224232390939, "(0.001, 0.0, 0.0, 0.0, 0.001, 0.0, 0.0, 0.0, 0.001)", -0.310003800541, 0.0757410196731, -0.0797114312674, "(0.001, 0.0, 0.0, 0.0, 0.001, 0.0, 0.0, 0.0, 0.001)"
1637149069645422849, 6956, 1636512983, 721978902, base_link, -0.00624009520812, -0.0158791726729, -0.999683700839, 0.018477320263, "(0.00023413910808505693, 0.0, 0.0, 0.0, 0.00023149971504091236, 0.0, 0.0, 0.0, 0.011324056250092751)", 0.00185007562034, -0.00258730739475, -1.50788266914e-06, "(0.001, 0.0, 0.0, 0.0, 0.001, 0.0, 0.0, 0.0, 0.001)", 0.255695204978, 0.189543163906, 0.160207869675, "(0.001, 0.0, 0.0, 0.0, 0.001, 0.0, 0.0, 0.0, 0.001)"
1637149069664375650, 6957, 1636512983, 740979909, base_link, -0.00626227942852, -0.0158825931594, -0.999683598586, 0.0184724066959, "(0.00023413910808505693, 0.0, 0.0, 0.0, 0.00023149971504091236, 0.0, 0.0, 0.0, 0.011324056250092751)", 0.000643184671394, -0.00176003665171, -0.000311558888042, "(0.001, 0.0, 0.0, 0.0, 0.001, 0.0, 0.0, 0.0, 0.001)", -0.385542024093, 0.140201522246, -0.211587749312, "(0.001, 0.0, 0.0, 0.0, 0.001, 0.0, 0.0, 0.0, 0.001)"
1637149069684480377, 6958, 1636512983, 760932922, base_link, -0.00627925359062, -0.0159033311016, -0.999683133516, 0.0184739708236, "(0.00023413910808505693, 0.0, 0.0, 0.0, 0.00023149971504091236, 0.0, 0.0, 0.0, 0.011324056250092751)", 0.00307633996991, -0.00521674177408, -3.26615969108e-05, "(0.001, 0.0, 0.0, 0.0, 0.001, 0.0, 0.0, 0.0, 0.001)", 0.308326119375, 0.174448546549, 0.0403560487658, "(0.001, 0.0, 0.0, 0.0, 0.001, 0.0, 0.0, 0.0, 0.001)"
1637149069706610721, 6959, 1636512983, 782476902, base_link, -0.00629809704072, -0.0159257524872, -0.999682813558, 0.0184655533126, "(0.00023413910808505693, 0.0, 0.0, 0.0, 0.00023149971504091236, 0.0, 0.0, 0.0, 0.011324056250092751)", 0.00287700314352, -0.00215209550279, -0.000906203890969, "(0.001, 0.0, 0.0, 0.0, 0.001, 0.0, 0.0, 0.0, 0.001)", -0.272894025566, 0.185935968126, -0.304308777113, "(0.001, 0.0, 0.0, 0.0, 0.001, 0.0, 0.0, 0.0, 0.001)"
1637149069725619892, 6960, 1636512983, 802141904, base_link, -0.00631660333447, -0.0159784518563, -0.999681677187, 0.0184752238087, "(0.00023413910808505693, 0.0, 0.0, 0.0, 0.00023149971504091236, 0.0, 0.0, 0.0, 0.011324056250092751)", 0.00977996826555, -0.00559906070492, 0.000562695688503, "(0.001, 0.0, 0.0, 0.0, 0.001, 0.0, 0.0, 0.0, 0.001)", 0.163900497484, 0.519583787224, -0.00786273507398, "(0.001, 0.0, 0.0, 0.0, 0.001, 0.0, 0.0, 0.0, 0.001)"
1637149069747583619, 6961, 1636512983, 824122905, base_link, -0.00634422785519, -0.0160208399641, -0.999680834903, 0.0184746255095, "(0.00023413910808505693, 0.0, 0.0, 0.0, 0.00023149971504091236, 0.0, 0.0, 0.0, 0.011324056250092751)", 0.00646299830477, -0.00345274053402, 0.000338016266656, "(0.001, 0.0, 0.0, 0.0, 0.001, 0.0, 0.0, 0.0, 0.001)", -0.0985154629161, 0.333702464862, -0.293892384414, "(0.001, 0.0, 0.0, 0.0, 0.001, 0.0, 0.0, 0.0, 0.001)"
1637149069765236387, 6962, 1636512983, 841840982, base_link, -0.00634076411013, -0.0160865709991, -0.999679670112, 0.0184817236443, "(0.00023413910808505693, 0.0, 0.0, 0.0, 0.00023149971504091236, 0.0, 0.0, 0.0, 0.011324056250092751)", 0.0129834890369, -0.00276666907934, 0.00103587158186, "(0.001, 0.0, 0.0, 0.0, 0.001, 0.0, 0.0, 0.0, 0.001)", 0.20342166777, 0.578870514484, 0.0151223371692, "(0.001, 0.0, 0.0, 0.0, 0.001, 0.0, 0.0, 0.0, 0.001)"
1637149069784521929, 6963, 1636512983, 861038923, base_link, -0.00634076411013, -0.0160865709991, -0.999679670112, 0.0184817236443, "(0.00023413910808505693, 0.0, 0.0, 0.0, 0.00023149971504091236, 0.0, 0.0, 0.0, 0.011324056250092751)", 0.00926335146126, -0.00242909432671, 0.000354547905192, "(0.001, 0.0, 0.0, 0.0, 0.001, 0.0, 0.0, 0.0, 0.001)", -0.103309862964, 0.371704812902, -0.320804827784, "(0.001, 0.0, 0.0, 0.0, 0.001, 0.0, 0.0, 0.0, 0.001)"
1637149069804755458, 6964, 1636512983, 881249904, base_link, -0.00634965566927, -0.0162174435071, -0.999677330844, 0.0184908246313, "(0.00023413910808505693, 0.0, 0.0, 0.0, 0.00023149971504091236, 0.0, 0.0, 0.0, 0.011324056250092751)", 0.0166481324899, -0.000913100768989, 0.00139945763338, "(0.001, 0.0, 0.0, 0.0, 0.001, 0.0, 0.0, 0.0, 0.001)", 0.226999976993, 0.791908379201, 0.130806409362, "(0.001, 0.0, 0.0, 0.0, 0.001, 0.0, 0.0, 0.0, 0.001)"
1637149069825337622, 6965, 1636512983, 901827096, base_link, -0.00637550024116, -0.0162801487583, -0.999676043234, 0.0184964411879, "(0.00023413910808505693, 0.0, 0.0, 0.0, 0.00023149971504091236, 0.0, 0.0, 0.0, 0.011324056250092751)", 0.00967253893087, -0.00237539985883, 0.000754676521259, "(0.001, 0.0, 0.0, 0.0, 0.001, 0.0, 0.0, 0.0, 0.001)", -0.0878431853719, 0.559235887889, -0.321847637904, "(0.001, 0.0, 0.0, 0.0, 0.001, 0.0, 0.0, 0.0, 0.001)"
1637149069844088485, 6966, 1636512983, 920650005, base_link, -0.00637036611729, -0.0163584594874, -0.99967476325, 0.0184982961411, "(0.00023413910808505693, 0.0, 0.0, 0.0, 0.00023149971504091236, 0.0, 0.0, 0.0, 0.011324056250092751)", 0.0183017802891, -0.00177657376455, 0.00100854289418, "(0.001, 0.0, 0.0, 0.0, 0.001, 0.0, 0.0, 0.0, 0.001)", 0.0952145881104, 0.893595074944, 0.215383269029, "(0.001, 0.0, 0.0, 0.0, 0.001, 0.0, 0.0, 0.0, 0.001)"
1637149069865007580, 6967, 1636512983, 941615104, base_link, -0.00639306025743, -0.016433893867, -0.999673236493, 0.0185061112124, "(0.00023413910808505693, 0.0, 0.0, 0.0, 0.00023149971504091236, 0.0, 0.0, 0.0, 0.011324056250092751)", 0.0113690866686, -0.00250734165595, 0.000580864725288, "(0.001, 0.0, 0.0, 0.0, 0.001, 0.0, 0.0, 0.0, 0.001)", 0.0216574787486, 0.644958898966, -0.324728601553, "(0.001, 0.0, 0.0, 0.0, 0.001, 0.0, 0.0, 0.0, 0.001)"
1637149069885367025, 6968, 1636512983, 961880922, base_link, -0.00638270574938, -0.0165101323308, -0.999671981281, 0.0185096310101, "(0.00023413910808505693, 0.0, 0.0, 0.0, 0.00023149971504091236, 0.0, 0.0, 0.0, 0.011324056250092751)", 0.0185042472827, -0.000517719411221, 0.00156168480379, "(0.001, 0.0, 0.0, 0.0, 0.001, 0.0, 0.0, 0.0, 0.001)", -0.0612561270895, 0.954788253271, 0.250036933844, "(0.001, 0.0, 0.0, 0.0, 0.001, 0.0, 0.0, 0.0, 0.001)"
1637149069905563065, 6969, 1636512983, 981645107, base_link, -0.00639903375197, -0.0165853840585, -0.999670620173, 0.0185102286663, "(0.00023413910808505693, 0.0, 0.0, 0.0, 0.00023149971504091236, 0.0, 0.0, 0.0, 0.011324056250092751)", 0.0118326216582, -0.00213086700132, -5.21400946944e-05, "(0.001, 0.0, 0.0, 0.0, 0.001, 0.0, 0.0, 0.0, 0.001)", 0.106004239007, 0.782389552615, -0.24505525159, "(0.001, 0.0, 0.0, 0.0, 0.001, 0.0, 0.0, 0.0, 0.001)"
1637149069924288071, 6970, 1636512984, 791072, base_link, -0.00638399959723, -0.0166468581293, -0.999669862557, 0.0185011501816, "(0.00023413910808505693, 0.0, 0.0, 0.0, 0.00023149971504091236, 0.0, 0.0, 0.0, 0.011324056250092751)", 0.0162669357435, 0.000530606906561, -0.000907845338551, "(0.001, 0.0, 0.0, 0.0, 0.001, 0.0, 0.0, 0.0, 0.001)", -0.100906923682, 0.971501312603, 0.344395800322, "(0.001, 0.0, 0.0, 0.0, 0.001, 0.0, 0.0, 0.0, 0.001)"
1637149069946136886, 6971, 1636512984, 22598028, base_link, -0.00638399959723, -0.0166468581293, -0.999669862557, 0.0185011501816, "(0.00023413910808505693, 0.0, 0.0, 0.0, 0.00023149971504091236, 0.0, 0.0, 0.0, 0.011324056250092751)", 0.0109345651393, -0.00210565986414, -0.000288590616488, "(0.001, 0.0, 0.0, 0.0, 0.001, 0.0, 0.0, 0.0, 0.001)", 0.0713034197166, 0.841924299943, -0.200248761392, "(0.001, 0.0, 0.0, 0.0, 0.001, 0.0, 0.0, 0.0, 0.001)"
1637149069964002799, 6972, 1636512984, 40585041, base_link, -0.00638528240507, -0.0167458277135, -0.999668314861, 0.018495017856, "(0.00023413910808505693, 0.0, 0.0, 0.0, 0.00023149971504091236, 0.0, 0.0, 0.0, 0.011324056250092751)", 0.0120325461506, 0.000780700721441, -0.00102365817239, "(0.001, 0.0, 0.0, 0.0, 0.001, 0.0, 0.0, 0.0, 0.001)", 0.031062494482, 1.09641284157, 0.41556142503, "(0.001, 0.0, 0.0, 0.0, 0.001, 0.0, 0.0, 0.0, 0.001)"
1637149069985651751, 6973, 1636512984, 62151908, base_link, -0.00640536358847, -0.0167988703376, -0.99966737162, 0.0184909543285, "(0.00023413910808505693, 0.0, 0.0, 0.0, 0.00023149971504091236, 0.0, 0.0, 0.0, 0.011324056250092751)", 0.00783344082082, -0.00164579732836, -0.000886037514207, "(0.001, 0.0, 0.0, 0.0, 0.001, 0.0, 0.0, 0.0, 0.001)", 0.0154427967654, 0.826898577765, -0.178547315952, "(0.001, 0.0, 0.0, 0.0, 0.001, 0.0, 0.0, 0.0, 0.001)"
1637149070005366419, 6974, 1636512984, 81877946, base_link, -0.00638864920395, -0.0168180216899, -0.999667387518, 0.0184784642663, "(0.00023413910808505693, 0.0, 0.0, 0.0, 0.00023149971504091236, 0.0, 0.0, 0.0, 0.011324056250092751)", 0.00816523520566, 0.000412730973862, -0.00205674551896, "(0.001, 0.0, 0.0, 0.0, 0.001, 0.0, 0.0, 0.0, 0.001)", 0.10001439045, 1.16974568814, 0.432937154529, "(0.001, 0.0, 0.0, 0.0, 0.001, 0.0, 0.0, 0.0, 0.001)"
1637149070024672579, 6975, 1636512984, 101170063, base_link, -0.00640211103416, -0.0168617575937, -0.999666608868, 0.0184760715587, "(0.00023413910808505693, 0.0, 0.0, 0.0, 0.00023149971504091236, 0.0, 0.0, 0.0, 0.011324056250092751)", 0.00626890931828, -0.000986163723522, -0.00126288646396, "(0.001, 0.0, 0.0, 0.0, 0.001, 0.0, 0.0, 0.0, 0.001)", 0.0806396660482, 0.892969544133, -0.170631600996, "(0.001, 0.0, 0.0, 0.0, 0.001, 0.0, 0.0, 0.0, 0.001)"
1637149070044386202, 6976, 1636512984, 120918035, base_link, -0.00639125744984, -0.0168756818584, -0.999666484154, 0.0184738639303, "(0.00023413910808505693, 0.0, 0.0, 0.0, 0.00023149971504091236, 0.0, 0.0, 0.0, 0.011324056250092751)", 0.00637701522731, 0.00036581996624, -0.000526048485974, "(0.001, 0.0, 0.0, 0.0, 0.001, 0.0, 0.0, 0.0, 0.001)", 0.0376474547498, 1.19683745213, 0.419257367329, "(0.001, 0.0, 0.0, 0.0, 0.001, 0.0, 0.0, 0.0, 0.001)"
1637149070064851441, 6977, 1636512984, 141361951, base_link, -0.0063977993235, -0.0168896402257, -0.99966614666, 0.0184771057991, "(0.00023413910808505693, 0.0, 0.0, 0.0, 0.00023149971504091236, 0.0, 0.0, 0.0, 0.011324056250092751)", 0.00279083598485, -0.000532733242123, -6.57406038703e-05, "(0.001, 0.0, 0.0, 0.0, 0.001, 0.0, 0.0, 0.0, 0.001)", 0.129493601097, 0.852796407094, -0.132711956291, "(0.001, 0.0, 0.0, 0.0, 0.001, 0.0, 0.0, 0.0, 0.001)"
1637149070084067879, 6978, 1636512984, 160537004, base_link, -0.00636149667974, -0.0168912997562, -0.999666304812, 0.0184795664545, "(0.00023413910808505693, 0.0, 0.0, 0.0, 0.00023149971504091236, 0.0, 0.0, 0.0, 0.011324056250092751)", 0.00215817226003, 0.00440440545181, 0.00059490683891, "(0.001, 0.0, 0.0, 0.0, 0.001, 0.0, 0.0, 0.0, 0.001)", 0.148650840078, 1.17485021249, 0.282420809673, "(0.001, 0.0, 0.0, 0.0, 0.001, 0.0, 0.0, 0.0, 0.001)"
1637149070105848156, 6979, 1636512984, 181417942, base_link, -0.00636716066653, -0.0168980454128, -0.999666116619, 0.0184816290022, "(0.00023413910808505693, 0.0, 0.0, 0.0, 0.00023149971504091236, 0.0, 0.0, 0.0, 0.011324056250092751)", 0.000964011919886, 0.000856158702296, 0.000131726367039, "(0.001, 0.0, 0.0, 0.0, 0.001, 0.0, 0.0, 0.0, 0.001)", 0.0359651314656, 0.886188712102, -0.241159377578, "(0.001, 0.0, 0.0, 0.0, 0.001, 0.0, 0.0, 0.0, 0.001)"
1637149070124545034, 6980, 1636512984, 201004981, base_link, -0.00632929917353, -0.0169025048836, -0.999666221883, 0.0184848620899, "(0.00023413910808505693, 0.0, 0.0, 0.0, 0.00023149971504091236, 0.0, 0.0, 0.0, 0.011324056250092751)", 0.00187669011694, 0.00480191454663, 0.000807979306589, "(0.001, 0.0, 0.0, 0.0, 0.001, 0.0, 0.0, 0.0, 0.001)", 0.218599222037, 1.20868956498, 0.268263176602, "(0.001, 0.0, 0.0, 0.0, 0.001, 0.0, 0.0, 0.0, 0.001)"
1637149070148959072, 6981, 1636512984, 222562074, base_link, -0.00631661573512, -0.0169137319015, -0.999665940681, 0.0184941363747, "(0.00023413910808505693, 0.0, 0.0, 0.0, 0.00023149971504091236, 0.0, 0.0, 0.0, 0.011324056250092751)", 0.00126033946892, 0.00284661481837, 0.000857848321564, "(0.001, 0.0, 0.0, 0.0, 0.001, 0.0, 0.0, 0.0, 0.001)", -0.052874634971, 0.951850448265, -0.197037718768, "(0.001, 0.0, 0.0, 0.0, 0.001, 0.0, 0.0, 0.0, 0.001)"
1637149070164445784, 6982, 1636512984, 241004943, base_link, -0.0062815837068, -0.0169045695798, -0.999666295417, 0.0184952707834, "(0.00023413910808505693, 0.0, 0.0, 0.0, 0.00023149971504091236, 0.0, 0.0, 0.0, 0.011324056250092751)", 0.000525664622285, 0.00594754254513, 0.00125314392402, "(0.001, 0.0, 0.0, 0.0, 0.001, 0.0, 0.0, 0.0, 0.001)", 0.123579088539, 1.25571679661, 0.240200174736, "(0.001, 0.0, 0.0, 0.0, 0.001, 0.0, 0.0, 0.0, 0.001)"
1637149070185231928, 6983, 1636512984, 261727094, base_link, -0.00626297230017, -0.0168990836561, -0.999666449393, 0.018498273076, "(0.00023413910808505693, 0.0, 0.0, 0.0, 0.00023149971504091236, 0.0, 0.0, 0.0, 0.011324056250092751)", -0.000636621385803, 0.00396155738661, 6.95758661386e-05, "(0.001, 0.0, 0.0, 0.0, 0.001, 0.0, 0.0, 0.0, 0.001)", -0.00566211283849, 0.858417249435, -0.222426581449, "(0.001, 0.0, 0.0, 0.0, 0.001, 0.0, 0.0, 0.0, 0.001)"
1637149070205098663, 6984, 1636512984, 280582904, base_link, -0.00623470628829, -0.016888815236, -0.999666810286, 0.0184976963492, "(0.00023413910808505693, 0.0, 0.0, 0.0, 0.00023149971504091236, 0.0, 0.0, 0.0, 0.011324056250092751)", -0.00128888528834, 0.00569088813651, 0.000550532660345, "(0.001, 0.0, 0.0, 0.0, 0.001, 0.0, 0.0, 0.0, 0.001)", 0.00586807996241, 1.285437141, 0.132202270049, "(0.001, 0.0, 0.0, 0.0, 0.001, 0.0, 0.0, 0.0, 0.001)"
1637149070229312461, 6985, 1636512984, 305548906, base_link, -0.00622399611619, -0.0168887160835, -0.999666769781, 0.018503581711, "(0.00023413910808505693, 0.0, 0.0, 0.0, 0.00023149971504091236, 0.0, 0.0, 0.0, 0.011324056250092751)", -0.000989015764864, 0.00268577752569, 0.000150602546891, "(0.001, 0.0, 0.0, 0.0, 0.001, 0.0, 0.0, 0.0, 0.001)", -0.00541050486635, 0.917797632074, -0.222248555791, "(0.001, 0.0, 0.0, 0.0, 0.001, 0.0, 0.0, 0.0, 0.001)"
1637149070246538688, 6986, 1636512984, 323012113, base_link, -0.00618562428721, -0.0168801311142, -0.999667325863, 0.0184942376955, "(0.0005460731328771375, 0.0, 0.0, 0.0, 0.000543491750689299, 0.0, 0.0, 0.0, 0.0116655214672301)", -0.000672772223029, 0.00653337523929, -0.00081239596072, "(0.001, 0.0, 0.0, 0.0, 0.001, 0.0, 0.0, 0.0, 0.001)", -0.0742820650847, 1.28512972576, 0.153038142984, "(0.001, 0.0, 0.0, 0.0, 0.001, 0.0, 0.0, 0.0, 0.001)"
1637149070264943878, 6987, 1636512984, 341456890, base_link, -0.00618509659812, -0.0168941006043, -0.999667207213, 0.018488070965, "(0.0005460729587704362, 0.0, 0.0, 0.0, 0.0005434876688712453, 0.0, 0.0, 0.0, 0.01166546352780884)", 0.000513530214823, 0.00230810091014, -0.000944741315279, "(0.001, 0.0, 0.0, 0.0, 0.001, 0.0, 0.0, 0.0, 0.001)", -0.0693089451472, 0.806548329819, -0.267047036775, "(0.001, 0.0, 0.0, 0.0, 0.001, 0.0, 0.0, 0.0, 0.001)"
1637149070285119053, 6988, 1636512984, 361666917, base_link, -0.00615009663622, -0.0168771200899, -0.999667922178, 0.0184765932269, "(0.0005460729587704362, 0.0, 0.0, 0.0, 0.0005434876688712453, 0.0, 0.0, 0.0, 0.01166546352780884)", -0.00101528978351, 0.0052174969554, -0.00206098479649, "(0.001, 0.0, 0.0, 0.0, 0.001, 0.0, 0.0, 0.0, 0.001)", 0.0663289805712, 1.31328438275, 0.218281702835, "(0.001, 0.0, 0.0, 0.0, 0.001, 0.0, 0.0, 0.0, 0.001)"
1637149070305973889, 6989, 1636512984, 381927013, base_link, -0.0061383241031, -0.0168722599108, -0.999668109336, 0.0184748206979, "(0.0005460729587704362, 0.0, 0.0, 0.0, 0.0005434876688712453, 0.0, 0.0, 0.0, 0.01166546352780884)", -0.00132598533725, 0.0031883965025, -0.00104733520966, "(0.001, 0.0, 0.0, 0.0, 0.001, 0.0, 0.0, 0.0, 0.001)", -0.014845643899, 0.791950054206, -0.168083649293, "(0.001, 0.0, 0.0, 0.0, 0.001, 0.0, 0.0, 0.0, 0.001)"
1637149070324191861, 6990, 1636512984, 400625944, base_link, -0.00611643665134, -0.0168459756757, -0.999668863201, 0.0184652715246, "(0.0005460729587704362, 0.0, 0.0, 0.0, 0.0005434876688712453, 0.0, 0.0, 0.0, 0.01166546352780884)", -0.00339865469864, 0.00408713596029, -0.00142708401774, "(0.001, 0.0, 0.0, 0.0, 0.001, 0.0, 0.0, 0.0, 0.001)", 0.0269098436992, 1.27268428036, 0.322308733307, "(0.001, 0.0, 0.0, 0.0, 0.001, 0.0, 0.0, 0.0, 0.001)"
1637149070345284754, 6991, 1636512984, 421814918, base_link, -0.00611164610557, -0.0168203572492, -0.999669409006, 0.0184606625404, "(0.0005460729587704362, 0.0, 0.0, 0.0, 0.0005434876688712453, 0.0, 0.0, 0.0, 0.01166546352780884)", -0.00389496087434, 0.00192647377553, -0.00128005077865, "(0.001, 0.0, 0.0, 0.0, 0.001, 0.0, 0.0, 0.0, 0.001)", 0.118299822076, 0.795505286348, -0.15403603561, "(0.001, 0.0, 0.0, 0.0, 0.001, 0.0, 0.0, 0.0, 0.001)"
1637149070364207270, 6992, 1636512984, 440663099, base_link, -0.00608888270568, -0.0167736793787, -0.999670521932, 0.0184503866769, "(0.0005460729587704362, 0.0, 0.0, 0.0, 0.0005434876688712453, 0.0, 0.0, 0.0, 0.01166546352780884)", -0.00861213687849, 0.00423386314681, -0.00169421907171, "(0.001, 0.0, 0.0, 0.0, 0.001, 0.0, 0.0, 0.0, 0.001)", -0.0756215256264, 0.983635370735, 0.241386193516, "(0.001, 0.0, 0.0, 0.0, 0.001, 0.0, 0.0, 0.0, 0.001)"
1637149070385372541, 6993, 1636512984, 461841106, base_link, -0.0060766647911, -0.0167375632224, -0.999671108502, 0.01845543144, "(0.0005460729587704362, 0.0, 0.0, 0.0, 0.0005434876688712453, 0.0, 0.0, 0.0, 0.01166546352780884)", -0.00582554373285, 0.00235099849082, -0.000194409086058, "(0.001, 0.0, 0.0, 0.0, 0.001, 0.0, 0.0, 0.0, 0.001)", 0.27887334962, 0.775852955803, -0.233652540424, "(0.001, 0.0, 0.0, 0.0, 0.001, 0.0, 0.0, 0.0, 0.001)"
1637149070405639124, 6994, 1636512984, 481230974, base_link, -0.00603180057699, -0.0166913375326, -0.999672218893, 0.0184518673003, "(0.0005460729587704362, 0.0, 0.0, 0.0, 0.0005434876688712453, 0.0, 0.0, 0.0, 0.01166546352780884)", -0.0104462760756, 0.00772985169303, -0.000307908806561, "(0.001, 0.0, 0.0, 0.0, 0.001, 0.0, 0.0, 0.0, 0.001)", -0.0646593644839, 0.95809700978, 0.139560030476, "(0.001, 0.0, 0.0, 0.0, 0.001, 0.0, 0.0, 0.0, 0.001)"
1637149070424488836, 6995, 1636512984, 500844955, base_link, -0.00601874634053, -0.0166681775745, -0.99967264306, 0.0184540853444, "(0.0005460729587704362, 0.0, 0.0, 0.0, 0.0005434876688712453, 0.0, 0.0, 0.0, 0.01166546352780884)", -0.00442527569815, 0.00352056684552, -2.22362712694e-05, "(0.001, 0.0, 0.0, 0.0, 0.001, 0.0, 0.0, 0.0, 0.001)", 0.184221519721, 0.762533377214, -0.343879023267, "(0.001, 0.0, 0.0, 0.0, 0.001, 0.0, 0.0, 0.0, 0.001)"
1637149070444231861, 6996, 1636512984, 520785093, base_link, -0.00597507202044, -0.0166362454357, -0.999673639849, 0.0184430920368, "(0.0005460729587704362, 0.0, 0.0, 0.0, 0.0005434876688712453, 0.0, 0.0, 0.0, 0.01166546352780884)", -0.00773296078226, 0.00783496725015, -0.00149064794062, "(0.001, 0.0, 0.0, 0.0, 0.001, 0.0, 0.0, 0.0, 0.001)", -0.056114360371, 1.02523969116, 0.128780366312, "(0.001, 0.0, 0.0, 0.0, 0.001, 0.0, 0.0, 0.0, 0.001)"
1637149070466622983, 6997, 1636512984, 543067932, base_link, -0.00595296601226, -0.0166134249106, -0.999674065116, 0.0184477598126, "(0.0005460729587704362, 0.0, 0.0, 0.0, 0.0005434876688712453, 0.0, 0.0, 0.0, 0.01166546352780884)", -0.00405224373455, 0.00445574660678, 6.51977924861e-05, "(0.001, 0.0, 0.0, 0.0, 0.001, 0.0, 0.0, 0.0, 0.001)", 0.103471364033, 0.711707602009, -0.384807259505, "(0.001, 0.0, 0.0, 0.0, 0.001, 0.0, 0.0, 0.0, 0.001)"
1637149070485080014, 6998, 1636512984, 561614990, base_link, -0.0059162270722, -0.016601818191, -0.999674780978, 0.0184312280424, "(0.0005460729587704362, 0.0, 0.0, 0.0, 0.0005434876688712453, 0.0, 0.0, 0.0, 0.01166546352780884)", -0.0035046280415, 0.00784992956663, -0.00204757035172, "(0.001, 0.0, 0.0, 0.0, 0.001, 0.0, 0.0, 0.0, 0.001)", -0.0894506159251, 1.08399183684, 0.131903976832, "(0.001, 0.0, 0.0, 0.0, 0.001, 0.0, 0.0, 0.0, 0.001)"
1637149070506171637, 6999, 1636512984, 581495046, base_link, -0.00589034560931, -0.0165868238723, -0.999675342169, 0.0184225775248, "(0.0005460729587704362, 0.0, 0.0, 0.0, 0.0005434876688712453, 0.0, 0.0, 0.0, 0.01166546352780884)", -0.00277783629505, 0.00442580314208, -0.0016065839939, "(0.001, 0.0, 0.0, 0.0, 0.001, 0.0, 0.0, 0.0, 0.001)", 0.113808393766, 0.696107409284, -0.314176308557, "(0.001, 0.0, 0.0, 0.0, 0.001, 0.0, 0.0, 0.0, 0.001)"
1637149070528171848, 7000, 1636512984, 604593038, base_link, -0.00588519023824, -0.0165704457464, -0.999675829217, 0.018412532209, "(0.0005460729587704362, 0.0, 0.0, 0.0, 0.0005434876688712453, 0.0, 0.0, 0.0, 0.01166546352780884)", -0.0035626892347, 0.00407239020722, -0.00248834595003, "(0.001, 0.0, 0.0, 0.0, 0.001, 0.0, 0.0, 0.0, 0.001)", -0.220740249275, 1.18172792513, 0.237776566416, "(0.001, 0.0, 0.0, 0.0, 0.001, 0.0, 0.0, 0.0, 0.001)"
1637149070545352428, 7001, 1636512984, 621835947, base_link, -0.00587132855835, -0.0165549819714, -0.999676395177, 0.0184001358266, "(0.0005460729587704362, 0.0, 0.0, 0.0, 0.0005434876688712453, 0.0, 0.0, 0.0, 0.01166546352780884)", -0.00272595330721, 0.00200524643712, -0.00174359651667, "(0.001, 0.0, 0.0, 0.0, 0.001, 0.0, 0.0, 0.0, 0.001)", 0.208295875633, 0.818731135322, -0.19918149346, "(0.001, 0.0, 0.0, 0.0, 0.001, 0.0, 0.0, 0.0, 0.001)"
1637149070564318588, 7002, 1636512984, 640933036, base_link, -0.00586239775202, -0.0165261638154, -0.999677385155, 0.0183750867216, "(0.0005460729587704362, 0.0, 0.0, 0.0, 0.0005434876688712453, 0.0, 0.0, 0.0, 0.01166546352780884)", -0.00554442787549, 0.00305548283623, -0.00452764930112, "(0.001, 0.0, 0.0, 0.0, 0.001, 0.0, 0.0, 0.0, 0.001)", -0.271827661775, 1.13356673068, 0.144206911542, "(0.001, 0.0, 0.0, 0.0, 0.001, 0.0, 0.0, 0.0, 0.001)"
1637149070586011859, 7003, 1636512984, 662455081, base_link, -0.00586054738257, -0.0164977869505, -0.999678178196, 0.0183580241054, "(0.0005460729587704362, 0.0, 0.0, 0.0, 0.0005434876688712453, 0.0, 0.0, 0.0, 0.01166546352780884)", -0.00433287569795, 0.000418614537855, -0.00292507797582, "(0.001, 0.0, 0.0, 0.0, 0.001, 0.0, 0.0, 0.0, 0.001)", 0.20219059078, 0.771528625738, -0.0833143199234, "(0.001, 0.0, 0.0, 0.0, 0.001, 0.0, 0.0, 0.0, 0.001)"
1637149070604821627, 7004, 1636512984, 680572032, base_link, -0.00586054738257, -0.0164977869505, -0.999678178196, 0.0183580241054, "(0.0005460729587704362, 0.0, 0.0, 0.0, 0.0005434876688712453, 0.0, 0.0, 0.0, 0.01166546352780884)", -0.00665340632865, 0.00392236228411, -0.00546498538648, "(0.001, 0.0, 0.0, 0.0, 0.001, 0.0, 0.0, 0.0, 0.001)", -0.115941681758, 1.24224858748, 0.0929933167803, "(0.001, 0.0, 0.0, 0.0, 0.001, 0.0, 0.0, 0.0, 0.001)"
1637149070625079709, 7005, 1636512984, 701647043, base_link, -0.00582030638419, -0.0164273973825, -0.999680443359, 0.0183105383294, "(0.0005460729587704362, 0.0, 0.0, 0.0, 0.0005434876688712453, 0.0, 0.0, 0.0, 0.01166546352780884)", -0.00590845442133, 0.00241298848561, -0.00360450109202, "(0.001, 0.0, 0.0, 0.0, 0.001, 0.0, 0.0, 0.0, 0.001)", 0.14916260057, 0.821024376565, -0.000442445096603, "(0.001, 0.0, 0.0, 0.0, 0.001, 0.0, 0.0, 0.0, 0.001)"
1637149070645191193, 7006, 1636512984, 721762895, base_link, -0.00580394027711, -0.0163660020666, -0.999682157007, 0.0182771227559, "(0.0005460729587704362, 0.0, 0.0, 0.0, 0.0005434876688712453, 0.0, 0.0, 0.0, 0.01166546352780884)", -0.0114754566795, 0.00395480690195, -0.00684107752634, "(0.001, 0.0, 0.0, 0.0, 0.001, 0.0, 0.0, 0.0, 0.001)", -0.111395343571, 1.14712268388, -0.0347192555598, "(0.001, 0.0, 0.0, 0.0, 0.001, 0.0, 0.0, 0.0, 0.001)"
1637149070664430710, 7007, 1636512984, 740823030, base_link, -0.00580394027711, -0.0163660020666, -0.999682157007, 0.0182771227559, "(0.0005460729587704362, 0.0, 0.0, 0.0, 0.0005434876688712453, 0.0, 0.0, 0.0, 0.01166546352780884)", -0.00553075150041, 0.003299439808, -0.00390951382263, "(0.001, 0.0, 0.0, 0.0, 0.001, 0.0, 0.0, 0.0, 0.001)", 0.185619805519, 0.801222775173, 0.0378284154261, "(0.001, 0.0, 0.0, 0.0, 0.001, 0.0, 0.0, 0.0, 0.001)"
1637149070684595726, 7008, 1636512984, 761090040, base_link, -0.00576989124452, -0.0162846251139, -0.999684712804, 0.0182207114345, "(0.0005460729587704362, 0.0, 0.0, 0.0, 0.0005434876688712453, 0.0, 0.0, 0.0, 0.01166546352780884)", -0.0115836474091, 0.00459944412015, -0.00728413465909, "(0.001, 0.0, 0.0, 0.0, 0.001, 0.0, 0.0, 0.0, 0.001)", -0.0872327788814, 1.14602805561, -0.0788845227883, "(0.001, 0.0, 0.0, 0.0, 0.001, 0.0, 0.0, 0.0, 0.001)"
1637149070706737332, 7009, 1636512984, 782299995, base_link, -0.00574242876497, -0.016252112819, -0.999685944944, 0.0181907894864, "(0.0005460729587704362, 0.0, 0.0, 0.0, 0.0005434876688712453, 0.0, 0.0, 0.0, 0.01166546352780884)", -0.0061130889719, 0.00296126267484, -0.00475178832327, "(0.001, 0.0, 0.0, 0.0, 0.001, 0.0, 0.0, 0.0, 0.001)", 0.154710273539, 0.714311885867, 0.145555797532, "(0.001, 0.0, 0.0, 0.0, 0.001, 0.0, 0.0, 0.0, 0.001)"
1637149070726230358, 7010, 1636512984, 802099943, base_link, -0.00574204212324, -0.0162106781616, -0.999687285948, 0.0181541504991, "(0.0005460729587704362, 0.0, 0.0, 0.0, 0.0005434876688712453, 0.0, 0.0, 0.0, 0.01166546352780884)", -0.00963867600658, 0.0029520112705, -0.00822254277978, "(0.001, 0.0, 0.0, 0.0, 0.001, 0.0, 0.0, 0.0, 0.001)", -0.0900166344835, 1.04090123828, -0.239851649859, "(0.001, 0.0, 0.0, 0.0, 0.001, 0.0, 0.0, 0.0, 0.001)"
1637149070744880874, 7011, 1636512984, 821332931, base_link, -0.0057202661924, -0.0161915343753, -0.999688220487, 0.0181266265381, "(0.0005460729587704362, 0.0, 0.0, 0.0, 0.0005434876688712453, 0.0, 0.0, 0.0, 0.01166546352780884)", -0.0045114159713, 0.00207469918678, -0.00463938715386, "(0.001, 0.0, 0.0, 0.0, 0.001, 0.0, 0.0, 0.0, 0.001)", 0.213725785635, 0.70140196053, 0.185862961279, "(0.001, 0.0, 0.0, 0.0, 0.001, 0.0, 0.0, 0.0, 0.001)"
1637149070765536716, 7012, 1636512984, 842000961, base_link, -0.00570343757405, -0.0161510604658, -0.999689681838, 0.0180874009042, "(0.0005460729587704362, 0.0, 0.0, 0.0, 0.0005434876688712453, 0.0, 0.0, 0.0, 0.01166546352780884)", -0.00835052344927, 0.00480819199223, -0.00859921006298, "(0.001, 0.0, 0.0, 0.0, 0.001, 0.0, 0.0, 0.0, 0.001)", 0.0373184911009, 0.927467151601, -0.30500028811, "(0.001, 0.0, 0.0, 0.0, 0.001, 0.0, 0.0, 0.0, 0.001)"
1637149070785215090, 7013, 1636512984, 861675977, base_link, -0.00566981431903, -0.0161359840591, -0.999690825673, 0.0180481657974, "(0.0005460729587704362, 0.0, 0.0, 0.0, 0.0005434876688712453, 0.0, 0.0, 0.0, 0.01166546352780884)", -0.00336375034685, 0.00395995403582, -0.00585302193432, "(0.001, 0.0, 0.0, 0.0, 0.001, 0.0, 0.0, 0.0, 0.001)", 0.164759821206, 0.627391380151, 0.20630842054, "(0.001, 0.0, 0.0, 0.0, 0.001, 0.0, 0.0, 0.0, 0.001)"
1637149070804933124, 7014, 1636512984, 881139039, base_link, -0.0056596288838, -0.0161084195542, -0.999692139096, 0.0180031788655, "(0.0005460729587704362, 0.0, 0.0, 0.0, 0.0005434876688712453, 0.0, 0.0, 0.0, 0.01166546352780884)", -0.0062918932719, 0.00485850601709, -0.0101975516304, "(0.001, 0.0, 0.0, 0.0, 0.001, 0.0, 0.0, 0.0, 0.001)", -0.0135550737578, 1.09619907764, -0.36602417095, "(0.001, 0.0, 0.0, 0.0, 0.001, 0.0, 0.0, 0.0, 0.001)"
1637149070824785860, 7015, 1636512984, 901289939, base_link, -0.00563931828429, -0.0160906041227, -0.99969341386, 0.0179546326124, "(0.0005460729587704362, 0.0, 0.0, 0.0, 0.0005434876688712453, 0.0, 0.0, 0.0, 0.01166546352780884)", -0.00253279336757, 0.00261187147581, -0.00729997077304, "(0.001, 0.0, 0.0, 0.0, 0.001, 0.0, 0.0, 0.0, 0.001)", -0.0323544703362, 0.634378348418, 0.251654577188, "(0.001, 0.0, 0.0, 0.0, 0.001, 0.0, 0.0, 0.0, 0.001)"
1637149070844342907, 7016, 1636512984, 920821905, base_link, -0.00563436793401, -0.0160683631771, -0.999694917055, 0.0178923004892, "(0.0005460729587704362, 0.0, 0.0, 0.0, 0.0005434876688712453, 0.0, 0.0, 0.0, 0.01166546352780884)", -0.00569528930377, 0.00275918450662, -0.0131931682089, "(0.001, 0.0, 0.0, 0.0, 0.001, 0.0, 0.0, 0.0, 0.001)", 0.050561317341, 1.13566127768, -0.362933555604, "(0.001, 0.0, 0.0, 0.0, 0.001, 0.0, 0.0, 0.0, 0.001)"
1637149070865237725, 7017, 1636512984, 941720008, base_link, -0.0056071476275, -0.0160348746571, -0.999696832205, 0.0178237585584, "(0.0005460729587704362, 0.0, 0.0, 0.0, 0.0005434876688712453, 0.0, 0.0, 0.0, 0.01166546352780884)", -0.0038908407448, 0.00302257254399, -0.0101264386192, "(0.001, 0.0, 0.0, 0.0, 0.001, 0.0, 0.0, 0.0, 0.001)", -0.113997323806, 0.712093669877, 0.35997035917, "(0.001, 0.0, 0.0, 0.0, 0.001, 0.0, 0.0, 0.0, 0.001)"
1637149070887921305, 7018, 1636512984, 962332963, base_link, -0.00560829088326, -0.0160052177968, -0.999698656097, 0.01774759348, "(0.0005460729587704362, 0.0, 0.0, 0.0, 0.0005434876688712453, 0.0, 0.0, 0.0, 0.01166546352780884)", -0.00751405222859, 0.0022285867751, -0.0172626975598, "(0.001, 0.0, 0.0, 0.0, 0.001, 0.0, 0.0, 0.0, 0.001)", 0.0415570559305, 1.10740399187, -0.401660530754, "(0.001, 0.0, 0.0, 0.0, 0.001, 0.0, 0.0, 0.0, 0.001)"
1637149070904786782, 7019, 1636512984, 981317043, base_link, -0.00557285999759, -0.0159628650567, -0.999701224127, 0.0176519871412, "(0.0005460729587704362, 0.0, 0.0, 0.0, 0.0005434876688712453, 0.0, 0.0, 0.0, 0.01166546352780884)", -0.00546249916448, 0.00338374517351, -0.0137069540593, "(0.001, 0.0, 0.0, 0.0, 0.001, 0.0, 0.0, 0.0, 0.001)", -0.112661675312, 0.721739426978, 0.388829744635, "(0.001, 0.0, 0.0, 0.0, 0.001, 0.0, 0.0, 0.0, 0.001)"
1637149070925141457, 7020, 1636512985, 1674890, base_link, -0.00556891750043, -0.0159196597888, -0.999703614285, 0.0175566276792, "(0.0005460729587704362, 0.0, 0.0, 0.0, 0.0005434876688712453, 0.0, 0.0, 0.0, 0.01166546352780884)", -0.0105523932457, 0.00360671188546, -0.0223710671689, "(0.001, 0.0, 0.0, 0.0, 0.001, 0.0, 0.0, 0.0, 0.001)", 0.0642014888642, 1.19175174029, -0.3345690713, "(0.001, 0.0, 0.0, 0.0, 0.001, 0.0, 0.0, 0.0, 0.001)"
1637149070945568545, 7021, 1636512985, 22042036, base_link, -0.00554765528155, -0.015872934085, -0.999706437289, 0.0174445615212, "(0.0005460729587704362, 0.0, 0.0, 0.0, 0.0005434876688712453, 0.0, 0.0, 0.0, 0.01166546352780884)", -0.00648086554443, 0.00266754832639, -0.0165816783159, "(0.001, 0.0, 0.0, 0.0, 0.001, 0.0, 0.0, 0.0, 0.001)", -0.224251512152, 0.748751885606, 0.348158248637, "(0.001, 0.0, 0.0, 0.0, 0.001, 0.0, 0.0, 0.0, 0.001)"
1637149070964263085, 7022, 1636512985, 40762901, base_link, -0.00553862235807, -0.015834369725, -0.999709010979, 0.0173346406109, "(0.0005460729587704362, 0.0, 0.0, 0.0, 0.0005434876688712453, 0.0, 0.0, 0.0, 0.01166546352780884)", -0.0106029035529, 0.00294818680702, -0.0262705011676, "(0.001, 0.0, 0.0, 0.0, 0.001, 0.0, 0.0, 0.0, 0.001)", 0.243755999442, 1.12601399267, -0.403609529703, "(0.001, 0.0, 0.0, 0.0, 0.001, 0.0, 0.0, 0.0, 0.001)"
1637149070985002707, 7023, 1636512985, 61650037, base_link, -0.00552051944508, -0.0157748767032, -0.999712136047, 0.0172140108978, "(0.0005460729587704362, 0.0, 0.0, 0.0, 0.0005434876688712453, 0.0, 0.0, 0.0, 0.01166546352780884)", -0.0080422333767, 0.00238954761603, -0.0183491005408, "(0.001, 0.0, 0.0, 0.0, 0.001, 0.0, 0.0, 0.0, 0.001)", -0.268470055935, 0.714430306663, 0.301964809286, "(0.001, 0.0, 0.0, 0.0, 0.001, 0.0, 0.0, 0.0, 0.001)"
1637149071008493206, 7024, 1636512985, 81700086, base_link, -0.00551901913225, -0.0157323232646, -0.999714786546, 0.0170991226295, "(0.0005460729587704362, 0.0, 0.0, 0.0, 0.0005434876688712453, 0.0, 0.0, 0.0, 0.01166546352780884)", -0.011906025886, 0.00120733476701, -0.0278719032966, "(0.001, 0.0, 0.0, 0.0, 0.001, 0.0, 0.0, 0.0, 0.001)", 0.355799901993, 1.01545754167, -0.200819029711, "(0.001, 0.0, 0.0, 0.0, 0.001, 0.0, 0.0, 0.0, 0.001)"
1637149071024700980, 7025, 1636512985, 101224899, base_link, -0.00550427530411, -0.0156871332268, -0.999717875124, 0.0169642848784, "(0.0005460729587704362, 0.0, 0.0, 0.0, 0.0005434876688712453, 0.0, 0.0, 0.0, 0.01166546352780884)", -0.00763506999439, 0.00213742759049, -0.0203260969372, "(0.001, 0.0, 0.0, 0.0, 0.001, 0.0, 0.0, 0.0, 0.001)", -0.240766264272, 0.657422845106, 0.310252216525, "(0.001, 0.0, 0.0, 0.0, 0.001, 0.0, 0.0, 0.0, 0.001)"
1637149071044463791, 7026, 1636512985, 120747089, base_link, -0.00551570855488, -0.0156372655683, -0.999720701579, 0.0168395878664, "(0.0005460729587704362, 0.0, 0.0, 0.0, 0.0005434876688712453, 0.0, 0.0, 0.0, 0.01166546352780884)", -0.0115897136308, -0.00077683050038, -0.0301388460666, "(0.001, 0.0, 0.0, 0.0, 0.001, 0.0, 0.0, 0.0, 0.001)", 0.321727243741, 1.06873524927, -0.0822133341629, "(0.001, 0.0, 0.0, 0.0, 0.001, 0.0, 0.0, 0.0, 0.001)"
1637149071064995751, 7027, 1636512985, 141505956, base_link, -0.00550987835722, -0.0155839572503, -0.999723907136, 0.0167000304752, "(0.0005460729587704362, 0.0, 0.0, 0.0, 0.0005434876688712453, 0.0, 0.0, 0.0, 0.01166546352780884)", -0.0082915070128, 0.000543544112286, -0.0216784762222, "(0.001, 0.0, 0.0, 0.0, 0.001, 0.0, 0.0, 0.0, 0.001)", -0.224827226508, 0.644751885567, 0.226850252018, "(0.001, 0.0, 0.0, 0.0, 0.001, 0.0, 0.0, 0.0, 0.001)"
1637149071084459406, 7028, 1636512985, 160839080, base_link, -0.00552773217398, -0.0155381931676, -0.999726728204, 0.0165673668375, "(0.0005460729587704362, 0.0, 0.0, 0.0, 0.0005434876688712453, 0.0, 0.0, 0.0, 0.01166546352780884)", -0.0122728323352, -0.00266164805942, -0.0319263045652, "(0.001, 0.0, 0.0, 0.0, 0.001, 0.0, 0.0, 0.0, 0.001)", 0.299171265696, 0.932223620766, -0.107365553043, "(0.001, 0.0, 0.0, 0.0, 0.001, 0.0, 0.0, 0.0, 0.001)"
1637149071106245977, 7029, 1636512985, 181755065, base_link, -0.00551090045761, -0.015470717818, -0.999730279717, 0.0164211657369, "(0.0005460729587704362, 0.0, 0.0, 0.0, 0.0005434876688712453, 0.0, 0.0, 0.0, 0.01166546352780884)", -0.00916884441095, 0.00106950771295, -0.02266622198, "(0.001, 0.0, 0.0, 0.0, 0.001, 0.0, 0.0, 0.0, 0.001)", -0.115032509537, 0.638804968663, 0.179978080946, "(0.001, 0.0, 0.0, 0.0, 0.001, 0.0, 0.0, 0.0, 0.001)"
1637149071125440513, 7030, 1636512985, 202038049, base_link, -0.0055127399554, -0.0154271410698, -0.999733444377, 0.0162681655418, "(0.0005460729587704362, 0.0, 0.0, 0.0, 0.0005434876688712453, 0.0, 0.0, 0.0, 0.01166546352780884)", -0.0127016147719, -0.000197476127047, -0.0353699323369, "(0.001, 0.0, 0.0, 0.0, 0.001, 0.0, 0.0, 0.0, 0.001)", 0.255562212565, 0.914997086194, -0.118962563773, "(0.001, 0.0, 0.0, 0.0, 0.001, 0.0, 0.0, 0.0, 0.001)"
1637149071145007294, 7031, 1636512985, 221438884, base_link, -0.00550187523849, -0.0153620562229, -0.999737196528, 0.0161020022587, "(0.0005460729587704362, 0.0, 0.0, 0.0, 0.0005434876688712453, 0.0, 0.0, 0.0, 0.01166546352780884)", -0.00949116945555, 0.00158194942428, -0.0256351820445, "(0.001, 0.0, 0.0, 0.0, 0.001, 0.0, 0.0, 0.0, 0.001)", -0.165707218063, 0.686443193539, 0.108601781576, "(0.001, 0.0, 0.0, 0.0, 0.001, 0.0, 0.0, 0.0, 0.001)"
1637149071164951308, 7032, 1636512985, 241404056, base_link, -0.0054842425366, -0.0152995406171, -0.999740955389, 0.0159332751686, "(0.0005460729587704362, 0.0, 0.0, 0.0, 0.0005434876688712453, 0.0, 0.0, 0.0, 0.01166546352780884)", -0.0149699558059, 0.00251630732747, -0.039382744801, "(0.001, 0.0, 0.0, 0.0, 0.001, 0.0, 0.0, 0.0, 0.001)", 0.208025052607, 0.901044774551, -0.00325519802389, "(0.001, 0.0, 0.0, 0.0, 0.001, 0.0, 0.0, 0.0, 0.001)"
1637149071185896272, 7033, 1636512985, 262428045, base_link, -0.00547928176082, -0.0152400167421, -0.999744829342, 0.0157478749522, "(0.0005460729587704362, 0.0, 0.0, 0.0, 0.0005434876688712453, 0.0, 0.0, 0.0, 0.01166546352780884)", -0.00969296891852, 0.00159119152366, -0.0286829673696, "(0.001, 0.0, 0.0, 0.0, 0.001, 0.0, 0.0, 0.0, 0.001)", -0.23097816143, 0.58075678637, -0.0028769338646, "(0.001, 0.0, 0.0, 0.0, 0.001, 0.0, 0.0, 0.0, 0.001)"
1637149071204795390, 7034, 1636512985, 280694961, base_link, -0.00545864740764, -0.0151772902884, -0.999748781968, 0.0155636108303, "(0.0005460729587704362, 0.0, 0.0, 0.0, 0.0005434876688712453, 0.0, 0.0, 0.0, 0.01166546352780884)", -0.0151480347322, 0.00263586318091, -0.043441317392, "(0.001, 0.0, 0.0, 0.0, 0.001, 0.0, 0.0, 0.0, 0.001)", 0.18095307996, 1.00347011176, 0.0677455619825, "(0.001, 0.0, 0.0, 0.0, 0.001, 0.0, 0.0, 0.0, 0.001)"
1637149071228577931, 7035, 1636512985, 305111885, base_link, -0.00546556637425, -0.0151017017051, -0.999753147414, 0.0153528637421, "(0.0005460729587704362, 0.0, 0.0, 0.0, 0.0005434876688712453, 0.0, 0.0, 0.0, 0.01166546352780884)", -0.0114818318592, 0.00057670232752, -0.0320810645496, "(0.001, 0.0, 0.0, 0.0, 0.001, 0.0, 0.0, 0.0, 0.001)", -0.240323456878, 0.618986626875, -0.15136705978, "(0.001, 0.0, 0.0, 0.0, 0.001, 0.0, 0.0, 0.0, 0.001)"
1637149071246352895, 7036, 1636512985, 322894096, base_link, -0.00546750068882, -0.0150588039871, -0.999756918872, 0.0151473438822, "(0.0007967716013573267, 0.0, 0.0, 0.0, 0.000794146276964728, 0.0, 0.0, 0.0, 0.011962928110762994)", -0.0137087920796, -0.00151853359612, -0.0487610680844, "(0.001, 0.0, 0.0, 0.0, 0.001, 0.0, 0.0, 0.0, 0.001)", 0.210412788242, 0.980127270601, 0.0618410018745, "(0.001, 0.0, 0.0, 0.0, 0.001, 0.0, 0.0, 0.0, 0.001)"
1637149071264471953, 7037, 1636512985, 341008901, base_link, -0.00547215759183, -0.0149949804485, -0.999761092059, 0.0149320078041, "(0.0007947170557672002, 0.0, 0.0, 0.0, 0.0007919159507569808, 0.0, 0.0, 0.0, 0.011962150700656204)", -0.00983027274867, -0.000380973656648, -0.0338771456935, "(0.001, 0.0, 0.0, 0.0, 0.001, 0.0, 0.0, 0.0, 0.001)", -0.118800087232, 0.630886319389, -0.210148630276, "(0.001, 0.0, 0.0, 0.0, 0.001, 0.0, 0.0, 0.0, 0.001)"
1637149071284402035, 7038, 1636512985, 361017942, base_link, -0.00546219314828, -0.0149607200995, -0.999764829184, 0.0147182752418, "(0.0007947170557672002, 0.0, 0.0, 0.0, 0.0007919159507569808, 0.0, 0.0, 0.0, 0.011962150700656204)", -0.011295935714, -0.000456677582654, -0.051063834413, "(0.001, 0.0, 0.0, 0.0, 0.001, 0.0, 0.0, 0.0, 0.001)", 0.309808050522, 0.77400621679, -0.0126649580075, "(0.001, 0.0, 0.0, 0.0, 0.001, 0.0, 0.0, 0.0, 0.001)"
1637149071305938607, 7039, 1636512985, 381503105, base_link, -0.0054570654441, -0.0149094070771, -0.999768861068, 0.0144967050335, "(0.0007947170557672002, 0.0, 0.0, 0.0, 0.0007919159507569808, 0.0, 0.0, 0.0, 0.011962150700656204)", -0.00796586933683, 0.000852595464272, -0.0350731870086, "(0.001, 0.0, 0.0, 0.0, 0.001, 0.0, 0.0, 0.0, 0.001)", -0.00494914422539, 0.641765780732, -0.283676466209, "(0.001, 0.0, 0.0, 0.0, 0.001, 0.0, 0.0, 0.0, 0.001)"
1637149071324098127, 7040, 1636512985, 400619983, base_link, -0.0054156170084, -0.0148817379132, -0.999772630294, 0.0142790995552, "(0.0007947170557672002, 0.0, 0.0, 0.0, 0.0007919159507569808, 0.0, 0.0, 0.0, 0.011962150700656204)", -0.00893094542684, 0.00500573235152, -0.0523755377615, "(0.001, 0.0, 0.0, 0.0, 0.001, 0.0, 0.0, 0.0, 0.001)", 0.341321394806, 0.821848868948, 0.0658266170041, "(0.001, 0.0, 0.0, 0.0, 0.001, 0.0, 0.0, 0.0, 0.001)"
1637149071345097171, 7041, 1636512985, 421557903, base_link, -0.00541282923757, -0.0148517162673, -0.999776220464, 0.0140583355392, "(0.0007947170557672002, 0.0, 0.0, 0.0, 0.0007919159507569808, 0.0, 0.0, 0.0, 0.011962150700656204)", -0.00538803003805, 0.00224743560421, -0.0353020507466, "(0.001, 0.0, 0.0, 0.0, 0.001, 0.0, 0.0, 0.0, 0.001)", -0.0864306450584, 0.617756237175, -0.408647473257, "(0.001, 0.0, 0.0, 0.0, 0.001, 0.0, 0.0, 0.0, 0.001)"
1637149071364428102, 7042, 1636512985, 440813064, base_link, -0.00538427960696, -0.0148266747688, -0.999779705805, 0.0138462669335, "(0.0007947170557672002, 0.0, 0.0, 0.0, 0.0007919159507569808, 0.0, 0.0, 0.0, 0.011962150700656204)", -0.00683363951899, 0.00364378671993, -0.0514469227417, "(0.001, 0.0, 0.0, 0.0, 0.001, 0.0, 0.0, 0.0, 0.001)", 0.237452701154, 0.984875699004, 0.111576542464, "(0.001, 0.0, 0.0, 0.0, 0.001, 0.0, 0.0, 0.0, 0.001)"
1637149071387354489, 7043, 1636512985, 461406946, base_link, -0.00537720591316, -0.0147855232352, -0.999783257602, 0.0136349469025, "(0.0007947170557672002, 0.0, 0.0, 0.0, 0.0007919159507569808, 0.0, 0.0, 0.0, 0.011962150700656204)", -0.00600066222275, 0.00217576386272, -0.0342365250504, "(0.001, 0.0, 0.0, 0.0, 0.001, 0.0, 0.0, 0.0, 0.001)", -0.00941455987639, 0.62107521902, -0.41340832668, "(0.001, 0.0, 0.0, 0.0, 0.001, 0.0, 0.0, 0.0, 0.001)"
1637149071407073568, 7044, 1636512985, 482026100, base_link, -0.00537720591316, -0.0147855232352, -0.999783257602, 0.0136349469025, "(0.0007947170557672002, 0.0, 0.0, 0.0, 0.0007919159507569808, 0.0, 0.0, 0.0, 0.011962150700656204)", -0.00560771726068, 0.00347033595661, -0.0507044325155, "(0.001, 0.0, 0.0, 0.0, 0.001, 0.0, 0.0, 0.0, 0.001)", 0.129615284994, 1.05385476575, 0.282062107862, "(0.001, 0.0, 0.0, 0.0, 0.001, 0.0, 0.0, 0.0, 0.001)"
1637149071424583119, 7045, 1636512985, 501092910, base_link, -0.00535316918651, -0.0147448172771, -0.999789876973, 0.0131960541638, "(0.0007947170557672002, 0.0, 0.0, 0.0, 0.0007919159507569808, 0.0, 0.0, 0.0, 0.011962150700656204)", -0.00486915233522, 0.000849998143331, -0.035651330722, "(0.001, 0.0, 0.0, 0.0, 0.001, 0.0, 0.0, 0.0, 0.001)", 0.106918020748, 0.707566056015, -0.390170411227, "(0.001, 0.0, 0.0, 0.0, 0.001, 0.0, 0.0, 0.0, 0.001)"
1637149071445171821, 7046, 1636512985, 521651029, base_link, -0.00532735332256, -0.0147132478488, -0.999793393317, 0.0129734468941, "(0.0007947170557672002, 0.0, 0.0, 0.0, 0.0007919159507569808, 0.0, 0.0, 0.0, 0.011962150700656204)", -0.00656417646462, 0.00324081855198, -0.0529673993002, "(0.001, 0.0, 0.0, 0.0, 0.001, 0.0, 0.0, 0.0, 0.001)", -0.00697312779562, 1.02303163692, 0.294522889068, "(0.001, 0.0, 0.0, 0.0, 0.001, 0.0, 0.0, 0.0, 0.001)"
1637149071464871477, 7047, 1636512985, 541430950, base_link, -0.0053190053283, -0.0146849325108, -0.9997967582, 0.0127476755237, "(0.0007947170557672002, 0.0, 0.0, 0.0, 0.0007919159507569808, 0.0, 0.0, 0.0, 0.011962150700656204)", -0.00518237996266, 0.00165206219479, -0.0362752592661, "(0.001, 0.0, 0.0, 0.0, 0.001, 0.0, 0.0, 0.0, 0.001)", 0.24674918631, 0.675649712255, -0.374464353023, "(0.001, 0.0, 0.0, 0.0, 0.001, 0.0, 0.0, 0.0, 0.001)"
