time, .header.id, .header.msg_type, .header.port_addr, .header.length, .header.sequence, .header.idle_time, .header.time_status, .header.gps_week, .header.gps_week_seconds, .header.receiver_status, .header.reserved, .header.software_version, .ins_status, .position_type, .latitude, .longitude, .altitude, .undulation, .north_velocity, .east_velocity, .up_velocity, .roll, .pitch, .azimuth, .latitude_std, .longitude_std, .altitude_std, .north_velocity_std, .east_velocity_std, .up_velocity_std, .roll_std, .pitch_std, .azimuth_std, .extended_status, .seconds_since_update
1637149068847838855, 1465, 0, 160, 126, 0, 74, 180, 2183, 269586620, 33554432, 18205, 15990, 3, 56, 40.0067283289, 116.328220457, 50.3692695638, -9.69999980927, 0.00275049708842, 0.00808793546669, -0.00242538761012, -0.743606639039, 1.79889562939, 177.871960223, 0.0189286340028, 0.0188378747553, 0.0194460526109, 0.00139581470285, 0.00139581109397, 0.00113336951472, 0.0151824383065, 0.0152695132419, 0.107358157635, 251658309, 0
1637149068864972625, 1465, 0, 160, 126, 0, 74, 180, 2183, 269586640, 33554432, 18205, 15990, 3, 56, 40.0067283295, 116.328220458, 50.3691957761, -9.69999980927, 0.00318367734899, 0.00533949192648, -0.00375029047835, -0.746454262015, 1.79986834165, 177.872281453, 0.0189286340028, 0.0188378747553, 0.0194460526109, 0.00139581470285, 0.00139581109397, 0.00113336951472, 0.0151824383065, 0.0152695132419, 0.107358157635, 251658309, 0
1637149068884930754, 1465, 0, 160, 126, 0, 74, 180, 2183, 269586660, 33554432, 18205, 15990, 3, 56, 40.0067283298, 116.328220457, 50.3691596808, -9.69999980927, 0.00195765224336, 0.00560079922946, -0.00236085557391, -0.744556941721, 1.79939767387, 177.872330322, 0.0189286340028, 0.0188378747553, 0.0194460526109, 0.00139581470285, 0.00139581109397, 0.00113336951472, 0.0151824383065, 0.0152695132419, 0.107358157635, 251658309, 0
1637149068907363841, 1465, 0, 160, 126, 0, 74, 180, 2183, 269586680, 33554432, 18205, 15990, 3, 56, 40.0067283303, 116.328220457, 50.3690766161, -9.69999980927, 0.00308664720356, 0.00526150593548, -0.00429908741115, -0.744864462271, 1.79985823945, 177.873150168, 0.0189286340028, 0.0188378747553, 0.0194460526109, 0.00139581470285, 0.00139581109397, 0.00113336951472, 0.0151824383065, 0.0152695132419, 0.107358157635, 251658309, 0
1637149068924545204, 1465, 0, 160, 126, 0, 74, 180, 2183, 269586700, 33554432, 18205, 15990, 3, 56, 40.0067283306, 116.328220457, 50.3690544572, -9.69999980927, 0.00154562893244, 0.00469011299501, -0.00125339124783, -0.744255524538, 1.79950747444, 177.872668657, 0.0189286340028, 0.0188378747553, 0.0194460526109, 0.00139581470285, 0.00139581109397, 0.00113336951472, 0.0151824383065, 0.0152695132419, 0.107358157635, 251658309, 0
1637149068944953723, 1465, 0, 160, 126, 0, 74, 180, 2183, 269586720, 33554432, 18205, 15990, 3, 56, 40.0067283311, 116.328220457, 50.3689814126, -9.69999980927, 0.00346946506584, 0.00334442814992, -0.00394642606076, -0.744457772595, 1.79867913155, 177.87363774, 0.0189286340028, 0.0188378747553, 0.0194460526109, 0.00139581470285, 0.00139581109397, 0.00113336951472, 0.0151824383065, 0.0152695132419, 0.107358157635, 251658309, 0
1637149068963177675, 1465, 0, 160, 126, 0, 74, 180, 2183, 269586740, 33554432, 18205, 15990, 3, 56, 40.0067283317, 116.328220456, 50.3689480927, -9.69999980927, 0.00306478455755, 0.00528382098134, -0.00202958506172, -0.743064339781, 1.79922512314, 177.873113218, 0.0189286340028, 0.0188378747553, 0.0194460526109, 0.00139581470285, 0.00139581109397, 0.00113336951472, 0.0151824383065, 0.0152695132419, 0.107358157635, 251658309, 0
1637149068984933121, 1465, 0, 160, 126, 0, 74, 180, 2183, 269586760, 33554432, 18205, 15990, 3, 56, 40.0067283322, 116.328220456, 50.368876515, -9.69999980927, 0.00236247726659, 0.00296552394503, -0.00366552051024, -0.744347879138, 1.79930240104, 177.873202677, 0.0189286340028, 0.0188378747553, 0.0194460526109, 0.00139581470285, 0.00139581109397, 0.00113336951472, 0.0151824383065, 0.0152695132419, 0.107358157635, 251658309, 0
1637149069005374374, 1465, 0, 160, 126, 0, 74, 180, 2183, 269586780, 33554432, 18205, 15990, 3, 56, 40.0067283327, 116.328220455, 50.368846599, -9.69999980927, 0.0025362312884, 0.0042362455347, -0.00158002027222, -0.742312304952, 1.79920097146, 177.872192606, 0.0189286340028, 0.0188378747553, 0.0194460526109, 0.00139581470285, 0.00139581109397, 0.00113336951472, 0.0151824383065, 0.0152695132419, 0.107358157635, 251658309, 0
1637149069024550645, 1465, 0, 160, 126, 0, 74, 180, 2183, 269586800, 33554432, 18205, 15990, 3, 56, 40.0067283335, 116.328220455, 50.3687633006, -9.69999980927, 0.00528363181096, 0.00521128633316, -0.00444412861459, -0.743938553831, 1.79976988252, 177.872236774, 0.0189286340028, 0.0188378747553, 0.0194460526109, 0.00139581470285, 0.00139581109397, 0.00113336951472, 0.0151824383065, 0.0152695132419, 0.107358157635, 251658309, 0
1637149069044302183, 1465, 0, 160, 126, 0, 74, 180, 2183, 269586820, 33554432, 18205, 15990, 3, 56, 40.006728334, 116.328220454, 50.3687323835, -9.69999980927, 0.00267389470629, 0.00349174782893, -0.00155486882839, -0.741580180229, 1.8006786172, 177.872213837, 0.0189286340028, 0.0188378747553, 0.0194460526109, 0.00139581470285, 0.00139581109397, 0.00113336951472, 0.0151824383065, 0.0152695132419, 0.107358157635, 251658309, 0
1637149069064814121, 1465, 0, 160, 126, 0, 74, 180, 2183, 269586840, 33554432, 18205, 15990, 3, 56, 40.0067283345, 116.328220455, 50.3686472271, -9.69999980927, 0.00241749688374, 0.0061362264066, -0.00454663773596, -0.742440876455, 1.7996351324, 177.872330999, 0.0189286340028, 0.0188378747553, 0.0194460526109, 0.00139581470285, 0.00139581109397, 0.00113336951472, 0.0151824383065, 0.0152695132419, 0.107358157635, 251658309, 0
1637149069084628301, 1465, 0, 160, 126, 0, 74, 180, 2183, 269586860, 33554432, 18205, 15990, 3, 56, 40.0067283351, 116.328220454, 50.3686147379, -9.69999980927, 0.0036618545833, 0.00423505810635, -0.00166093097679, -0.74240719086, 1.79983878712, 177.871749259, 0.0189286340028, 0.0188378747553, 0.0194460526109, 0.00139581470285, 0.00139581109397, 0.00113336951472, 0.0151824383065, 0.0152695132419, 0.107358157635, 251658309, 0
1637149069105282164, 1465, 0, 160, 126, 0, 74, 180, 2183, 269586880, 33554432, 18205, 15990, 3, 56, 40.0067283359, 116.328220454, 50.3685213961, -9.69999980927, 0.00513815964534, 0.00562945395775, -0.00490451705637, -0.742222150214, 1.79958528062, 177.8720299, 0.0189286340028, 0.0188378747553, 0.0194460526109, 0.00139581470285, 0.00139581109397, 0.00113336951472, 0.0151824383065, 0.0152695132419, 0.107358157635, 251658309, 0
1637149069123510005, 1465, 0, 160, 126, 0, 74, 180, 2183, 269586900, 33554432, 18205, 15990, 3, 56, 40.0067283365, 116.328220454, 50.368483441, -9.69999980927, 0.0028942365623, 0.00638780635373, -0.00177764284122, -0.742533062963, 1.80094560699, 177.87245048, 0.0189286340028, 0.0188378747553, 0.0194460526109, 0.00139581470285, 0.00139581109397, 0.00113336951472, 0.0151824383065, 0.0152695132419, 0.107358157635, 251658309, 0
1637149069145511988, 1465, 0, 160, 126, 0, 74, 180, 2183, 269586920, 33554432, 18205, 15990, 3, 56, 40.006728337, 116.328220455, 50.368402401, -9.69999980927, 0.00242162480901, 0.0060584692023, -0.00399489287864, -0.743949311081, 1.80046155895, 177.872979565, 0.0189286340028, 0.0188378747553, 0.0194460526109, 0.00139581470285, 0.00139581109397, 0.00113336951472, 0.0151824383065, 0.0152695132419, 0.107358157635, 251658309, 0
1637149069164190536, 1465, 0, 160, 126, 0, 74, 180, 2183, 269586940, 33554432, 18205, 15990, 3, 56, 40.0067283375, 116.328220454, 50.3683731211, -9.69999980927, 0.00293059725662, 0.00558359885357, -0.00118500985738, -0.742024993945, 1.8002438424, 177.872832678, 0.0189286340028, 0.0188378747553, 0.0194460526109, 0.00139581470285, 0.00139581109397, 0.00113336951472, 0.0151824383065, 0.0152695132419, 0.107358157635, 251658309, 0
1637149069184430079, 1465, 0, 160, 126, 0, 74, 180, 2183, 269586960, 33554432, 18205, 15990, 3, 56, 40.0067283382, 116.328220455, 50.3682917124, -9.69999980927, 0.00340951303115, 0.00717470799525, -0.00427922114076, -0.744329989351, 1.80031329079, 177.872490039, 0.0189286340028, 0.0188378747553, 0.0194460526109, 0.00139581470285, 0.00139581109397, 0.00113336951472, 0.0151824383065, 0.0152695132419, 0.107358157635, 251658309, 0
1637149069203847101, 1465, 0, 160, 126, 0, 74, 180, 2183, 269586980, 33554432, 18205, 15990, 3, 56, 40.0067283386, 116.328220454, 50.3682716517, -9.69999980927, 0.00241745490855, 0.00358432445235, -0.000636721738526, -0.74315736337, 1.80002073451, 177.872508836, 0.0189286340028, 0.0188378747553, 0.0194460526109, 0.00139581470285, 0.00139581109397, 0.00113336951472, 0.0151824383065, 0.0152695132419, 0.107358157635, 251658309, 0
1637149069228096594, 1465, 0, 160, 126, 0, 74, 180, 2183, 269587000, 33554432, 18205, 15990, 3, 56, 40.0067283392, 116.328220455, 50.3681923067, -9.69999980927, 0.00331906234133, 0.00744907024802, -0.00410302350022, -0.743788462376, 1.80162106753, 177.872114453, 0.0189286340028, 0.0188378747553, 0.0194460526109, 0.00139581470285, 0.00139581109397, 0.00113336951472, 0.0151824383065, 0.0152695132419, 0.107358157635, 251658309, 0
1637149069248120161, 1465, 0, 160, 126, 0, 74, 180, 2183, 269587020, 33554432, 18205, 15990, 3, 56, 40.0067283396, 116.328220455, 50.3681721473, -9.69999980927, 0.00176658764971, 0.00393335994041, -0.000550936845423, -0.744905373306, 1.80056586729, 177.871810299, 0.0210902448744, 0.0210083685815, 0.0215538814664, 0.00905079208314, 0.00905079580843, 0.00819139648229, 0.0232907664031, 0.0233481749892, 0.108935184777, 251658309, 0
1637149069264365008, 1465, 0, 160, 126, 0, 74, 180, 2183, 269587040, 33554432, 18205, 15990, 3, 56, 40.0067283395, 116.328220455, 50.3681485904, -9.69999980927, 0.00382386662772, 0.0045347615642, -0.00394610574849, -0.744923127988, 1.80019900213, 177.871988812, 0.0182133149356, 0.0181279368699, 0.0187405981123, 0.00139583239798, 0.00139583088458, 0.0011292231502, 0.0152151146904, 0.0153016047552, 0.106414549053, 251658309, 0
1637149069284972449, 1465, 0, 160, 126, 0, 74, 180, 2183, 269587060, 33554432, 18205, 15990, 3, 56, 40.0067283392, 116.328220454, 50.3681846187, -9.69999980927, 0.00401383794279, 0.00402655631772, -0.00104111180413, -0.74472726252, 1.80085105789, 177.871613696, 0.0182133149356, 0.0181279368699, 0.0187405981123, 0.00139583239798, 0.00139583088458, 0.0011292231502, 0.0152151146904, 0.0153016047552, 0.106414549053, 251658309, 0
1637149069305687472, 1465, 0, 160, 126, 0, 76, 180, 2183, 269587080, 33554432, 18205, 15990, 3, 56, 40.0067283392, 116.328220454, 50.3681565002, -9.69999980927, 0.00409172225667, 0.00501548224074, -0.00443202129804, -0.745421854916, 1.80122918206, 177.872043733, 0.0182133149356, 0.0181279368699, 0.0187405981123, 0.00139583239798, 0.00139583088458, 0.0011292231502, 0.0152151146904, 0.0153016047552, 0.106414549053, 251658309, 0
1637149069323449538, 1465, 0, 160, 126, 0, 76, 180, 2183, 269587100, 33554432, 18205, 15990, 3, 56, 40.0067283387, 116.328220453, 50.3681936096, -9.69999980927, 0.00254216073076, 0.00254207296492, -0.000974720137776, -0.744394334869, 1.80089977459, 177.871958234, 0.0182133149356, 0.0181279368699, 0.0187405981123, 0.00139583239798, 0.00139583088458, 0.0011292231502, 0.0152151146904, 0.0153016047552, 0.106414549053, 251658309, 0
1637149069345539542, 1465, 0, 160, 126, 0, 76, 180, 2183, 269587120, 33554432, 18205, 15990, 3, 56, 40.0067283388, 116.328220453, 50.3681607926, -9.69999980927, 0.00513815424864, 0.00663121358677, -0.00474474147535, -0.745246276013, 1.80122991758, 177.871839445, 0.0182133149356, 0.0181279368699, 0.0187405981123, 0.00139583239798, 0.00139583088458, 0.0011292231502, 0.0152151146904, 0.0153016047552, 0.106414549053, 251658309, 0
1637149069363884814, 1465, 0, 160, 126, 0, 76, 180, 2183, 269587140, 33554432, 18205, 15990, 3, 56, 40.0067283386, 116.328220452, 50.3682044763, -9.69999980927, 0.00427261017119, 0.000804597589295, -0.000663377308659, -0.744700223534, 1.80197698449, 177.871986813, 0.0182133149356, 0.0181279368699, 0.0187405981123, 0.00139583239798, 0.00139583088458, 0.0011292231502, 0.0152151146904, 0.0153016047552, 0.106414549053, 251658309, 0
1637149069384451428, 1465, 0, 160, 126, 0, 76, 180, 2183, 269587160, 33554432, 18205, 15990, 3, 56, 40.0067283387, 116.328220452, 50.3681873791, -9.69999980927, 0.00480416406906, 0.00595475910715, -0.00364104794851, -0.743831662062, 1.80233585497, 177.872625169, 0.0182133149356, 0.0181279368699, 0.0187405981123, 0.00139583239798, 0.00139583088458, 0.0011292231502, 0.0152151146904, 0.0153016047552, 0.106414549053, 251658309, 0
1637149069407708885, 1465, 0, 160, 126, 0, 76, 180, 2183, 269587180, 33554432, 18205, 15990, 3, 56, 40.0067283385, 116.328220451, 50.3682275591, -9.69999980927, 0.00295427704427, 0.00141829206486, -0.000470796117446, -0.744382650862, 1.80247183365, 177.871909768, 0.0182133149356, 0.0181279368699, 0.0187405981123, 0.00139583239798, 0.00139583088458, 0.0011292231502, 0.0152151146904, 0.0153016047552, 0.106414549053, 251658309, 0
1637149069423940338, 1465, 0, 160, 126, 0, 76, 180, 2183, 269587200, 33554432, 18205, 15990, 3, 56, 40.0067283385, 116.328220451, 50.3682180382, -9.69999980927, 0.0047082741482, 0.00487152171163, -0.00304231793415, -0.743595525636, 1.80108399539, 177.872340358, 0.0182133149356, 0.0181279368699, 0.0187405981123, 0.00139583239798, 0.00139583088458, 0.0011292231502, 0.0152151146904, 0.0153016047552, 0.106414549053, 251658309, 0
1637149069443854546, 1465, 0, 160, 126, 0, 76, 180, 2183, 269587220, 33554432, 18205, 15990, 3, 56, 40.0067283384, 116.32822045, 50.368262928, -9.69999980927, 0.00423212425167, 0.00278223604489, 4.82450540662e-05, -0.743757478956, 1.80179967206, 177.872682395, 0.0182133149356, 0.0181279368699, 0.0187405981123, 0.00139583239798, 0.00139583088458, 0.0011292231502, 0.0152151146904, 0.0153016047552, 0.106414549053, 251658309, 0
1637149069465197678, 1465, 0, 160, 126, 0, 76, 180, 2183, 269587240, 33554432, 18205, 15990, 3, 56, 40.0067283385, 116.328220451, 50.3682555677, -9.69999980927, 0.00423334001686, 0.00657299110014, -0.0030188443115, -0.744676616175, 1.80272235251, 177.872803471, 0.0182133149356, 0.0181279368699, 0.0187405981123, 0.00139583239798, 0.00139583088458, 0.0011292231502, 0.0152151146904, 0.0153016047552, 0.106414549053, 251658309, 0
1637149069483513450, 1465, 0, 160, 126, 0, 76, 180, 2183, 269587260, 33554432, 18205, 15990, 3, 56, 40.0067283383, 116.32822045, 50.3682994191, -9.69999980927, 0.00360853238897, 0.00212017429855, -0.00011753154702, -0.744225248734, 1.80181827878, 177.872202802, 0.0182133149356, 0.0181279368699, 0.0187405981123, 0.00139583239798, 0.00139583088458, 0.0011292231502, 0.0152151146904, 0.0153016047552, 0.106414549053, 251658309, 0
1637149069505082128, 1465, 0, 160, 126, 0, 76, 180, 2183, 269587280, 33554432, 18205, 15990, 3, 56, 40.0067283384, 116.328220451, 50.3682791367, -9.69999980927, 0.00506658160567, 0.00803496366051, -0.00389622664224, -0.745350911997, 1.80118633993, 177.871441163, 0.0182133149356, 0.0181279368699, 0.0187405981123, 0.00139583239798, 0.00139583088458, 0.0011292231502, 0.0152151146904, 0.0153016047552, 0.106414549053, 251658309, 0
1637149069524129414, 1465, 0, 160, 126, 0, 76, 180, 2183, 269587300, 33554432, 18205, 15990, 3, 56, 40.0067283384, 116.328220449, 50.3683071891, -9.69999980927, 0.00444743591861, 0.000745159348858, -0.000893170780595, -0.745528102926, 1.80224773296, 177.871734542, 0.0182133149356, 0.0181279368699, 0.0187405981123, 0.00139583239798, 0.00139583088458, 0.0011292231502, 0.0152151146904, 0.0153016047552, 0.106414549053, 251658309, 0
1637149069545900895, 1465, 0, 160, 126, 0, 76, 180, 2183, 269587320, 33554432, 18205, 15990, 3, 56, 40.0067283385, 116.32822045, 50.3682865743, -9.69999980927, 0.00380553673769, 0.00692058417691, -0.00368514240379, -0.745409458779, 1.80288946494, 177.871387627, 0.0182133149356, 0.0181279368699, 0.0187405981123, 0.00139583239798, 0.00139583088458, 0.0011292231502, 0.0152151146904, 0.0153016047552, 0.106414549053, 251658309, 0
1637149069563821602, 1465, 0, 160, 126, 0, 76, 180, 2183, 269587340, 33554432, 18205, 15990, 3, 56, 40.0067283384, 116.328220449, 50.3682990745, -9.69999980927, 0.00355983247423, 0.00219692154876, -0.00174693707181, -0.746804125043, 1.80281678111, 177.870952622, 0.0182133149356, 0.0181279368699, 0.0187405981123, 0.00139583239798, 0.00139583088458, 0.0011292231502, 0.0152151146904, 0.0153016047552, 0.106414549053, 251658309, 0
1637149069584708546, 1465, 0, 160, 126, 0, 76, 180, 2183, 269587360, 33554432, 18205, 15990, 3, 56, 40.0067283384, 116.32822045, 50.3682636255, -9.69999980927, 0.00359834748467, 0.00579060506654, -0.00437017802879, -0.746189164559, 1.80359733729, 177.870171221, 0.0182133149356, 0.0181279368699, 0.0187405981123, 0.00139583239798, 0.00139583088458, 0.0011292231502, 0.0152151146904, 0.0153016047552, 0.106414549053, 251658309, 0
1637149069604479320, 1465, 0, 160, 126, 0, 76, 180, 2183, 269587380, 33554432, 18205, 15990, 3, 56, 40.0067283383, 116.328220449, 50.3682810981, -9.69999980927, 0.00336969759081, 0.003444765844, -0.000694988535229, -0.746793079166, 1.80404189575, 177.870645842, 0.0182133149356, 0.0181279368699, 0.0187405981123, 0.00139583239798, 0.00139583088458, 0.0011292231502, 0.0152151146904, 0.0153016047552, 0.106414549053, 251658309, 0
1637149069624021901, 1465, 0, 160, 126, 0, 76, 180, 2183, 269587400, 33554432, 18205, 15990, 3, 56, 40.0067283381, 116.32822045, 50.3682515118, -9.69999980927, 0.00230841135684, 0.00838771890292, -0.00375926826184, -0.748578069667, 1.80605188019, 177.870476511, 0.0182133149356, 0.0181279368699, 0.0187405981123, 0.00139583239798, 0.00139583088458, 0.0011292231502, 0.0152151146904, 0.0153016047552, 0.106414549053, 251658309, 0
1637149069644992739, 1465, 0, 160, 126, 0, 76, 180, 2183, 269587420, 33554432, 18205, 15990, 3, 56, 40.0067283375, 116.32822045, 50.3682882544, -9.69999980927, -0.000217294673862, 0.00356322533881, 0.000528611256928, -0.748851093778, 1.80613028339, 177.870422147, 0.0182133149356, 0.0181279368699, 0.0187405981123, 0.00139583239798, 0.00139583088458, 0.0011292231502, 0.0152151146904, 0.0153016047552, 0.106414549053, 251658309, 0
1637149069664100828, 1465, 0, 160, 126, 0, 76, 180, 2183, 269587440, 33554432, 18205, 15990, 3, 56, 40.0067283367, 116.328220451, 50.3682345226, -9.69999980927, -0.00160677257561, 0.0106490269681, -0.00593956580409, -0.751392264478, 1.80647865965, 177.870942627, 0.0182133149356, 0.0181279368699, 0.0187405981123, 0.00139583239798, 0.00139583088458, 0.0011292231502, 0.0152151146904, 0.0153016047552, 0.106414549053, 251658309, 0
1637149069683521956, 1465, 0, 160, 126, 0, 76, 180, 2183, 269587460, 33554432, 18205, 15990, 3, 56, 40.0067283355, 116.328220451, 50.3682437697, -9.69999980927, -0.00316944374859, 0.00376983724496, -0.00129029181662, -0.753385290625, 1.80881756122, 177.870715607, 0.0182133149356, 0.0181279368699, 0.0187405981123, 0.00139583239798, 0.00139583088458, 0.0011292231502, 0.0152151146904, 0.0153016047552, 0.106414549053, 251658309, 0
1637149069706595523, 1465, 0, 160, 126, 0, 76, 180, 2183, 269587480, 33554432, 18205, 15990, 3, 56, 40.006728334, 116.328220452, 50.3681319552, -9.69999980927, -0.00644394926339, 0.00888584919972, -0.00944007541691, -0.755578118162, 1.81135291396, 177.871628142, 0.0182133149356, 0.0181279368699, 0.0187405981123, 0.00139583239798, 0.00139583088458, 0.0011292231502, 0.0152151146904, 0.0153016047552, 0.106414549053, 251658309, 0
1637149069724226262, 1465, 0, 160, 126, 0, 76, 180, 2183, 269587500, 33554432, 18205, 15990, 3, 56, 40.0067283315, 116.328220452, 50.3680870701, -9.69999980927, -0.0118844688316, 0.00636017743808, -0.00431979094719, -0.757830337155, 1.81734466552, 177.870442364, 0.0182133149356, 0.0181279368699, 0.0187405981123, 0.00139583239798, 0.00139583088458, 0.0011292231502, 0.0152151146904, 0.0153016047552, 0.106414549053, 251658309, 0
1637149069747311214, 1465, 0, 160, 126, 0, 76, 180, 2183, 269587520, 33554432, 18205, 15990, 3, 56, 40.0067283284, 116.328220453, 50.3679242199, -9.69999980927, -0.0163149667518, 0.00582877886697, -0.0115910782463, -0.76108684374, 1.82214326338, 177.870425607, 0.0182133149356, 0.0181279368699, 0.0187405981123, 0.00139583239798, 0.00139583088458, 0.0011292231502, 0.0152151146904, 0.0153016047552, 0.106414549053, 251658309, 0
1637149069765020861, 1465, 0, 160, 126, 0, 76, 180, 2183, 269587540, 33554432, 18205, 15990, 3, 56, 40.0067283242, 116.328220453, 50.3678296944, -9.69999980927, -0.0214521649036, 0.00650185102451, -0.00698617336389, -0.760844491306, 1.82967693455, 177.869563591, 0.0182133149356, 0.0181279368699, 0.0187405981123, 0.00139583239798, 0.00139583088458, 0.0011292231502, 0.0152151146904, 0.0153016047552, 0.106414549053, 251658309, 0
1637149069784069413, 1465, 0, 160, 126, 0, 76, 180, 2183, 269587560, 33554432, 18205, 15990, 3, 56, 40.0067283194, 116.328220453, 50.3676120089, -9.69999980927, -0.0265231597442, 0.00435977605962, -0.0141527814581, -0.763648634212, 1.83622768261, 177.869286546, 0.0182133149356, 0.0181279368699, 0.0187405981123, 0.00139583239798, 0.00139583088458, 0.0011292231502, 0.0152151146904, 0.0153016047552, 0.106414549053, 251658309, 0
1637149069804602476, 1465, 0, 160, 126, 0, 76, 180, 2183, 269587580, 33554432, 18205, 15990, 3, 56, 40.006728313, 116.328220453, 50.3674926665, -9.69999980927, -0.0344558863032, 0.00593732809621, -0.00794263238528, -0.762162614105, 1.84464691001, 177.868395116, 0.0182133149356, 0.0181279368699, 0.0187405981123, 0.00139583239798, 0.00139583088458, 0.0011292231502, 0.0152151146904, 0.0153016047552, 0.106414549053, 251658309, 0
1637149069824422908, 1465, 0, 160, 126, 0, 76, 180, 2183, 269587600, 33554432, 18205, 15990, 3, 56, 40.0067283056, 116.328220453, 50.3672438813, -9.69999980927, -0.0419146453999, 0.00336449346638, -0.0154554402775, -0.765270587307, 1.85177252355, 177.867651151, 0.0182133149356, 0.0181279368699, 0.0187405981123, 0.00139583239798, 0.00139583088458, 0.0011292231502, 0.0152151146904, 0.0153016047552, 0.106414549053, 251658309, 0
1637149069843087245, 1465, 0, 160, 126, 0, 76, 180, 2183, 269587620, 33554432, 18205, 15990, 3, 56, 40.0067282967, 116.328220453, 50.3671169626, -9.69999980927, -0.0498382231266, 0.00639586683357, -0.00840466963163, -0.764854605662, 1.86075520729, 177.867382629, 0.0182133149356, 0.0181279368699, 0.0187405981123, 0.00139583239798, 0.00139583088458, 0.0011292231502, 0.0152151146904, 0.0153016047552, 0.106414549053, 251658309, 0
1637149069864722889, 1465, 0, 160, 126, 0, 76, 180, 2183, 269587640, 33554432, 18205, 15990, 3, 56, 40.0067282865, 116.328220453, 50.3668574085, -9.69999980927, -0.057929402141, 0.00196429237262, -0.0156225099984, -0.767633276069, 1.86934438286, 177.866381185, 0.0182133149356, 0.0181279368699, 0.0187405981123, 0.00139583239798, 0.00139583088458, 0.0011292231502, 0.0152151146904, 0.0153016047552, 0.106414549053, 251658309, 0
1637149069884908162, 1465, 0, 160, 126, 0, 76, 180, 2183, 269587660, 33554432, 18205, 15990, 3, 56, 40.0067282748, 116.328220454, 50.3667284045, -9.69999980927, -0.0665371401537, 0.00750358061049, -0.00894616380915, -0.766617739005, 1.87809950287, 177.865933169, 0.0182133149356, 0.0181279368699, 0.0187405981123, 0.00139583239798, 0.00139583088458, 0.0011292231502, 0.0152151146904, 0.0153016047552, 0.106414549053, 251658309, 0
1637149069905543881, 1465, 0, 160, 126, 0, 76, 180, 2183, 269587680, 33554432, 18205, 15990, 3, 56, 40.0067282613, 116.328220454, 50.3664935743, -9.69999980927, -0.0765388219066, 0.000999098264442, -0.0134057304514, -0.768652986808, 1.88668686365, 177.865770816, 0.0182133149356, 0.0181279368699, 0.0187405981123, 0.00139583239798, 0.00139583088458, 0.0011292231502, 0.0152151146904, 0.0153016047552, 0.106414549053, 251658309, 0
1637149069923984215, 1465, 0, 160, 126, 0, 76, 180, 2183, 269587700, 33554432, 18205, 15990, 3, 56, 40.0067282465, 116.328220454, 50.3663951093, -9.69999980927, -0.0835879012405, 0.00852636911949, -0.00750789199178, -0.767045400283, 1.89376989251, 177.86678856, 0.0182133149356, 0.0181279368699, 0.0187405981123, 0.00139583239798, 0.00139583088458, 0.0011292231502, 0.0152151146904, 0.0153016047552, 0.106414549053, 251658309, 0
1637149069945674755, 1465, 0, 160, 126, 0, 76, 180, 2183, 269587720, 33554432, 18205, 15990, 3, 56, 40.0067282297, 116.328220455, 50.3662070585, -9.69999980927, -0.0956653308301, 0.00212682916698, -0.0106688582508, -0.769469075996, 1.90153525487, 177.866419235, 0.0182133149356, 0.0181279368699, 0.0187405981123, 0.00139583239798, 0.00139583088458, 0.0011292231502, 0.0152151146904, 0.0153016047552, 0.106414549053, 251658309, 0
1637149069963693364, 1465, 0, 160, 126, 0, 76, 180, 2183, 269587740, 33554432, 18205, 15990, 3, 56, 40.0067282113, 116.328220455, 50.3661659202, -9.69999980927, -0.103296124311, 0.00738538114466, -0.0045447438618, -0.767394530852, 1.905112257, 177.867406233, 0.0182133149356, 0.0181279368699, 0.0187405981123, 0.00139583239798, 0.00139583088458, 0.0011292231502, 0.0152151146904, 0.0153016047552, 0.106414549053, 251658309, 0
1637149069984674547, 1465, 0, 160, 126, 0, 76, 180, 2183, 269587760, 33554432, 18205, 15990, 3, 56, 40.0067281911, 116.328220456, 50.3660395471, -9.69999980927, -0.114716921833, 0.0033214356739, -0.00741812523234, -0.769803053225, 1.91115043346, 177.867789252, 0.0182133149356, 0.0181279368699, 0.0187405981123, 0.00139583239798, 0.00139583088458, 0.0011292231502, 0.0152151146904, 0.0153016047552, 0.106414549053, 251658309, 0
1637149070005126135, 1465, 0, 160, 126, 0, 76, 180, 2183, 269587780, 33554432, 18205, 15990, 3, 56, 40.0067281692, 116.328220456, 50.3660635659, -9.69999980927, -0.124005155134, 0.00591111407158, -0.00143316613233, -0.767904658436, 1.91339012477, 177.86923718, 0.0182133149356, 0.0181279368699, 0.0187405981123, 0.00139583239798, 0.00139583088458, 0.0011292231502, 0.0152151146904, 0.0153016047552, 0.106414549053, 251658309, 0
1637149070023976819, 1465, 0, 160, 126, 0, 76, 180, 2183, 269587800, 33554432, 18205, 15990, 3, 56, 40.0067281452, 116.328220456, 50.3660068801, -9.69999980927, -0.135928775369, 0.0020492235073, -0.00357752594189, -0.769537468148, 1.9183747554, 177.869448961, 0.0182133149356, 0.0181279368699, 0.0187405981123, 0.00139583239798, 0.00139583088458, 0.0011292231502, 0.0152151146904, 0.0153016047552, 0.106414549053, 251658309, 0
1637149070043496720, 1465, 0, 160, 126, 0, 76, 180, 2183, 269587820, 33554432, 18205, 15990, 3, 56, 40.0067281196, 116.328220456, 50.3660898553, -9.69999980927, -0.144920379855, 0.00573753553995, 0.00218363622667, -0.768319208866, 1.91999509045, 177.869711201, 0.0182133149356, 0.0181279368699, 0.0187405981123, 0.00139583239798, 0.00139583088458, 0.0011292231502, 0.0152151146904, 0.0153016047552, 0.106414549053, 251658309, 0
1637149070064208662, 1465, 0, 160, 126, 0, 76, 180, 2183, 269587840, 33554432, 18205, 15990, 3, 56, 40.006728092, 116.328220456, 50.3661056729, -9.69999980927, -0.1560886136, 0.000397566913316, 0.000205879631014, -0.769105402719, 1.92157807878, 177.869315196, 0.0182133149356, 0.0181279368699, 0.0187405981123, 0.00139583239798, 0.00139583088458, 0.0011292231502, 0.0152151146904, 0.0153016047552, 0.106414549053, 251658309, 0
1637149070083549752, 1465, 0, 160, 126, 0, 76, 180, 2183, 269587860, 33554432, 18205, 15990, 3, 56, 40.0067280626, 116.328220456, 50.3662271369, -9.69999980927, -0.165108118517, 0.00349031290441, 0.00368558793051, -0.764952618616, 1.92184370956, 177.869101437, 0.0182133149356, 0.0181279368699, 0.0187405981123, 0.00139583239798, 0.00139583088458, 0.0011292231502, 0.0152151146904, 0.0153016047552, 0.106414549053, 251658309, 0
1637149070105843075, 1465, 0, 160, 126, 0, 76, 180, 2183, 269587880, 33554432, 18205, 15990, 3, 56, 40.0067280313, 116.328220456, 50.3662589313, -9.69999980927, -0.177331390129, -2.48357045451e-05, 0.000220324884147, -0.765620363738, 1.92260301083, 177.868848414, 0.0182133149356, 0.0181279368699, 0.0187405981123, 0.00139583239798, 0.00139583088458, 0.0011292231502, 0.0152151146904, 0.0153016047552, 0.106414549053, 251658309, 0
1637149070123343853, 1465, 0, 160, 126, 0, 76, 180, 2183, 269587900, 33554432, 18205, 15990, 3, 56, 40.0067279981, 116.328220455, 50.366405475, -9.69999980927, -0.186348996258, 0.00147372520071, 0.00515007637552, -0.761296432653, 1.92319223323, 177.868546796, 0.0182133149356, 0.0181279368699, 0.0187405981123, 0.00139583239798, 0.00139583088458, 0.0011292231502, 0.0152151146904, 0.0153016047552, 0.106414549053, 251658309, 0
1637149070145698942, 1465, 0, 160, 126, 0, 76, 180, 2183, 269587920, 33554432, 18205, 15990, 3, 56, 40.0067279628, 116.328220455, 50.3664676901, -9.69999980927, -0.199743593627, -4.19713126088e-05, 0.00185000880544, -0.759884717711, 1.92449866984, 177.867498484, 0.0182133149356, 0.0181279368699, 0.0187405981123, 0.00139583239798, 0.00139583088458, 0.0011292231502, 0.0152151146904, 0.0153016047552, 0.106414549053, 251658309, 0
1637149070163519174, 1465, 0, 160, 126, 0, 76, 180, 2183, 269587940, 33554432, 18205, 15990, 3, 56, 40.0067279257, 116.328220454, 50.366635412, -9.69999980927, -0.208465993825, 0.00161120673917, 0.00631569824625, -0.755851659649, 1.92352265861, 177.867443426, 0.0182133149356, 0.0181279368699, 0.0187405981123, 0.00139583239798, 0.00139583088458, 0.0011292231502, 0.0152151146904, 0.0153016047552, 0.106414549053, 251658309, 0
1637149070184683642, 1465, 0, 160, 126, 0, 76, 180, 2183, 269587960, 33554432, 18205, 15990, 3, 56, 40.0067278867, 116.328220454, 50.3667132976, -9.69999980927, -0.220235320515, -0.000832096217139, 0.00248916762243, -0.753712306798, 1.92293148335, 177.867139523, 0.0182133149356, 0.0181279368699, 0.0187405981123, 0.00139583239798, 0.00139583088458, 0.0011292231502, 0.0152151146904, 0.0153016047552, 0.106414549053, 251658309, 0
1637149070205064674, 1465, 0, 160, 126, 0, 76, 180, 2183, 269587980, 33554432, 18205, 15990, 3, 56, 40.0067278457, 116.328220453, 50.3668728331, -9.69999980927, -0.23022907662, 0.00279854414146, 0.00598533009118, -0.750449107211, 1.92181560079, 177.867268452, 0.0182133149356, 0.0181279368699, 0.0187405981123, 0.00139583239798, 0.00139583088458, 0.0011292231502, 0.0152151146904, 0.0153016047552, 0.106414549053, 251658309, 0
1637149070228631545, 1465, 0, 160, 126, 0, 76, 180, 2183, 269588000, 33554432, 18205, 15990, 3, 56, 40.0067278027, 116.328220453, 50.3669492239, -9.69999980927, -0.243092471585, -0.000308014065379, 0.00253529537503, -0.749232586433, 1.92182267272, 177.866614319, 0.0182133149356, 0.0181279368699, 0.0187405981123, 0.00139583239798, 0.00139583088458, 0.0011292231502, 0.0152151146904, 0.0153016047552, 0.106414549053, 251658309, 0
1637149070246206934, 1465, 0, 160, 126, 0, 76, 180, 2183, 269588020, 33554432, 18205, 15990, 3, 56, 40.0067277577, 116.328220453, 50.3671078393, -9.69999980927, -0.25204037987, 0.0049147678614, 0.00642380740837, -0.744797819427, 1.92092779313, 177.867766437, 0.0206214506179, 0.0205457471311, 0.0210880097002, 0.00951146055013, 0.00951623730361, 0.00868353247643, 0.0233129095286, 0.0233682077378, 0.1080070436, 251658309, 0
1637149070264048384, 1465, 0, 160, 126, 0, 76, 180, 2183, 269588040, 33554432, 18205, 15990, 3, 56, 40.0067277112, 116.328220453, 50.3671611371, -9.69999980927, -0.262860377673, 0.0021162578658, 0.00159307232835, -0.744755626671, 1.92253420909, 177.868463098, 0.0191104058176, 0.0190339796245, 0.0196229498833, 0.00941345095634, 0.00941625703126, 0.00858870148659, 0.0233128219843, 0.0233682040125, 0.108006775379, 251658305, 0
1637149070284373126, 1465, 0, 160, 126, 0, 71, 180, 2183, 269588060, 33554432, 18205, 15990, 3, 56, 40.0067276629, 116.328220454, 50.3673092369, -9.69999980927, -0.27391697884, 0.00489386249427, 0.00707073090633, -0.74068515243, 1.92067160735, 177.869860196, 0.0191104058176, 0.0190339796245, 0.0196229498833, 0.00941345095634, 0.00941625703126, 0.00858870148659, 0.0233128219843, 0.0233682040125, 0.108006775379, 251658305, 0
1637149070305973234, 1465, 0, 160, 126, 0, 71, 180, 2183, 269588080, 33554432, 18205, 15990, 3, 56, 40.0067276129, 116.328220454, 50.3673868049, -9.69999980927, -0.283171932852, 0.00207516511289, 0.00369095361211, -0.739321872885, 1.92014109302, 177.870089984, 0.0191104058176, 0.0190339796245, 0.0196229498833, 0.00941345095634, 0.00941625703126, 0.00858870148659, 0.0233128219843, 0.0233682040125, 0.108006775379, 251658305, 0
1637149070323387172, 1465, 0, 160, 126, 0, 71, 180, 2183, 269588100, 33554432, 18205, 15990, 3, 56, 40.0067275609, 116.328220455, 50.367578553, -9.69999980927, -0.294548499752, 0.0054177315851, 0.00974083693097, -0.73673809892, 1.91718296797, 177.871248149, 0.0191104058176, 0.0190339796245, 0.0196229498833, 0.00941345095634, 0.00941625703126, 0.00858870148659, 0.0233128219843, 0.0233682040125, 0.108006775379, 251658305, 0
1637149070344460013, 1465, 0, 160, 126, 0, 71, 180, 2183, 269588120, 33554432, 18205, 15990, 3, 56, 40.0067275072, 116.328220456, 50.3677022429, -9.69999980927, -0.303654270468, 0.000189042977082, 0.00593172465762, -0.736124966747, 1.91426106804, 177.871806485, 0.0191104058176, 0.0190339796245, 0.0196229498833, 0.00941345095634, 0.00941625703126, 0.00858870148659, 0.0233128219843, 0.0233682040125, 0.108006775379, 251658305, 0
1637149070363253664, 1465, 0, 160, 126, 0, 71, 180, 2183, 269588140, 33554432, 18205, 15990, 3, 56, 40.0067274521, 116.328220457, 50.3679215843, -9.69999980927, -0.311100207829, 0.00584938650012, 0.0104201594587, -0.733395609353, 1.90896846443, 177.873065837, 0.0191104058176, 0.0190339796245, 0.0196229498833, 0.00941345095634, 0.00941625703126, 0.00858870148659, 0.0233128219843, 0.0233682040125, 0.108006775379, 251658305, 0
1637149070385018176, 1465, 0, 160, 126, 0, 71, 180, 2183, 269588160, 33554432, 18205, 15990, 3, 56, 40.0067273951, 116.328220456, 50.3680573367, -9.69999980927, -0.321581293813, -0.0026573627046, 0.00636793545359, -0.731927041436, 1.90485238594, 177.872539763, 0.0191104058176, 0.0190339796245, 0.0196229498833, 0.00941345095634, 0.00941625703126, 0.00858870148659, 0.0233128219843, 0.0233682040125, 0.108006775379, 251658305, 0
1637149070405639125, 1465, 0, 160, 126, 0, 71, 180, 2183, 269588180, 33554432, 18205, 15990, 3, 56, 40.0067273369, 116.328220457, 50.3682702435, -9.69999980927, -0.328208672091, 0.00427490289491, 0.0089916213973, -0.726678348691, 1.8996536571, 177.873070765, 0.0191104058176, 0.0190339796245, 0.0196229498833, 0.00941345095634, 0.00941625703126, 0.00858870148659, 0.0233128219843, 0.0233682040125, 0.108006775379, 251658305, 0
1637149070425827509, 1465, 0, 160, 126, 0, 71, 180, 2183, 269588200, 33554432, 18205, 15990, 3, 56, 40.0067272768, 116.328220457, 50.3683736315, -9.69999980927, -0.338878541961, -0.00224471106642, 0.0043722465379, -0.725136420034, 1.89702603185, 177.872859693, 0.0191104058176, 0.0190339796245, 0.0196229498833, 0.00941345095634, 0.00941625703126, 0.00858870148659, 0.0233128219843, 0.0233682040125, 0.108006775379, 251658305, 0
1637149070443446816, 1465, 0, 160, 126, 0, 71, 180, 2183, 269588220, 33554432, 18205, 15990, 3, 56, 40.0067272153, 116.328220457, 50.3685598783, -9.69999980927, -0.346260097043, 0.00323556258241, 0.00718455517713, -0.720040872263, 1.8934679143, 177.874228255, 0.0191104058176, 0.0190339796245, 0.0196229498833, 0.00941345095634, 0.00941625703126, 0.00858870148659, 0.0233128219843, 0.0233682040125, 0.108006775379, 251658305, 0
1637149070466329378, 1465, 0, 160, 126, 0, 71, 180, 2183, 269588240, 33554432, 18205, 15990, 3, 56, 40.0067271521, 116.328220457, 50.3686213112, -9.69999980927, -0.355983916983, -0.000549965113105, 0.0020961530832, -0.717466813063, 1.89089667096, 177.873752915, 0.0191104058176, 0.0190339796245, 0.0196229498833, 0.00941345095634, 0.00941625703126, 0.00858870148659, 0.0233128219843, 0.0233682040125, 0.108006775379, 251658305, 0
1637149070483371777, 1465, 0, 160, 126, 0, 71, 180, 2183, 269588260, 33554432, 18205, 15990, 3, 56, 40.0067270874, 116.328220458, 50.368772516, -9.69999980927, -0.364619089473, 0.0030401276871, 0.00500075256386, -0.71319954634, 1.88965663172, 177.875726946, 0.0191104058176, 0.0190339796245, 0.0196229498833, 0.00941345095634, 0.00941625703126, 0.00858870148659, 0.0233128219843, 0.0233682040125, 0.108006775379, 251658305, 0
1637149070506155490, 1465, 0, 160, 126, 0, 71, 180, 2183, 269588280, 33554432, 18205, 15990, 3, 56, 40.006727021, 116.328220458, 50.3688187487, -9.69999980927, -0.373522775697, 0.00031561401198, 0.00200709050956, -0.710184432337, 1.88799963676, 177.876779392, 0.0191104058176, 0.0190339796245, 0.0196229498833, 0.00941345095634, 0.00941625703126, 0.00858870148659, 0.0233128219843, 0.0233682040125, 0.108006775379, 251658305, 0
1637149070527682167, 1465, 0, 160, 126, 0, 71, 180, 2183, 269588300, 33554432, 18205, 15990, 3, 56, 40.0067269528, 116.328220459, 50.3689661035, -9.69999980927, -0.384316215466, 0.00469771971111, 0.00519501742817, -0.709539383243, 1.88614102579, 177.877953652, 0.0191104058176, 0.0190339796245, 0.0196229498833, 0.00941345095634, 0.00941625703126, 0.00858870148659, 0.0233128219843, 0.0233682040125, 0.108006775379, 251658305, 0
1637149070544873744, 1465, 0, 160, 126, 0, 71, 180, 2183, 269588320, 33554432, 18205, 15990, 3, 56, 40.0067268828, 116.32822046, 50.3690436408, -9.69999980927, -0.394256321417, 0.000491046427887, 0.00449890305607, -0.707893981454, 1.88440730473, 177.879413145, 0.0191104058176, 0.0190339796245, 0.0196229498833, 0.00941345095634, 0.00941625703126, 0.00858870148659, 0.0233128219843, 0.0233682040125, 0.108006775379, 251658305, 0
1637149070563981092, 1465, 0, 160, 126, 0, 71, 180, 2183, 269588340, 33554432, 18205, 15990, 3, 56, 40.0067268111, 116.328220461, 50.3691840107, -9.69999980927, -0.403253029147, 0.00607863677857, 0.00426282538585, -0.706761360448, 1.88114182595, 177.882324379, 0.0191104058176, 0.0190339796245, 0.0196229498833, 0.00941345095634, 0.00941625703126, 0.00858870148659, 0.0233128219843, 0.0233682040125, 0.108006775379, 251658305, 0
1637149070585189755, 1465, 0, 160, 126, 0, 71, 180, 2183, 269588360, 33554432, 18205, 15990, 3, 56, 40.0067267377, 116.328220462, 50.3693032833, -9.69999980927, -0.413177444011, 0.00192805143367, 0.00711636382129, -0.706456420593, 1.87790623926, 177.88430621, 0.0191104058176, 0.0190339796245, 0.0196229498833, 0.00941345095634, 0.00941625703126, 0.00858870148659, 0.0233128219843, 0.0233682040125, 0.108006775379, 251658305, 0
1637149070604821625, 1465, 0, 160, 126, 0, 71, 180, 2183, 269588380, 33554432, 18205, 15990, 3, 56, 40.0067266624, 116.328220463, 50.3694494907, -9.69999980927, -0.423926356589, 0.00544970446019, 0.00449464780116, -0.703666718986, 1.87440981279, 177.887366736, 0.0191104058176, 0.0190339796245, 0.0196229498833, 0.00941345095634, 0.00941625703126, 0.00858870148659, 0.0233128219843, 0.0233682040125, 0.108006775379, 251658305, 0
1637149070624595339, 1465, 0, 160, 126, 0, 71, 180, 2183, 269588400, 33554432, 18205, 15990, 3, 56, 40.0067265852, 116.328220464, 50.3696122942, -9.69999980927, -0.433910683399, 0.00326447263353, 0.00973310670464, -0.701604516632, 1.86995912363, 177.889880548, 0.0191104058176, 0.0190339796245, 0.0196229498833, 0.00941345095634, 0.00941625703126, 0.00858870148659, 0.0233128219843, 0.0233682040125, 0.108006775379, 251658305, 0
1637149070644921904, 1465, 0, 160, 126, 0, 71, 180, 2183, 269588420, 33554432, 18205, 15990, 3, 56, 40.0067265064, 116.328220465, 50.3697534204, -9.69999980927, -0.443307638053, 0.00504720043855, 0.00401382890871, -0.699535317553, 1.86298206297, 177.893789597, 0.0191104058176, 0.0190339796245, 0.0196229498833, 0.00941345095634, 0.00941625703126, 0.00858870148659, 0.0233128219843, 0.0233682040125, 0.108006775379, 251658305, 0
1637149070664410828, 1465, 0, 160, 126, 0, 71, 180, 2183, 269588440, 33554432, 18205, 15990, 3, 56, 40.0067264258, 116.328220466, 50.3699383764, -9.69999980927, -0.453143922306, 0.00359834963046, 0.0110767725278, -0.696927170634, 1.86108375918, 177.896381207, 0.0191104058176, 0.0190339796245, 0.0196229498833, 0.00941345095634, 0.00941625703126, 0.00858870148659, 0.0233128219843, 0.0233682040125, 0.108006775379, 251658305, 0
1637149070683931822, 1465, 0, 160, 126, 0, 71, 180, 2183, 269588460, 33554432, 18205, 15990, 3, 56, 40.0067263434, 116.328220468, 50.3700779472, -9.69999980927, -0.462865840764, 0.00424912046181, 0.00434365485611, -0.695354666098, 1.85376844883, 177.900382998, 0.0191104058176, 0.0190339796245, 0.0196229498833, 0.00941345095634, 0.00941625703126, 0.00858870148659, 0.0233128219843, 0.0233682040125, 0.108006775379, 251658305, 0
1637149070706685784, 1465, 0, 160, 126, 0, 71, 180, 2183, 269588480, 33554432, 18205, 15990, 3, 56, 40.0067262595, 116.328220468, 50.3702964494, -9.69999980927, -0.470878813316, 0.00438930217982, 0.0128794452181, -0.692082515901, 1.85012140831, 177.903889287, 0.0191104058176, 0.0190339796245, 0.0196229498833, 0.00941345095634, 0.00941625703126, 0.00858870148659, 0.0233128219843, 0.0233682040125, 0.108006775379, 251658305, 0
1637149070723715097, 1465, 0, 160, 126, 0, 71, 180, 2183, 269588500, 33554432, 18205, 15990, 3, 56, 40.006726174, 116.32822047, 50.3704140466, -9.69999980927, -0.479998873241, 0.0035395707465, 0.00401725542797, -0.691882717361, 1.84539978746, 177.90812227, 0.0191104058176, 0.0190339796245, 0.0196229498833, 0.00941345095634, 0.00941625703126, 0.00858870148659, 0.0233128219843, 0.0233682040125, 0.108006775379, 251658305, 0
1637149070744390770, 1465, 0, 160, 126, 0, 71, 180, 2183, 269588520, 33554432, 18205, 15990, 3, 56, 40.0067260869, 116.328220471, 50.3706363728, -9.69999980927, -0.488265303882, 0.00333321002223, 0.0131110646589, -0.689295525045, 1.8432707307, 177.911332654, 0.0191104058176, 0.0190339796245, 0.0196229498833, 0.00941345095634, 0.00941625703126, 0.00858870148659, 0.0233128219843, 0.0233682040125, 0.108006775379, 251658305, 0
1637149070764898468, 1465, 0, 160, 126, 0, 71, 180, 2183, 269588540, 33554432, 18205, 15990, 3, 56, 40.0067259985, 116.328220471, 50.370735066, -9.69999980927, -0.495768142964, 0.00141501806149, 0.00353471247756, -0.687209002079, 1.83869514345, 177.915891551, 0.0191104058176, 0.0190339796245, 0.0196229498833, 0.00941345095634, 0.00941625703126, 0.00858870148659, 0.0233128219843, 0.0233682040125, 0.108006775379, 251658305, 0
1637149070784142325, 1465, 0, 160, 126, 0, 71, 180, 2183, 269588560, 33554432, 18205, 15990, 3, 56, 40.0067259086, 116.328220472, 50.3709475743, -9.69999980927, -0.503545427111, 0.00219536434179, 0.0123379928948, -0.683251259489, 1.83706450803, 177.920463094, 0.0191104058176, 0.0190339796245, 0.0196229498833, 0.00941345095634, 0.00941625703126, 0.00858870148659, 0.0233128219843, 0.0233682040125, 0.108006775379, 251658305, 0
1637149070804933126, 1465, 0, 160, 126, 0, 71, 180, 2183, 269588580, 33554432, 18205, 15990, 3, 56, 40.006725817, 116.328220473, 50.3710214272, -9.69999980927, -0.513838829904, 0.00103213336205, 0.00291803571201, -0.681943309049, 1.83395789671, 177.925660309, 0.0191104058176, 0.0190339796245, 0.0196229498833, 0.00941345095634, 0.00941625703126, 0.00858870148659, 0.0233128219843, 0.0233682040125, 0.108006775379, 251658305, 0
1637149070824538727, 1465, 0, 160, 126, 0, 71, 180, 2183, 269588600, 33554432, 18205, 15990, 3, 56, 40.0067257241, 116.328220473, 50.3712221868, -9.69999980927, -0.520475494648, 0.00512634131068, 0.0115663911061, -0.679488984594, 1.831991644, 177.931276784, 0.0191104058176, 0.0190339796245, 0.0196229498833, 0.00941345095634, 0.00941625703126, 0.00858870148659, 0.0233128219843, 0.0233682040125, 0.108006775379, 251658305, 0
1637149070843548880, 1465, 0, 160, 126, 0, 71, 180, 2183, 269588620, 33554432, 18205, 15990, 3, 56, 40.0067256292, 116.328220474, 50.3712820364, -9.69999980927, -0.531848973452, 0.000549487143187, 0.00317775220725, -0.678760961185, 1.82949572447, 177.938448925, 0.0191104058176, 0.0190339796245, 0.0196229498833, 0.00941345095634, 0.00941625703126, 0.00858870148659, 0.0233128219843, 0.0233682040125, 0.108006775379, 251658305, 0
1637149070864242157, 1465, 0, 160, 126, 0, 71, 180, 2183, 269588640, 33554432, 18205, 15990, 3, 56, 40.0067255329, 116.328220475, 50.3714982038, -9.69999980927, -0.539749458159, 0.0075313927379, 0.0125629752574, -0.675445995789, 1.82576086293, 177.946382007, 0.0191104058176, 0.0190339796245, 0.0196229498833, 0.00941345095634, 0.00941625703126, 0.00858870148659, 0.0233128219843, 0.0233682040125, 0.108006775379, 251658305, 0
1637149070884979317, 1465, 0, 160, 126, 0, 71, 180, 2183, 269588660, 33554432, 18205, 15990, 3, 56, 40.0067254348, 116.328220476, 50.3715520091, -9.69999980927, -0.549278633878, 0.00193097619114, 0.00398787750679, -0.675376574758, 1.8224117288, 177.955134327, 0.0191104058176, 0.0190339796245, 0.0196229498833, 0.00941345095634, 0.00941625703126, 0.00858870148659, 0.0233128219843, 0.0233682040125, 0.108006775379, 251658305, 0
1637149070904589654, 1465, 0, 160, 126, 0, 71, 180, 2183, 269588680, 33554432, 18205, 15990, 3, 56, 40.0067253351, 116.328220478, 50.3717750432, -9.69999980927, -0.558217863565, 0.00860087814948, 0.0128374565727, -0.671054101014, 1.81769535398, 177.966191448, 0.0191104058176, 0.0190339796245, 0.0196229498833, 0.00941345095634, 0.00941625703126, 0.00858870148659, 0.0233128219843, 0.0233682040125, 0.108006775379, 251658305, 0
1637149070925036551, 1465, 0, 160, 126, 0, 71, 180, 2183, 269588700, 33554432, 18205, 15990, 3, 56, 40.0067252336, 116.328220479, 50.3718537241, -9.69999980927, -0.568894263906, 0.00422069570046, 0.00580865598977, -0.670340413741, 1.81281661462, 177.977163394, 0.0191104058176, 0.0190339796245, 0.0196229498833, 0.00941345095634, 0.00941625703126, 0.00858870148659, 0.0233128219843, 0.0233682040125, 0.108006775379, 251658305, 0
1637149070945008425, 1465, 0, 160, 126, 0, 71, 180, 2183, 269588720, 33554432, 18205, 15990, 3, 56, 40.0067251305, 116.328220481, 50.3720815433, -9.69999980927, -0.577793258441, 0.0111417626531, 0.0124026385882, -0.667605134796, 1.80758037026, 177.990084538, 0.0191104058176, 0.0190339796245, 0.0196229498833, 0.00941345095634, 0.00941625703126, 0.00858870148659, 0.0233128219843, 0.0233682040125, 0.108006775379, 251658305, 0
1637149070963662687, 1465, 0, 160, 126, 0, 71, 180, 2183, 269588740, 33554432, 18205, 15990, 3, 56, 40.0067250256, 116.328220482, 50.3721595304, -9.69999980927, -0.587176811961, 0.00451694209557, 0.00640533865693, -0.666293108183, 1.80325286045, 178.002731415, 0.0191104058176, 0.0190339796245, 0.0196229498833, 0.00941345095634, 0.00941625703126, 0.00858870148659, 0.0233128219843, 0.0233682040125, 0.108006775379, 251658305, 0
1637149070984163875, 1465, 0, 160, 126, 0, 71, 180, 2183, 269588760, 33554432, 18205, 15990, 3, 56, 40.0067249191, 116.328220485, 50.3723697355, -9.69999980927, -0.596127839165, 0.0122491293286, 0.0110665880504, -0.663881216714, 1.79655205976, 178.016637414, 0.0191104058176, 0.0190339796245, 0.0196229498833, 0.00941345095634, 0.00941625703126, 0.00858870148659, 0.0233128219843, 0.0233682040125, 0.108006775379, 251658305, 0
1637149071008485855, 1465, 0, 160, 126, 0, 71, 180, 2183, 269588780, 33554432, 18205, 15990, 3, 56, 40.0067248111, 116.328220486, 50.3724902384, -9.69999980927, -0.603764450376, 0.00389769589901, 0.00931588726163, -0.663417961946, 1.79175524392, 178.029842789, 0.0191104058176, 0.0190339796245, 0.0196229498833, 0.00941345095634, 0.00941625703126, 0.00858870148659, 0.0233128219843, 0.0233682040125, 0.108006775379, 251658305, 0
1637149071024384954, 1465, 0, 160, 126, 0, 71, 180, 2183, 269588800, 33554432, 18205, 15990, 3, 56, 40.0067247017, 116.328220488, 50.3727254523, -9.69999980927, -0.612400027758, 0.0113370761074, 0.0124154098038, -0.661396994759, 1.7866953464, 178.045360802, 0.0191104058176, 0.0190339796245, 0.0196229498833, 0.00941345095634, 0.00941625703126, 0.00858870148659, 0.0233128219843, 0.0233682040125, 0.108006775379, 251658305, 0
1637149071044461206, 1465, 0, 160, 126, 0, 71, 180, 2183, 269588820, 33554432, 18205, 15990, 3, 56, 40.0067245906, 116.328220489, 50.3729091296, -9.69999980927, -0.621280012579, 0.00387315252492, 0.0126824008513, -0.66238669279, 1.78104145987, 178.059672688, 0.0191104058176, 0.0190339796245, 0.0196229498833, 0.00941345095634, 0.00941625703126, 0.00858870148659, 0.0233128219843, 0.0233682040125, 0.108006775379, 251658305, 0
1637149071064661595, 1465, 0, 160, 126, 0, 71, 180, 2183, 269588840, 33554432, 18205, 15990, 3, 56, 40.0067244781, 116.328220491, 50.3731723968, -9.69999980927, -0.62904197002, 0.0105234173299, 0.0132922378991, -0.661366012253, 1.77503668096, 178.075721422, 0.0191104058176, 0.0190339796245, 0.0196229498833, 0.00941345095634, 0.00941625703126, 0.00858870148659, 0.0233128219843, 0.0233682040125, 0.108006775379, 251658305, 0
1637149071083791781, 1465, 0, 160, 126, 0, 71, 180, 2183, 269588860, 33554432, 18205, 15990, 3, 56, 40.0067243642, 116.328220492, 50.3733933875, -9.69999980927, -0.636596112933, 0.00404333406919, 0.0147214910079, -0.663088423066, 1.76984635779, 178.090932261, 0.0191104058176, 0.0190339796245, 0.0196229498833, 0.00941345095634, 0.00941625703126, 0.00858870148659, 0.0233128219843, 0.0233682040125, 0.108006775379, 251658305, 0
1637149071106219262, 1465, 0, 160, 126, 0, 71, 180, 2183, 269588880, 33554432, 18205, 15990, 3, 56, 40.0067242488, 116.328220494, 50.3736735629, -9.69999980927, -0.645091323234, 0.00781095140561, 0.0135716128806, -0.660771170183, 1.76224333104, 178.107772023, 0.0191104058176, 0.0190339796245, 0.0196229498833, 0.00941345095634, 0.00941625703126, 0.00858870148659, 0.0233128219843, 0.0233682040125, 0.108006775379, 251658305, 0
1637149071124890187, 1465, 0, 160, 126, 0, 71, 180, 2183, 269588900, 33554432, 18205, 15990, 3, 56, 40.0067241321, 116.328220495, 50.3739202712, -9.69999980927, -0.651982650399, 0.00426187698847, 0.015964560071, -0.660629617228, 1.75734762675, 178.125340907, 0.0191104058176, 0.0190339796245, 0.0196229498833, 0.00941345095634, 0.00941625703126, 0.00858870148659, 0.0233128219843, 0.0233682040125, 0.108006775379, 251658305, 0
1637149071143963576, 1465, 0, 160, 126, 0, 71, 180, 2183, 269588920, 33554432, 18205, 15990, 3, 56, 40.0067240138, 116.328220496, 50.3742008898, -9.69999980927, -0.661767627503, 0.00740609195963, 0.0132732330413, -0.658970001789, 1.75001962824, 178.144456433, 0.0191104058176, 0.0190339796245, 0.0196229498833, 0.00941345095634, 0.00941625703126, 0.00858870148659, 0.0233128219843, 0.0233682040125, 0.108006775379, 251658305, 0
1637149071163534922, 1465, 0, 160, 126, 0, 71, 180, 2183, 269588940, 33554432, 18205, 15990, 3, 56, 40.0067238943, 116.328220497, 50.3744883444, -9.69999980927, -0.667361117955, 0.00500829343401, 0.0176167523733, -0.656537426937, 1.74299965028, 178.163875501, 0.0191104058176, 0.0190339796245, 0.0196229498833, 0.00941345095634, 0.00941625703126, 0.00858870148659, 0.0233128219843, 0.0233682040125, 0.108006775379, 251658305, 0
1637149071184574051, 1465, 0, 160, 126, 0, 71, 180, 2183, 269588960, 33554432, 18205, 15990, 3, 56, 40.0067237734, 116.328220499, 50.3747662753, -9.69999980927, -0.675537147324, 0.00846748155303, 0.0129287202739, -0.655536232541, 1.73630963191, 178.185181475, 0.0191104058176, 0.0190339796245, 0.0196229498833, 0.00941345095634, 0.00941625703126, 0.00858870148659, 0.0233128219843, 0.0233682040125, 0.108006775379, 251658305, 0
1637149071204786166, 1465, 0, 160, 126, 0, 71, 180, 2183, 269588980, 33554432, 18205, 15990, 3, 56, 40.006723651, 116.3282205, 50.3750861725, -9.69999980927, -0.683974083919, 0.00639045834052, 0.0188087010775, -0.652737231785, 1.72927969978, 178.20638632, 0.0191104058176, 0.0190339796245, 0.0196229498833, 0.00941345095634, 0.00941625703126, 0.00858870148659, 0.0233128219843, 0.0233682040125, 0.108006775379, 251658305, 0
1637149071228263997, 1465, 0, 160, 126, 0, 71, 180, 2183, 269589000, 33554432, 18205, 15990, 3, 56, 40.0067235272, 116.328220502, 50.3753416892, -9.69999980927, -0.691853273019, 0.00947163313781, 0.010845695179, -0.653030332961, 1.72074340102, 178.230588368, 0.0191104058176, 0.0190339796245, 0.0196229498833, 0.00941345095634, 0.00941625703126, 0.00858870148659, 0.0233128219843, 0.0233682040125, 0.108006775379, 251658305, 0
1637149071245774992, 1465, 0, 160, 126, 0, 71, 180, 2183, 269589020, 33554432, 18205, 15990, 3, 56, 40.0067234019, 116.328220503, 50.3756639324, -9.69999980927, -0.700117462563, 0.00683837239984, 0.0184120976491, -0.652822437486, 1.71595861567, 178.25417648, 0.0259121321142, 0.0258461404592, 0.0259939264506, 0.0144853098318, 0.0145167065784, 0.0122258719057, 0.0281806010753, 0.0282271429896, 0.109375171363, 251658305, 0
1637149071263996399, 1465, 0, 160, 126, 0, 71, 180, 2183, 269589040, 33554432, 18205, 15990, 3, 56, 40.0067232751, 116.328220504, 50.3758719312, -9.69999980927, -0.708002609252, 0.00772101638807, 0.00927506405239, -0.652875354702, 1.70877766473, 178.278899864, 0.0230860915035, 0.0230096131563, 0.0234115347266, 0.0138622978702, 0.0138841196895, 0.0117069724947, 0.0281410012394, 0.0281907264143, 0.109371617436, 251658305, 0
1637149071283637313, 1465, 0, 160, 126, 0, 71, 180, 2183, 269589060, 33554432, 18205, 15990, 3, 56, 40.0067231472, 116.328220503, 50.3761141738, -9.69999980927, -0.713502070453, 0.00469969027256, 0.0161479854013, -0.651309011838, 1.70500821986, 178.303443373, 0.0230860915035, 0.0230096131563, 0.0234115347266, 0.0138622978702, 0.0138841196895, 0.0117069724947, 0.0281410012394, 0.0281907264143, 0.109371617436, 251658305, 0
1637149071305933839, 1465, 0, 160, 126, 0, 71, 180, 2183, 269589080, 33554432, 18205, 15990, 3, 56, 40.0067230177, 116.328220503, 50.3762596743, -9.69999980927, -0.722775374116, 0.0038891661867, 0.00682898406126, -0.650256520213, 1.69928112842, 178.328888868, 0.0230860915035, 0.0230096131563, 0.0234115347266, 0.0138622978702, 0.0138841196895, 0.0117069724947, 0.0281410012394, 0.0281907264143, 0.109371617436, 251658305, 0
1637149071323707508, 1465, 0, 160, 126, 0, 72, 180, 2183, 269589100, 33554432, 18205, 15990, 3, 56, 40.0067228871, 116.328220502, 50.3764748322, -9.69999980927, -0.728019948047, 0.0025353502405, 0.0141013897805, -0.64508967512, 1.69632023319, 178.353924687, 0.0230860915035, 0.0230096131563, 0.0234115347266, 0.0138622978702, 0.0138841196895, 0.0117069724947, 0.0281410012394, 0.0281907264143, 0.109371617436, 251658305, 0
1637149071344222593, 1465, 0, 160, 126, 0, 72, 180, 2183, 269589120, 33554432, 18205, 15990, 3, 56, 40.006722755, 116.328220501, 50.3765515536, -9.69999980927, -0.737314612853, 0.00181912253985, 0.00294604128942, -0.644346213986, 1.6930269514, 178.379258366, 0.0230860915035, 0.0230096131563, 0.0234115347266, 0.0138622978702, 0.0138841196895, 0.0117069724947, 0.0281410012394, 0.0281907264143, 0.109371617436, 251658305, 0
1637149071363309736, 1465, 0, 160, 126, 0, 72, 180, 2183, 269589140, 33554432, 18205, 15990, 3, 56, 40.0067226214, 116.3282205, 50.3767277263, -9.69999980927, -0.744870975489, 0.00194905930065, 0.0114437608151, -0.640674180939, 1.69033963693, 178.403635162, 0.0230860915035, 0.0230096131563, 0.0234115347266, 0.0138622978702, 0.0138841196895, 0.0117069724947, 0.0281410012394, 0.0281907264143, 0.109371617436, 251658305, 0
1637149071384430516, 1465, 0, 160, 126, 0, 72, 180, 2183, 269589160, 33554432, 18205, 15990, 3, 56, 40.0067224864, 116.328220499, 50.3767547663, -9.69999980927, -0.753496512342, -0.00094696197966, 0.000436580474228, -0.639440514149, 1.68577052754, 178.427900668, 0.0230860915035, 0.0230096131563, 0.0234115347266, 0.0138622978702, 0.0138841196895, 0.0117069724947, 0.0281410012394, 0.0281907264143, 0.109371617436, 251658305, 0
1637149071407059382, 1465, 0, 160, 126, 0, 72, 180, 2183, 269589180, 33554432, 18205, 15990, 3, 56, 40.0067223499, 116.328220497, 50.3769227602, -9.69999980927, -0.76244518909, 0.00150417898456, 0.011021621678, -0.636259233745, 1.68386546518, 178.452373368, 0.0230860915035, 0.0230096131563, 0.0234115347266, 0.0138622978702, 0.0138841196895, 0.0117069724947, 0.0281410012394, 0.0281907264143, 0.109371617436, 251658305, 0
1637149071424134659, 1465, 0, 160, 126, 0, 72, 180, 2183, 269589200, 33554432, 18205, 15990, 3, 56, 40.0067222116, 116.328220495, 50.3769409144, -9.69999980927, -0.771445148517, -0.00401785226283, 0.00060789059475, -0.63588241987, 1.68142307217, 178.478282409, 0.0230860915035, 0.0230096131563, 0.0234115347266, 0.0138622978702, 0.0138841196895, 0.0117069724947, 0.0281410012394, 0.0281907264143, 0.109371617436, 251658305, 0
1637149071444600366, 1465, 0, 160, 126, 0, 72, 180, 2183, 269589220, 33554432, 18205, 15990, 3, 56, 40.006722072, 116.328220494, 50.3771002777, -9.69999980927, -0.779796276519, 0.00115399452938, 0.0098617706462, -0.632501075865, 1.67798562648, 178.503866141, 0.0230860915035, 0.0230096131563, 0.0234115347266, 0.0138622978702, 0.0138841196895, 0.0117069724947, 0.0281410012394, 0.0281907264143, 0.109371617436, 251658305, 0
1637149071464499002, 1465, 0, 160, 126, 0, 72, 180, 2183, 269589240, 33554432, 18205, 15990, 3, 56, 40.0067219307, 116.328220492, 50.3771207165, -9.69999980927, -0.788194015561, -0.00735741183881, 0.00130186089673, -0.631123028405, 1.67489595913, 178.529780818, 0.0230860915035, 0.0230096131563, 0.0234115347266, 0.0138622978702, 0.0138841196895, 0.0117069724947, 0.0281410012394, 0.0281907264143, 0.109371617436, 251658305, 0
1637149071483838712, 1465, 0, 160, 126, 0, 72, 180, 2183, 269589260, 33554432, 18205, 15990, 3, 56, 40.006721788, 116.32822049, 50.3772854647, -9.69999980927, -0.796542761418, 0.000498569848895, 0.00953786967632, -0.62722697537, 1.67281193952, 178.555953792, 0.0230860915035, 0.0230096131563, 0.0234115347266, 0.0138622978702, 0.0138841196895, 0.0117069724947, 0.0281410012394, 0.0281907264143, 0.109371617436, 251658305, 0
1637149071505472906, 1465, 0, 160, 126, 0, 72, 180, 2183, 269589280, 33554432, 18205, 15990, 3, 56, 40.0067216439, 116.328220488, 50.3772989409, -9.69999980927, -0.803176629625, -0.00589264637818, 0.000916429464864, -0.626642442423, 1.67012146968, 178.583055082, 0.0230860915035, 0.0230096131563, 0.0234115347266, 0.0138622978702, 0.0138841196895, 0.0117069724947, 0.0281410012394, 0.0281907264143, 0.109371617436, 251658305, 0
1637149071523889494, 1465, 0, 160, 126, 0, 72, 180, 2183, 269589300, 33554432, 18205, 15990, 3, 56, 40.0067214984, 116.328220486, 50.377452421, -9.69999980927, -0.812523484047, 0.00307529475752, 0.00810501919627, -0.626674158553, 1.6691602687, 178.610795015, 0.0230860915035, 0.0230096131563, 0.0234115347266, 0.0138622978702, 0.0138841196895, 0.0117069724947, 0.0281410012394, 0.0281907264143, 0.109371617436, 251658305, 0
1637149071544838162, 1465, 0, 160, 126, 0, 72, 180, 2183, 269589320, 33554432, 18205, 15990, 3, 56, 40.0067213511, 116.328220485, 50.3774704607, -9.69999980927, -0.82187501487, -0.00441399912884, 0.00159662687682, -0.630943832189, 1.66843284405, 178.638541816, 0.0230860915035, 0.0230096131563, 0.0234115347266, 0.0138622978702, 0.0138841196895, 0.0117069724947, 0.0281410012394, 0.0281907264143, 0.109371617436, 251658305, 0
1637149071563253710, 1465, 0, 160, 126, 0, 72, 180, 2183, 269589340, 33554432, 18205, 15990, 3, 56, 40.0067212027, 116.328220484, 50.3776030205, -9.69999980927, -0.828418130767, 0.00287498444165, 0.00560649695156, -0.630003548986, 1.66720632445, 178.669421374, 0.0230860915035, 0.0230096131563, 0.0234115347266, 0.0138622978702, 0.0138841196895, 0.0117069724947, 0.0281410012394, 0.0281907264143, 0.109371617436, 251658305, 0
1637149071585429050, 1465, 0, 160, 126, 0, 72, 180, 2183, 269589360, 33554432, 18205, 15990, 3, 56, 40.0067210525, 116.328220482, 50.3776118578, -9.69999980927, -0.838062452302, -0.00595647363828, 0.00141256604669, -0.631352408201, 1.66729604136, 178.700635617, 0.0230860915035, 0.0230096131563, 0.0234115347266, 0.0138622978702, 0.0138841196895, 0.0117069724947, 0.0281410012394, 0.0281907264143, 0.109371617436, 251658305, 0
